小区,房屋数量,count,均价变动,lng,lat,地址,ID
长岛花园,1,38630,0.14648699999999998,120.65141200000001,31.302176,莫邪路347号,886403
嘉城景帆苑,8,10370,0.010979899999999999,120.760224,30.782745000000002,新丝路21号,889853
月亮湾,18,11727,-0.12829100000000002,120.874323,31.055519,康力大道588号,792708
太湖小区,30,11610,-0.00296039,120.634897,31.157843,笠泽路871号,886962
银杏苑,1,22478,0.021981099999999996,120.591122,31.313240999999998,金门路919号,885605
赞成丽景苑,99,9927,-0.059497900000000006,120.79293200000001,30.765657,双溪路453号,890114
东方经典花苑,5,6999,-0.0222907,120.965034,30.913943,汇源路,594604
蓝湖湾,6,14232,0.0423782,120.537879,31.855617,暨阳湖大道,889409
丽江半岛,49,10760,0.00276621,120.805594,30.737857,云东路，近塘桥路,890152
茂月居,4,8513,0.148726,120.84773899999999,31.139226,龙蚬路269号,884592
湖滨华城平安苑,2,13842,0.0253411,120.637105,31.13335,长坂路，近苏州河路,887052
金穗月亮湾,3,8499,-0.00486816,120.73331999999999,30.740503000000004,城南路1655号,889882
铂金公馆,4,11457,0.336809,119.667402,30.610807,独松观路468号,989736
闽信名筑,1,14035,,120.51778999999999,31.353820000000002,鸿禧路26号,886698
华丽家族太上湖上景花园一区,114,17847,0.0750589,120.444845,31.226874,环太湖大道138号,887989
白云花苑,1,10381,0.0028319000000000005,120.915306,30.819703000000004,白水塘路,890337
景秀苑,1,9736,-0.0263211,120.95031399999999,31.413388,水秀路,883735
南郊花苑(南区),2,8888,,120.76176399999999,30.724233,马塘路275号,889938
亲亲家园,1,7566,0.00259427,120.57315,30.626241999999998,校场东路,892494
金色家园,1,8789,-0.125589,120.830424,30.853878,南星桥路，近麟溪路,941366
万联花园,53,11628,0.000158433,120.928326,30.824384999999996,世纪大道,890421
十里风荷,53,16986,0.185318,120.72168500000001,30.537312,碧云北路，近施带路,1026582
金澄明珠别墅,1,25068,,120.85213300000001,31.247689,湖滨路666号,888158
汀香别墅,1,15094,,119.67010900000001,30.586097,机场路,939700
西苑新村,12,13783,-0.0458586,120.976821,31.385175,珠江路,884145
招商太公望(别墅),4,13458,-0.0517601,120.705246,31.632533000000002,中央大道,885311
滨江花园,1,8756,-0.11380699999999999,120.890592,31.967383,紫琅南路18号,917622
华强城,1,10365,,120.86810200000001,32.046135,北大街,917801
金都九月洋房朗轩,7,12066,0.00751503,120.694584,30.760498,秀园路,798234
南都中心,263,10870,-0.00777752,120.74226399999999,30.745174,城南路，近中环南路,1006356
城中花园,9,42997,-0.026162599999999998,120.625075,31.311324,西美巷,886092
万家花园,48,9259,0.11146099999999999,120.783221,30.757686,望湖路108号,890006
南环东路3号小区,3,27272,,120.65568300000001,31.290033,南环东路3号,886378
金水湾花园,4,5438,0.10818,120.93323799999999,32.357631,交通东路7号,918264
龙之梦悦庭,111,9622,0.0007389769999999999,120.74528600000001,30.74721,中环南路1969号,1006355
佳源都市(西区),38,9931,-0.017233099999999998,120.77851899999999,30.784961,城东路,889847
中南世纪城,5,18953,0.00900542,120.77783400000001,31.66507,泰山南路,885263
旭辉广场,3,10045,-0.0184679,120.75323700000001,30.766893,中山东路666号,927347
尚公馆,1,9181,0.00657823,120.701843,30.509965,钱江东路26号,891411
府南花园(一区),3,7629,0.00722599,120.760369,30.738011,新气象路946号,889789
康怡园,225,9864,0.0344181,120.97721299999999,31.377236,朝阳中路465号,883762
放鹤洲花园(一期),2,11866,-0.00561468,120.749968,30.754493,放鹤洲路159号,889770
汇高百悦府,8,9967,-0.0474358,120.697337,30.49745,江南大道，近海昌南路,952801
世茂尚景翠苑,1,9383,0.000892632,120.78881799999999,30.710829999999998,五环洞路,889976
玉兰新村,2,18658,0.0112012,120.64155,31.297140999999996,南园北路25号,886330
宇隆嘉苑,14,9716,0.0130934,120.75848400000001,30.83059,奥星路278号,438527
海安7星首府,21,6818,0.00102775,120.50060500000001,32.540343,黄海大道东19号,926348
越秀花园,12,9664,0.025018000000000002,120.736602,30.762110999999997,吉杨路488号,890108
宝领新村,156,8791,-0.0196275,120.9672,31.366864,衡山路,883302
阳光水榭花园(50-94幢),1,14000,,120.63330900000001,31.255132,东吴南路，近石湖西路,887657
万科濠河传奇,2,15102,0.18956199999999998,120.849623,32.014799,任港路99号,917334
长虹春天,686,10084,-0.00688347,120.72928,30.878145,运河东路，近虹桥路,912652
当代万国府ΜΟΜΛ,7,30000,0.014713299999999999,120.62518999999999,31.339094,苏站路,915259
金科廊桥水岸,2,11000,,120.643321,31.127696999999998,思贤路，近鲈乡南路,802377
碧霞苑,1,5809,-0.00511082,120.768619,32.245293,市河路,918274
和兴花苑,1,21894,-0.00478469,120.88635900000001,32.023065,平安路8号,917447
锦绣苑,1,9964,-0.07800499999999999,120.74005600000001,30.774081,越秀北路483号,889884
嘉禾绿洲,7,9424,0.07171160000000001,120.699899,30.759256,秀清路188号,890211
紫竹名苑,47,10808,0.0199113,120.79106100000001,30.759633,景宜路183号,890142
绿地中心泊珑湾,5,25344,-0.122673,120.606899,31.136967,东太湖大道9999号,886855
学田中南苑,1,9277,-0.156603,120.891904,32.021978000000004,学田南路,917545
绿地家园,6,11430,0.15626600000000002,120.67605,30.688721,绿园路,890239
月亮湾,20,13691,0.00828679,120.645769,31.272182,迎春路，近文曲路,887709
嘉业阳光城,7,13734,0.00377726,120.57586699999999,31.327666999999998,西环路,885460
明丰翠湖苑,3,8382,0.26627399999999996,120.861571,31.028683,浦港南路358号,887161
长江花园,1,11590,-0.04541,120.98711399999999,31.406335,长江北路,884350
嘉兴人才公寓,98,10000,,120.73538899999998,30.740864000000002,创新路220号,889865
白领公寓,1,21294,0.00625252,120.679006,31.318408,星汉街168号,888305
欣居花苑,3,7019,-0.00893912,120.93853100000001,30.508031,秀水南路200号,890497
江风海韵,29,6144,-0.029267500000000002,120.577505,32.107194,长江东路,918341
国际艺术村,2,14094,-0.0101101,120.95069,31.40445,花园西路,883505
海宁月亮湾,4,8045,-0.2015,120.71948400000001,30.528934000000003,碧云南路，近水月亭东路,952789
荣盛富盛名邸,39,10330,0.0407913,120.782647,30.734972999999997,由拳路，近富润路,1024171
水岸丽都,54,10901,0.00835406,120.76261699999999,30.812969,东方路,797902
解放一村,1,10560,0.0349708,120.934533,30.849764,斜家桥路,890381
昆城景苑,53,12922,-0.00372085,120.95979799999999,31.372163,衡山路1500号,883770
大自然城市花园,2,10222,0.09038600000000001,119.925174,31.011067999999998,解放东路129号,939461
豪杰翡翠湾,33,10246,-0.0163548,120.646887,30.790762,嘉铜公路,795480
苏锦一村(丹桂苑),2,31818,,120.61519399999999,31.342552,平河路，近江坤路,885391
尚城国际花园,2,24977,0.00147928,120.954838,31.429482,北门路1388号,884008
海盐金色海岸,56,10637,-0.021921799999999998,120.9679,30.53759,海丰东路,890506
方舟园,3,19394,-0.16206500000000001,120.7334,30.771915000000003,友谊街230号,890188
胜利新村,3,13386,-0.10291800000000001,120.953235,31.42665,北门路,884023
西塘新村,1,22890,0.713475,120.631653,31.280684,东吴北路,887631
大德玲珑湾,1,9973,-0.09330139999999999,120.964679,31.410027000000003,萧林路699号,883372
青春驿站,7,15517,-0.269862,120.98123700000001,31.423427,富士康路,883955
荷塘月色景苑,21,9305,-0.000960637,120.887327,30.950896999999998,西汉大道,605852
梅里达花园,1,7951,-0.0824821,120.666379,30.544231,双联路,891045
城南花园,46,8797,0.00518979,120.749117,30.757658000000003,城南路237号,889732
融创太湖印,80,8546,0.0119022,120.11978400000001,30.949183,震泽路,994850
宝格丽公馆,192,10996,-0.00702451,120.805966,30.740052000000002,庆丰路,794506
益闵花园,4,8962,-0.16535,120.946095,31.289989000000002,新吴街168号,884272
融创石湖桃花源,5,19812,0.00432216,120.60887199999999,31.261439000000003,友新高架，近新郭港,886663
人民新村,6,16139,0.117401,120.110047,30.880024,人民路432号,939118
中南世纪城(别墅),12,17511,-0.000540705,120.776976,31.661711999999998,泰山南路,885307
阳光里程,1,10606,0.0285666,120.515212,31.869803000000005,百桥路8号,889575
城东公寓,2,7902,-0.00494374,120.77103799999999,30.773008,城东路373号,889730
东辉缘,1,10801,-0.0468961,120.98788200000001,31.423173,长汇路353号,883421
骏园,7,9693,,120.764299,30.721477,花园路,889896
雍景湾南苑,132,11393,-0.00390204,120.971222,31.374079,柏庐路,884290
鑫河湾,4,17368,0.070674,120.92621499999998,31.181492,长寿东路,884210
敏华聚珑阁,23,10098,0.001702,120.668874,31.154678000000004,运东大道，近湖心西路,988075
解放新村,32,29848,0.11991800000000001,120.61431,31.290757,解放东路,886015
大树绿苑(北区),1,10000,,120.835743,30.823223,兴民路,889747
放鹤洲花园,17,12235,-0.00324579,120.74920900000001,30.748426000000002,放鹤洲路562号,889771
博威黄金海岸,1,13372,,120.992954,31.418971999999997,新纬路888号,883617
御湖天誉,90,10533,0.0182715,120.12504399999999,30.947209,安居路66号,939195
滨江花苑,7,8134,0.035921100000000004,120.923927,30.846426,中山西路228号,890341
彩虹岛花苑,1,13929,0.0245506,120.868808,31.060667,彩虹路2号,887184
江海名都,4,5855,-0.120993,120.75131,32.099276,育才路,918446
中南公寓,9,10060,0.00394435,120.79190600000001,30.736512,由拳路2717号,890127
昆山玉兰公馆,283,23088,0.00352296,120.980419,31.35902,长江中路,946535
朗悦湾,1,11734,0.000426294,120.668443,31.470008,澄阳路2999号,889098
高桥阳光城,36,11994,0.048834699999999995,120.574273,30.547356,乌镇大道，近高铁大道,998685
地中海一号公馆,1,9719,-0.028073700000000004,120.714872,30.549516999999998,横山路,890527
阳光小区(南区),1,8988,0.360993,120.74438799999999,30.792239000000002,同心路422号,890294
东渡海派青城(别墅),3,34739,0.139189,120.69192,31.435863,聚金路,889149
合生国际花园,3,17400,0.8923840000000001,120.99457,31.467101,迎周路99号,883526
阳光家园,4,10000,-0.0485252,120.940306,30.523809000000004,百尺北路3号,890513
衡山城(别墅),1,12348,-0.00728608,120.961827,31.36638,中华园路1518号,946514
垂虹家园,1,12368,-0.010526299999999999,120.65538799999999,31.159332,花园路2355号,886874
向阳新村,5,9914,0.010324600000000001,120.55325900000001,31.871107000000002,梁丰路，近河东路,889546
盛大花园,21,9667,-0.0395116,120.73640800000001,30.780869,百墅路437号,890250
御景澜庭,1,11254,0.00752014,120.871583,32.059051000000004,友谊路，近永和路,917841
横泾花园,1,12500,0.0324606,120.556225,31.816984,金港大道，近西塘公路,889312
淀山湖上海岛庄园,14,15938,-0.00728417,120.94596000000001,31.155139000000002,锦商公路,883395
名湖人家,4,11167,-0.04968,120.77275900000001,30.754920000000002,海盐塘路,889931
绿城玫瑰园(别墅),1,69646,0.074148,120.853176,31.440633000000002,湖滨路3888号,884626
柏庐天下,106,8723,-0.00344504,120.96261299999999,31.3563,普陀山路,883292
鸿悦府邸,3,5624,-0.0625088,120.541941,32.146568,石庄路88号,995411
亚太花苑,4,8801,-0.057831600000000004,120.820765,30.750166999999998,凌公塘路2758号,890068
百岭公寓,1,17857,,120.96609299999999,31.403395,紫竹路,883287
华盛广场,3,7743,-0.0134446,120.78821,30.731596000000003,商务大道,890146
云东公寓,33,10870,-0.024608599999999998,120.798955,30.73358,由拳路，近双溪路,952907
诚恒世嘉,23,9335,-0.00619656,120.725149,30.890553999999998,北虹东路129号,797046
瑾润九仰周庄,1,14155,-0.00906361,120.85394199999999,31.124636,全福路,883724
天玺别墅,8,10389,0.0481027,120.11715500000001,30.960338,通湖路500号,939150
融创苏州壹号院,3,20040,0.175974,120.622243,31.191287,金碧街，近永旺路,888087
莲花小区,157,10752,0.0406414,120.994401,31.054441999999998,练西路2755弄,306889
凤凰城,11,5989,0.00553087,120.409135,32.309431,绘园路489号,926274
玖隆花苑,1,6859,-0.0681258,120.61548400000001,31.953595,华昌路，近兴业路,889709
中信花园,10,8143,-0.21905100000000002,120.93082700000001,30.8526,车站北路,798066
爱法山水国际,32,6949,-0.018735400000000003,120.460022,32.520509999999994,黄海大道西1号,925932
光明御品,7,10384,0.038431599999999996,120.05411799999999,30.904341,环太湖路,994847
胥江一号别墅(别墅),7,13727,0.11208900000000001,120.49306899999999,31.24101,胥欣路221号,887902
富华苑,1,40979,0.0224472,120.662577,31.304040000000004,机场路1号,888345
嘉州美都二期欢快园,2,10279,0.16505899999999998,120.73860400000001,30.783408,百墅路,926314
锦绣江南(别墅),2,18693,-0.401812,120.591108,31.852675,镇中路,889394
红旗新村,3,27414,-0.0237246,120.613326,31.306832,三香路40号,885938
一品江山,1,10764,-0.0061325,120.917869,31.943340000000003,常青路,917660
东方名嘉(东区),2,10292,-0.0173797,120.939419,30.839014000000002,晋阳东路,890353
新城域,37,9918,0.123119,120.970059,31.339015999999997,长江南路88号,884191
大众湖滨花园东区(别墅),18,16529,0.019119900000000002,120.958678,30.826827,之江路,890347
金龙花园,1,49035,0.159983,120.57376200000002,31.295321,滨河路188号,886577
亚福江南春晓,4,8310,-0.0836279,120.90232900000001,30.89064,窑兴路,635024
紫金花园,2,6989,,120.859477,30.536434999999997,招宝路300号,940420
梅花新村,5,28490,-0.137531,120.637143,31.344447,官渎路,885411
博悦城,2,7051,-0.07330650000000001,120.96966699999999,31.362492,中华园路,989846
放鹤洲花园(北区),1,12083,,120.74768200000001,30.749446000000002,望鹤路36号,889772
淀滨新村,16,13054,-0.0241559,120.97326799999999,31.071199,岑中路96弄,652346
缔艺家园,9,9081,0.0151906,120.671071,30.520725,联合路525号,925380
天城园林居,1,11842,0.0020308,120.744782,30.754834000000002,文昌路148号,889989
正荣悦棠湾,17,10000,,120.651922,30.89364,中心大道，近南环路,1022394
嘉华春晓,4,10832,-0.0020751999999999997,120.93993600000002,30.824398,农商路163号,890369
皇马公寓,6,10465,0.0868648,120.72554699999999,30.773114,常秀街,798238
兰花园,1,14154,,120.85713999999999,31.123471999999996,全功路202号,884684
都市华庭,1,7736,-0.102503,120.566025,32.386635999999996,大司马路,918293
朝阳新村,8,13994,0.013783199999999999,120.963697,31.376115000000002,合兴西路,883350
月河公寓(南区),1,8119,-0.05265,120.75321399999999,30.777075,同乐路,890105
天地华城,16,13392,0.000503275,120.924757,31.388292,前进西路1188号,884094
融创太湖印(别墅),8,8271,-0.11371600000000001,120.12061100000001,30.947999,震泽路,994849
长泰淀湖观园(别墅),124,22244,0.36497199999999996,120.97426000000002,31.175128000000004,锦耀路333号,884353
三香福郡,2,17001,-0.0322105,120.59811499999999,31.297508,桐泾路717号,885967
南通壹城九间堂山居,1,15277,,120.91642900000001,31.950402,工农南路18号,917625
金域世家,111,10807,0.00930441,120.66496200000002,30.532158000000003,硖仲路499号,1018750
丽景苑,4,44383,0.15318900000000002,120.63873500000001,31.314705,干将东路636号,885861
周庄万盛园,8,12373,0.0811432,120.865228,31.115954,全福路138号,884388
曲新花苑,1,4705,,120.337193,32.500607,曲新路13号,926350
星城洛洲,3,12255,-0.08205180000000001,120.70117900000001,30.518315,海州东路,891727
景尚墅,5,8630,-0.062358500000000004,120.709216,30.783534000000003,秀庄路,890226
江南新家园,7,8424,-0.0453675,120.826554,30.824094,湘家荡大道,889873
禾众商业广场,7,9856,0.0425551,120.90191599999999,30.835526,城西大道,890453
海景苑,5,8628,0.0907198,120.965404,30.533611999999998,城东路,890475
逸景湾,5,9552,0.00956736,120.946261,31.411153000000002,萧林路,884273
南湖小区,51,8668,0.00117324,120.77389299999999,30.75445,菱香路40号,889937
佳兆业悦峰,1,24630,0.523597,120.56553899999999,31.285276,塔园路99号,886572
南方大厦,12,9010,0.0955239,120.568514,30.634041999999997,永兴路2号,993022
锦荷佳苑,12,12461,0.0221068,120.78384299999999,31.649423,富泰路,884944
水岸家园,2,31206,-0.031080200000000002,120.61293899999998,31.344893,总官堂路1160号,885424
淀湖芳华里,30,13045,0.013696700000000001,120.992498,31.195575,新乐路2002号,883389
馨逸家园,19,11665,0.114673,120.92892900000001,31.285142999999998,江浦南路,884207
西塘小区,1,19492,0.0680663,120.65123200000001,31.177232,塘东弄20号,886834
枫泾新村三区,2,12757,-0.0228812,120.760649,31.653147999999998,枫泾路,884807
国贸仁皇,1,9189,-0.00221155,120.08416299999999,30.911713,青太路1455号,938994
西园新村,1,29859,0.10983499999999999,120.962094,31.386863,前浜,884546
凯瑞瑞仕花苑,1,14672,-0.0248291,120.750173,31.672845000000002,南沙路,884965
智富城MIMON,7,7724,-0.019508,120.695384,30.765528999999997,秀清路626号,890325
文星花园长中苑,1,8937,-0.062037800000000004,120.777829,30.749746999999996,纺工路962号,890029
金溪三村,40,12174,0.06300349999999999,120.93035400000001,31.042053000000003,金溪三村,818152
爱丁堡(别墅),3,41290,0.00190032,120.733455,31.489334999999997,湘太路98号,889182
久久小区,135,8464,0.0245512,120.79520500000001,30.7344,双溪路,889891
鑫苑湖岸名家南区,1,20627,-0.0177444,120.682782,31.281115000000003,通达路1555号,887406
大树花园(北区),2,8582,-0.0247727,120.718791,30.768959000000002,吴越路378号,890181
荣盛观湖景园,98,7975,-0.00341319,120.83366200000002,30.823423,兴民路,991787
富民花苑,1,7473,0.121102,120.94297900000001,31.925139,上海路,917673
举秀苑,1,9717,0.533475,120.79481899999999,30.730736,文贤路837,889892
柏盛园,3,12530,0.00359982,120.97170700000001,31.370873,柏庐南路,883294
太湖城仕公寓,67,14204,-7.03977e-05,120.398422,31.224379,墅里路,887997
嘉兴世界贸易中心,4,7880,0.015965200000000002,120.802746,30.743694,广益路，近云东路,927337
中梁吴越首府,2,13697,0.20652600000000002,120.729248,30.749459,桐乡大道，近九九大街,927345
凌波苑,3,10617,-0.0045595,120.77421299999999,30.783640000000002,凌塘路319号,889907
春江花苑,33,8645,-0.0326872,120.63041299999999,30.496143,庆东路，近硖斜路,925378
天欣花苑,8,6379,-0.00374002,120.820319,30.900832,兴贤东路,799974
春晖锦苑,8,10525,0.0267599,120.99401499999999,31.402646,春晖路,883364
万联城,42,9085,-0.05848380000000001,120.93391799999999,30.824594,嘉善大道688号,890458
盈和花苑,4,9454,0.00847719,120.961265,30.917322,兴学路329号,607867
苏园,2,17121,,120.520606,31.275322999999997,向阳河路18号,887849
万达华府,38,15875,0.222818,120.839077,32.041499,江海大道336号,917824
金洲海尚,98,11590,0.0187821,120.941722,30.548216999999998,百尺北路，近华丰路,1010358
康桥名园,13,9406,0.019311900000000003,120.45394399999999,30.448584000000004,开元路,890957
合景峰汇十期,2,13513,-0.023909299999999998,120.612416,31.371812,人民路,888955
盛世豪庭,1,10807,0.0295774,120.703576,30.764771999999997,聚贤路68号,890253
翡翠名都(商住楼),4,10332,0.0332316,120.98532,31.369811,合兴路，近长江南路,946537
新溪新村,13,16071,0.0641707,120.93513899999999,31.725937,新溪路,885177
大地公寓,1,7368,-0.0175579,120.75551499999999,30.761781,砖桥街45号,889741
华府庄园,1,12465,0.00410827,120.85996999999999,31.393648,马鞍山路1999号,883595
太湖花园,1,11379,-0.051719299999999996,120.108034,30.901814,太湖路699号,939142
梅湘园,2,10000,0.14064100000000002,120.83040700000001,30.803162,灵湖东路857号,1024165
时代御湾,3,13215,-0.15532100000000001,120.97314399999999,31.194961,锦淀路,884039
丁香花园,5,8835,-0.0679286,120.941928,30.858361,施家北路378号,941370
阳光世纪花园,98,10661,0.0335485,120.98728,31.401059999999998,长江北路99号,884250
银华园,1,18115,0.013193200000000002,120.968006,31.390138,樾阁北路188号,884278
水晶湖畔,37,13124,-0.0344837,120.906704,31.091494,张元东路2号,465974
海韵江南,3,10237,0.00213288,120.91811100000001,30.517462,环城南路，近楞港路,1010355
南石皮弄小区,1,30315,0.010526299999999999,120.64192299999999,31.302156,南石皮弄,886209
尚湖玫瑰园,1,13075,-0.0614306,120.695002,31.638105,尚湖中央大道,885086
晴湾佳苑,8,12354,0.0246179,120.722802,30.75542,文昌路1299号,798052
秀水人家,4,10929,0.048043699999999995,120.76641799999999,30.775921999999998,青龙街42号,890062
苏园(别墅),4,13754,-0.0508702,120.55466899999999,31.834218,新泾中路,889676
诚恒世嘉,6,9175,-0.05210419999999999,120.72543999999999,30.890953000000003,北虹东路129号,1012472
皇冠花苑,1,8369,-0.0583637,120.773082,30.754569,菱香路34号,889832
苏通壹号公馆,1,11442,,120.89591000000001,31.959978000000003,江安路66号,917633
尚品公馆,40,8699,0.018466,120.838711,30.57803,大洋东路8号,793572
新城海上风华,51,13771,-0.0287841,120.92652,30.8274,世纪大道，近车站南路,952781
嘉城绿都秋菊苑,1,10555,,120.78906699999999,30.779465000000002,宜城路,889858
中星城际广场萃苑,2,12686,0.0548196,120.96111,31.360383000000002,九华山路199号,989832
龙泽园,8,14931,0.523105,120.72100800000001,30.872776,闻川路,795318
公园道1号,114,11669,0.014332399999999999,120.699142,30.499959999999998,江南大道，近海昌南路,892056
庆丰佳苑,1,11157,0.11578900000000002,120.711307,31.72461,大连路,885062
创业公寓,22,11858,-0.165348,120.78498799999998,30.775422999999996,创业路,889734
金凤城(别墅),8,11139,-0.22619,120.80503,30.337892,凤凰路38号,917183
南林嘉园(别墅),2,9059,0.034689,120.39334199999999,30.867524,适园西路1188号,939278
万城理想公馆,57,10279,-0.00990581,120.66736200000001,30.53175,硖仲路，近双联路,917054
钱江君庭(北区),1,10453,-0.041361,120.56798400000001,30.40887,中新路79号,914291
万城明月公馆,34,9780,0.0167924,120.66909199999999,30.522084999999997,广顺路，近联合路,917184
花苑新村,5,11493,-0.0727585,120.521679,31.265741,花苑街,887764
中天观庭,20,7325,-0.0319976,120.395605,31.954593,镇山路，近长江西路,889640
海德公寓,2,8656,-0.163146,120.56398,30.62728,梧丰路511号,992994
观湖壹号,1,14539,-0.00613417,120.910478,31.4107,萧林西路,883495
铂金府邸,59,11155,0.0330666,120.80958999999999,30.745707,中港路619号,797985
森隆满园,2,10393,-0.00214245,120.935652,31.293709000000003,京东路,883993
大树花园(东区),7,8830,-0.0234403,120.71893,30.767443,蓬莱路61号,890180
摩卡小镇,4,12558,0.000398311,120.966796,31.439740000000004,紫竹路,883895
凤凰名邸,18,9351,-0.019939500000000002,120.951314,30.586988,盐佳路,1010371
金汇智博广场,2,9252,-0.176209,120.934809,30.514062,百尺南路,890510
东茂商业广场,159,10950,-0.0253625,120.647267,30.909754,舜湖西路，近西环路,887365
金福公寓,1,7087,0.0531321,120.758366,30.769232000000002,少年路41号,889876
沁园,19,31907,0.01763,120.951045,31.417066,水秀路1209号,884553
景湖花园,20,8359,-0.223742,120.80356,30.760243,云东路62号,889890
祥生玖熙花苑,808,11621,0.0530513,120.76316100000001,30.716403000000003,新气象路,890153
放鹤洲花园(南区),1,17115,0.10569200000000001,120.747323,30.748178000000003,望鹤路99号,889773
嘉辉Loft公馆,62,9191,0.0114147,120.789773,30.774693,湘溪路76号,927331
凤凰新村,1,10561,0.37306,120.707925,31.439441,兴太路,889155
巴比伦国际广场(商住楼),6,14356,0.08402219999999999,120.959108,31.366678999999998,人民南路998号,946585
国际华城,364,12724,0.00707725,120.984394,31.092740999999997,沪青平公路7502号,862559
大华城市花园,6,10959,0.0648127,120.76083999999999,30.741471,会展路257号,889742
海盐金色江湾,402,11872,-0.00278497,120.961207,30.546896999999998,新桥北路,1010370
三千邑,6,12431,-0.042091500000000004,120.67363300000001,31.183751,江陵东路689号,887039
商盛秋居(南区),5,9676,0.185578,120.936098,30.863089000000002,谈公北路,890410
华玉佳苑,1,11235,,120.797802,30.789471999999996,鸣羊路,890207
爱丁堡,1,22158,1.03118,120.733544,31.489701,湘太路98号,889179
世茂尚景蓝湾,13,9878,0.06504750000000001,120.788409,30.711941999999997,五环洞路88号,440697
教师新村,5,7180,0.0183923,120.95491899999999,31.406446999999996,海峰路,883682
新世纪花园,1,16251,0.250105,120.48761499999999,31.238740000000004,中市街,887897
满庭芳,1,7650,-0.0287579,120.54674299999999,30.640278000000002,凤鸣路21号,892488
和融优山美地公馆(别墅),2,19781,0.09894739999999999,120.669582,31.289946999999998,独墅湖大道,888467
威尼斯花园(别墅),2,32084,,120.64983600000001,31.263965000000002,白云街2号,887699
农房英伦尊邸,1,10477,-0.00215539,120.948182,31.298316999999997,商秧路,883910
芝溪花园,4,9932,0.0422212,120.967626,31.609806,芝溪路,885256
中海星湖国际,1,27555,,120.72528600000001,31.332922999999997,九华路123号,888630
崇文府第,8,9811,0.026492,120.938103,30.829121,阳光东路383号,890344
鑫苑国际城市花园,8,18325,-0.00871452,120.56891100000001,31.322939,华山路8号,886535
如意公寓,1,8163,,120.66913000000001,30.920412,如意路12号,887367
中央花园,5,8811,-0.0558629,120.62958300000001,30.673005,兴旺路19号,926331
赞成紫景雅苑,5,7797,0.011456200000000001,120.77015,30.779333,东方路438号,890117
明珠花园,7,11110,0.813642,119.924021,31.000952,海兴路,939544
盛华园,1,25291,0.24159899999999998,120.587604,30.638775,利民路,892506
郁金香花苑,1,58757,-0.0172519,120.94649,31.402094,花园路1555号,884318
南街小区,2,11263,0.000168242,120.958497,31.383959,南街,883901
凤凰花苑,11,8746,0.033636400000000004,120.92901699999999,30.624228999999996,嘉盐路,614808
时代广厦,1,10925,0.18152100000000002,120.69378200000001,30.528707,海昌路192号,891426
中梁秀湖壹号院,58,10621,-0.000123862,120.685475,30.780036,秀园路,890333
北大金城,185,10817,-0.027968700000000003,120.91903799999999,30.861928000000002,体育北路533号,439978
伊顿花园,2,24353,0.000951825,120.73943700000001,31.31343,南施街1号,888611
合景峰汇国际,3,16177,0.014616899999999999,120.60566499999999,31.371746999999996,阳澄湖西路,888950
金凤凰温泉逸墅,65,8936,0.00917115,120.63815100000001,31.791465000000002,金谷路1号,804644
双龙景苑,45,7109,-0.11063599999999998,120.926607,30.70755,平林路,889977
云梨小区,1,9844,-0.0155263,120.667634,31.165537,运东大道763号,887035
南湖秋月,1,11023,0.000544613,120.862609,31.116187,富贵路2号,884576
中南世纪城,17,12534,0.00400059,120.64662299999999,31.135135,中山南路，近长板路,887080
黎明苑,2,8570,-0.0102054,120.821126,30.715118,东余线,889903
新都汇,2,14961,-0.0819298,120.957429,31.292647,新吴街19号,884552
三塔里,2,6986,0.197732,120.74068100000001,30.760391,明月路426号,889962
茶香坊(东区),1,6911,,120.79853,30.793854,章园路559号,890162
化工新村,1,15872,-0.0231316,120.62983200000001,31.2951,西二路,886145
皇都花苑,33,11224,5.15812e-05,120.79386799999999,30.757284999999996,南溪西路2219号,889831
万科新都会,41,16853,-0.00106692,120.415426,31.350758000000003,武夷山路,886756
永福花园,6,9466,0.0316615,120.92284199999999,30.841239,晋阳西路,890437
怡佳苑,15,61676,0.047667,120.552768,31.885296000000004,人民路,889583
博雅苑,4,28962,0.345532,120.612016,31.273033,宝带西路858号,886411
绿城安吉桃花源,6,16685,0.03823169999999999,119.63861599999998,30.582753999999998,梅灵线,939678
紫藤花墅,6,14558,0.0595572,119.878998,31.01336,五峰路288号,994853
金色华庭,5,9645,-0.00016367200000000001,120.72785400000001,30.632714,兴乐路344号,926313
枫丹御园,9,12912,0.148559,120.928903,31.177135999999997,环湖北路118号,883444
碧桂园凤凰岛,9,14157,-0.15697,120.87331,31.246014000000002,湖滨路68号,888124
苏州吴中万达广场,7,11157,-0.045844499999999996,120.61409599999999,31.259947999999998,友新路，近石湖西路,887689
佳源东方都市(别墅),14,11141,-0.046469300000000005,120.82118500000001,30.737343,亚欧路,927326
缇香镜湖湾,7,13324,0.15576700000000002,120.536846,31.841372999999997,港城大道,805458
太湖相王府(别墅),1,14128,,120.42709599999999,31.226691,香山南路,888028
金汇智博,5,9708,-0.00652778,120.934809,30.514,百尺南路，近环城南路,890509
天润周庄,3,11768,-0.11735,120.874302,31.124906,周商公路1号,884103
紫金艺境,34,10482,-0.00322316,120.79193500000001,30.734955,乌桥路100号,890156
平湖瑞园,3,15053,,120.86076200000001,31.246097999999996,湖滨路188号,888167
祥生悦澜湾,1169,12285,-8.56703e-05,120.966466,30.536711999999998,城东路,994851
青年公社,2,12747,-0.00696998,120.80940700000001,31.329555,青丘街,888673
望鹤苑,9,11451,-0.04575,120.747374,30.747446999999998,中环南路,890012
维纳阳光花园北区,1,24094,0.648584,120.760052,31.379315000000002,科能路80号,888279
爱尚公馆,59,7786,-0.0602284,120.776996,30.792913000000002,中环北路，近塘汇路,890326
兰亭御园,3,14840,-0.0137875,120.914852,31.413793,林荫路777号,884469
九扬香郡,1,14285,0.00626937,120.938584,31.387076,前进西路1168号,883740
明丰环湖花园(别墅),1,13114,,120.864245,31.042315999999996,城司路666号,417641
花样年别样城(南区),4,11412,0.08326130000000001,120.427145,31.229725,伍相路3号,887761
新中国际,1,11633,-0.00993057,120.721019,30.787405,郎中桥路,795304
东大街如意佳园,26,8258,0.032458,120.472706,32.558567,凤山北路，近河滨东路,917957
毛纺新村,2,10869,0.011352,120.773721,30.758095,纺工路,889924
塞纳蓝湾,84,11973,0.05980560000000001,120.905387,30.823632,世纪大道,652309
嘉兴龙鼎万达广场,247,12234,0.0176956,120.72472900000001,30.758614,龙凤路,890151
麟湖公园壹号,2,10469,0.046905300000000004,120.763834,30.833528,奥星路155号,890328
丰泽湾花园别墅,44,17022,-0.00304557,120.938791,31.127482,锦商公路4781弄,8732
国际中港城,4,11348,0.10450999999999999,120.799201,30.744628000000002,广益路555号,890148
春江花苑,20,2539,0.131485,120.58440700000001,32.111653999999994,纬八路,918279
锦江花园一期,1,8002,0.181421,120.898178,31.18672,锦甪路9号,883712
御上江南瑞园,4,11390,0.040925,120.825732,30.738053000000004,亚欧路656号,890098
绿洲华庭(别墅),1,40322,,120.640103,30.907438,舜湖西路,887359
中山花园,2,15362,0.785925,120.719598,30.763871,吴越路88号,890315
金城花园,23,10527,0.0281534,120.52930400000001,31.882523,暨阳西路68号,889368
东方名嘉(西区),12,10660,0.00334861,120.934785,30.837153000000004,嘉善大道,890352
大树花园(西区),4,8924,0.0006727969999999999,120.717151,30.767225,新秀路256号,890182
金山大厦,2,11935,-0.269063,120.965225,31.382775,南城河岸3号,884415
上城春天里,3,8888,-0.0128832,120.922953,30.518983000000002,曲秀路336号,1010362
中南闻荷府,356,11033,-0.00805349,120.72736699999999,30.880202,滨河东路,991006
西门新村,6,16532,0.159441,120.541308,31.872307,梁丰路688号,889532
保利雅苑,5,23200,0.00250627,120.572718,31.294940000000004,玉山路38号,886559
香榭水岸,2,7941,,120.705445,30.766754,新平路88号,890269
蓝光名仕公馆(别墅),1,9609,,120.70072900000001,30.751473999999998,文昌西路,800752
南仓街小区,3,14000,,120.644244,31.317453999999998,仓街,885868
蓝天嘉苑,9,7979,-0.0133922,119.882149,31.008665,画溪大道,939530
涌鑫公寓,2,12292,0.000342654,120.76104299999999,30.771155,彩虹街32号,927317
金科世界城,1,10000,0.105094,120.553923,32.381147,宁海西路168号,926280
青江秀韵,2,14560,-0.415332,120.98175,31.394378000000003,玉龙路99号,883956
滨江丽景,16,10782,-0.034188800000000005,120.976049,31.399132,永芳路,883327
商盛秋居(北区),3,9531,0.0383656,120.93738700000002,30.864499,谈公北路,890409
倚林佳园,2,10840,,120.919873,31.179927000000003,锦虬路,884270
碧桂园翡翠湾,1,9987,,120.08153999999999,30.844649,田园路，近二环西路,1030268
秀水瑞苑,2,7025,0.0915492,120.624995,30.801292999999998,蓬莱路,794262
月亮湾(别墅),1,11707,-0.0160531,120.731047,31.263115999999997,康力大道588号,887183
恒大绿洲,132,9239,0.041771800000000005,120.76361000000001,30.822442,正原北路,890198
三泰家园,2,10213,0.201622,120.814595,30.682576,余北大街,889963
豪得别墅,1,10126,-0.040857,120.64417900000001,31.770721999999996,凤恬路68号,889294
金色港湾,4,10617,0.0135297,120.99568799999999,31.395471999999998,桃花江路181号,883701
幸福新村,1,10174,0.153128,120.573222,30.633008,幸福路，近振福路,993037
常和景苑,3,6851,0.11733099999999999,120.924752,30.521733,曲秀路,890463
万科金域缇香,5,11639,0.135553,120.69769,30.790282,成秀路88号,890265
南龙房开,26,6650,-0.09757089999999999,120.84963,30.898276,兴洪路,378211
新城天地,56,11463,-0.0132519,120.976082,31.377858000000003,柏庐路,884189
水云庄园,7,9968,0.025790399999999998,120.95171,30.546043,长安北路488号,890491
青晨涵璧湾,17,25253,0.00161153,120.984835,31.061093,练西公路3585弄,818517
海港新村,1,12210,0.198853,120.886301,31.984111,城山路,917602
常秀景苑,1,7865,-0.201221,120.928774,30.520512,中兴路368号,1010351
宏润花园,27,15500,0.47540299999999996,120.82168200000001,30.741504,亚欧路,889818
云澜湾七里别墅,250,13370,0.0640157,120.984242,30.819913,大云云澜路888号,890444
旺家园,10,8012,0.364951,120.845425,30.913203000000003,洪兴路205号,650752
宏和珈都,38,4742,-0.00289938,120.267702,32.670016,文化路，近白古线,1020805
嘉禾花园,1,10227,,120.99931299999999,31.41035,青阳北路138号,883644
承安新都会,4,13551,,120.091853,30.850347999999997,二环南路，近夹山路口,1030279
绿溪玫瑰园(北区),8,9541,-0.0208009,120.75756100000001,30.743071999999998,会展路98号,889923
天润尚院,97,14424,0.0458695,120.874324,31.126558000000003,周商公路1号,884102
百合苑,2,9776,0.0231678,120.85903700000001,31.3776,君子亭路140号,883284
名典公寓,22,11176,-0.00650292,120.741301,30.765560999999998,中山东路1276号,889930
洪兴国际广场,48,7965,-0.100765,120.703622,30.769045000000002,洪兴路，近聚贤路,991002
都市文涛苑,10,8895,0.07489630000000001,120.78419699999999,30.742898999999998,中环南路136号,889765
星洲国际花园,2,10566,0.17405299999999999,120.075841,30.869346000000004,西塞山路188号,939186
天都花苑(南区),1,11942,0.00241202,120.89785800000001,31.991688,沿河路，近工农南路,917240
荣盛香韵花苑,27,13299,0.0492723,120.770778,30.780673999999998,凌塘路,992976
地方弄5号院,1,30281,-0.0603501,120.62603600000001,31.304178999999998,地方弄5号,886107
佳源罗马都市,10,9866,-0.0619189,120.549718,30.637551000000002,复兴北路128号,892544
大树绿苑(南区),4,10344,0.120572,120.83625500000001,30.822079,潭星路147号,889746
桃李春风景苑,66,9130,-0.00892903,120.79874699999999,30.345156,钱塘江路,1005437
星城铭座,19,9956,0.00627706,120.49342800000001,31.245856,孙武路602号,887900
大树英格澜,98,10768,0.0711283,120.788779,30.708394000000002,纺工路,778364
朗诗国际街区,3,64206,-0.0127796,120.74875800000001,31.311159000000004,津梁街8号,888541
中达美林(三期),2,11056,-0.0118114,120.95893400000001,30.55242,丰潭路,796261
紫薇花苑,1,14074,,120.45971000000002,31.430415000000004,御亭路,889024
怡和园,9,8922,0.0553895,120.790902,30.755863,景宜路425号,890081
明珠花苑,1,11428,-0.014147700000000001,120.83348500000001,32.356111,三三四省道,918228
金枫美地,2,16706,-0.027308600000000002,120.5416,31.260421,金枫路,887774
新城香溢紫郡,3,9452,0.202033,120.849325,32.073347,通宁大道，近永兴大道,917762
东湖金悦,10,10965,-0.0255183,120.59246,30.6349,振兴东路329号,992988
周庄CBH,3,13653,-0.233631,120.855411,31.120732,富贵路,884490
金贸中心,7,9719,-0.105955,120.71928899999999,30.541469,石泾路15-17号,1026578
星月花园,1,9465,-0.00360111,120.926065,31.966779,通富路47号,917659
星雅汇,32,10540,0.052883900000000005,120.74729099999999,30.745040999999997,清华路245号,927352
新锐公馆,39,9022,0.00129666,120.728574,30.732003000000002,骏力路137号,944518
伊顿花园(别墅),15,24441,0.0106199,120.736549,31.313862,南施街1号,888652
依云小区,3,7303,-0.118315,120.72600200000001,30.807679999999998,胜利路2号,890299
嘉城南都苑,16,10200,0.00435314,120.742488,30.745082,城南路,889860
江南明珠苑,14,13258,,120.982022,31.411384,长江北路198号,883675
中楠锦绣嘉园,7,10266,-0.00849913,120.998493,31.4018,昆太路,884378
海宁洛塘公馆,9,9763,,120.629617,30.495679,硖斜路，近白狞港,1032298
恒大御景,159,10420,-0.020303400000000003,120.967946,30.544005,海兴东路,890481
中环广场,3,8661,-0.0857006,120.741428,30.748205,中环南路，越秀路,1006359
湖滨雅园,1,15789,0.0158271,120.864851,31.032742,浦港路568号,431043
仪亭人家,1,9945,-0.0717016,120.870674,31.378636,君子亭路465号,884596
观景府,10,8554,0.0215328,120.435301,30.853436,嘉风路,939232
西小区,21,10498,-0.10321300000000001,120.686699,31.169109000000002,云梨路,887018
赞成学仕苑,70,10202,-0.00145784,120.77802,30.747518,纺工路1166号,890116
怡苑洋房,2,7070,,120.940149,31.418135999999997,环庆路,884265
旭辉百合宫馆,3,33089,-0.013633700000000002,120.524928,31.351166,新丰路,886714
杉欣花园,183,8591,-0.00447033,120.98961200000001,31.393192,同丰西路,883997
彩虹岛花苑(别墅),7,10838,-0.00337326,120.869267,31.060598,彩虹路2号,887332
开元名都,150,12459,0.0105007,120.67682099999999,30.498521999999998,江南大道2388号,892110
衡山城,93,10440,0.00271953,120.96143000000001,31.365346000000002,中华园路1518号,883545
恒都香缇溪岸,10,9954,0.0056146,119.66815,30.602096999999997,浒溪南路,939641
锦隆佳园,11,10118,0.345149,120.94226699999999,31.417999,寰庆路,883714
花园城,1,13670,,120.56841000000001,31.864409000000002,沙洲东路,889336
丁香花园,1,11975,0.017945,120.956501,31.408972,北门路386号,883399
金凤城,13,9143,-0.0382156,120.80505900000001,30.339178000000004,凤凰路38号,952790
三星苑,7,36148,0.610811,120.66011499999999,31.325390000000002,现代大道,888412
碧桂园滨湖城,12,13459,-0.0159084,120.345077,30.431458000000003,人民大道,925376
江新家园,1,11916,-0.00692982,120.66200800000001,31.16276,云梨路,886903
圣日华庭,1,13945,0.23087800000000003,120.970902,30.914410999999998,姚庄大道58号,890411
涵园,22,68155,-0.058399099999999995,120.298926,31.085687,石公路9号,888106
中欣大厦,1,7165,0.10230800000000001,120.95426299999998,31.444992,五联路,884380
尚东国际,1,11836,-0.0106196,120.661061,31.164293,通运路155号,886995
钻石公馆,12,23294,0.035298199999999995,120.63222900000001,30.672841,齐宏路288号,892536
日月星城,4,10752,0.029402099999999997,120.98595,31.368201000000003,长江南路1138号,883982
南洋公馆,3,5977,,120.291574,30.614928000000003,南洋路,939343
金泰花苑,1,11120,0.0129445,120.971478,31.616011999999998,集贤路18号,885344
白金公馆,5,9677,,120.721116,30.502609999999997,碧云南路，近城南大道,892042
枫景苑B区,4,9300,-0.017251,120.962014,31.354442,雁荡山路,883446
中联君悦,1,14000,-0.160571,120.53901499999999,31.88744,人民西路3-98号,889631
九城嘉佳家,51,9158,-0.11418199999999999,120.82216899999999,30.746977,亚欧路,794314
明光和天下,1,7954,,120.607147,30.679038000000002,凯旋路,892535
永福花园,11,7222,,120.690279,30.53367,工人路365号,891826
常熟玲珑花园(别墅),2,10738,0.00864174,120.85178300000001,31.561754999999998,金唐路128号,885348
盐平春晓苑东区,1,9108,0.43982200000000005,120.96058799999999,30.539131,海丰东路，近新桥北路,1010366
泰安新村,2,23599,0.011431700000000001,120.75960900000001,31.657272,泰安街,885120
绿岛雅苑,2,8562,-0.0577053,120.55578700000001,30.654190000000003,庆丰北路,892485
丽景花园,2,8892,0.018641099999999997,120.99009199999999,31.39002,前进中路,883803
东苑新村,3,6800,-0.312089,120.570516,30.632955,和平路,892444
花好月圆,11,16852,0.011863,120.623815,31.379931,齐门北大街1259号,888829
鸿翔书香苑,1,10000,,120.68047800000001,30.528316999999998,文宗路96号,890604
金色港湾,23,11625,0.0007384819999999999,120.45540600000001,30.454675,修川路,798198
蓝天家园,1,11065,0.00617337,120.920354,30.835976000000002,体育南路855号,890390
优优滨海,124,11128,-0.0692011,120.96762700000001,30.546657,盐北路，近滨海大道,890515
海宁百合新城(东区),1,9312,-0.108563,120.69414099999999,30.505745,文苑南路,890543
老年公寓,9,7360,-0.018589500000000002,120.74191299999998,30.780209999999997,东升中路,889902
上郡花园,5,9687,0.0226405,120.997197,31.272703999999997,少卿西路，近宏洋路,926377
中山名都,4,11606,0.055162699999999995,120.752605,30.769118,中山东路639号,890128
虹兴小区,1,13368,-0.00974659,120.656566,31.156475,花园路2268号,886888
赞成清华府邸,18,9638,0.06484169999999999,120.74378200000001,30.744358000000002,城南路1038号,890115
水韵金城,14,10477,0.0430851,120.940995,30.882028000000002,木业大道643号,556488
中栋金色家园,1,10000,-0.0533889,120.702896,30.505193,新苑路,798074
友谊家园,2,23798,0.059060900000000006,120.87968300000001,32.036663,濠东路228号,917398
凤凰公寓,9,9974,-0.0240835,120.56990800000001,30.633805,振兴东路，近人民路,992989
朗晴园,3,9601,0.00314547,120.940716,31.402579,虹桥路655号,883793
丽水湾(东区),1,10412,0.197745,120.96435600000001,31.243084000000003,商鞅湖路,989826
旭辉御府,2,17663,0.00293161,120.553522,31.322684999999996,长江路,791965
曙光新村,3,26535,1.09504,120.63433799999999,31.320975,临顿路,885772
金都佳苑,1,10416,-0.0439651,120.69761299999999,30.761722999999996,秀清路368号,890222
兰庭小区,1,8484,,120.896468,30.946371000000003,西园路319号,941379
海悦花园三区,1,21123,,120.757098,31.324819,钟园路，近琉璃街,888624
百合花园,44,9688,-0.016641,120.563107,30.645698,中山东路,892429
中南世纪花城三期,2,13411,,120.921844,31.985459999999996,世纪大道，近世伦路,917620
新雅公寓,1,13095,0.807204,120.766175,30.769058,中山东路39号,1006364
太湖纯水岸,10,13350,-0.0068671999999999995,120.43117600000001,31.229758,伍相路1号,887998
金凤城,7,14338,0.32296199999999997,120.804814,30.33963,凤凰路38号,917182
莲花新村一期,2,13121,0.05394209999999999,120.59813899999999,31.327902,玻纤路108号,885538
北城新境,6,10715,-0.013092500000000002,120.95521799999999,31.454996,迎宾中路,883307
中天锦绣诚品,90,11485,,120.68559499999999,30.545192999999998,隆兴路89号,1026580
罗星公寓,4,18968,0.8589610000000001,120.93893600000001,30.843486,罗星路,890399
四海家园,1,7051,,120.94935900000002,31.935878000000002,复兴路,917688
东鼎名人府邸,1015,12014,-0.0158481,120.912548,30.887146,善西公路,780044
绿地新里铂克公馆,3,26623,0.0162226,120.74470900000001,31.699241999999998,深圳路,885000
赞成学士府,5,9670,-0.0343519,120.133449,30.882939,二环东路,939201
碧桂园十里江南,308,15726,-0.0269703,120.87421100000002,31.094671,张园东路1450号,887140
名人华城,10,9514,0.157063,120.99601399999999,31.278103,宏洋路,883888
信远朗庭,4,10173,0.0796651,120.734696,30.787977,中环西路2346号,890277
绿地太湖城,4,13021,-0.00993645,120.60541599999999,31.132782000000002,东太湖大道8899号,886853
茶香坊(北区),4,8229,0.043806199999999997,120.79780600000001,30.795018,章园路,890161
西塘小筑,68,28748,0.0826598,120.63016699999999,31.282214,西塘北巷12号,887630
南溪花园,46,9722,-0.00102754,120.775393,30.763175,纺工路262号,889940
西门北村,13,8987,0.030840100000000002,120.54470500000001,31.871761,龙须弄，近梁丰路,889530
大树金港湾,6,8048,,120.745204,30.738607000000002,由拳路499号,889745
常绿景苑,5,9449,0.00251265,120.92428600000001,30.515735,河南西路298号,890465
建涛御花园,20,9327,-0.0366116,120.934177,31.282940000000004,海虹路,883664
龙隐水庄,2,7637,0.0484485,120.84710600000001,31.13815,大学路66号,883828
金塘园,1,16760,-0.0857528,120.986567,31.414866999999997,金浦路,883706
君悦豪庭,10,11371,0.0392067,120.98501399999999,31.381082,长江中路168号,884622
嘉都名苑,22,11184,,120.92211599999999,30.85003,花园路55号,798192
景润苑,1,10693,-0.17386600000000002,120.374074,30.44615,石桥路,890895
万达公馆,317,12000,0.011378000000000001,120.803298,30.742026,广益路,1006353
翠湖苑,3,7075,0.0532976,120.586082,32.401343,中山东路，近万寿路,926282
祥生悦山湖,1,11733,0.0883865,120.090446,30.921637,德清路，近同心路,990886
紫云东郡,7,12641,-0.131675,119.723317,30.630884000000002,后寨路777号,939714
富力湖州壹号,75,10149,0.040561,120.153125,30.858282,湖东路,994846
万科金域蓝湾,2,21389,-0.00181268,120.86928600000002,32.055436,永怡路558号,917827
嘉盛龙庭,7,8385,0.072482,120.70588000000001,30.772105,聚贤路,890213
镜湖花园,45,8916,-0.0507209,120.67819399999999,30.920933,如意路418号,887304
大众湖滨雅园,6,15789,,120.864543,31.032656,浦港南路568号,887144
嘉兴总部商务花园,38,8794,-0.042923199999999995,120.82453400000001,30.745164000000003,广益路,889867
金庭乐府,2,13705,0.284968,120.327223,31.140527000000002,金庭路5号,375853
西湖苑,3,13693,0.0006538080000000001,120.529211,31.858280999999998,西湖苑路,889529
万科海上传奇,274,17130,0.0152533,120.741272,30.743001,城南路1155号,798055
南港悦府,4,8558,0.0458524,120.47925500000001,31.003403999999996,沿湖东路48号,800129
人民路222号小区,1,21818,,120.634472,31.290022999999998,人民路222号,886239
阿卡迪亚五区(别墅),1,25000,,120.73921899999999,31.382719,青澄路99号,888289
海湾公寓,5,9157,-0.0820759,120.54733,30.650146000000003,求是路243号,992995
御景豪庭,7,8316,-0.036411,120.53998,31.016826000000002,商业街315号,887133
广宜文苑,12,9898,-0.0210797,120.79078899999999,30.744290999999997,景宜路1055号,889802
金山别墅,2,18877,-0.00726258,120.518638,31.279335999999997,灵天路,887779
秀洲花园(二区),1,9705,0.280512,120.718493,30.762259000000004,吴越路32号,798233
亲亲家园,5,7677,0.062206899999999996,120.728126,30.730857,骏力路211号,889949
利铭花园,4,5261,-0.055070299999999996,120.26892099999999,30.725609999999996,莫墙线,995195
明华月亮湾花园,1,14504,-0.05274159999999999,120.43303300000001,30.863374,嘉业南路318号,939274
青龙花苑,1,6824,0.010803799999999999,120.945536,30.846359000000003,环东北路,890404
金茂花苑,3,7575,,120.36715,30.639653999999997,河山大街132-138号,926330
富民新村,3,9093,0.204246,120.93756499999999,31.926209999999998,厦门路,917707
汇金广场,14,11939,0.648929,120.59294299999999,32.111819,长江东路,918328
星光耀花园,7,11516,-0.0188502,120.552755,31.361465000000003,虎池路1588号,885364
泰和苑,12,11794,0.00271145,120.95633000000001,31.379331,朝阳支路63号,884082
柳桥长安华府,4,8451,-0.07936019999999999,120.456736,30.448204999999998,修川路630,925374
雅苑,3,20000,0.125113,120.45525900000001,31.283929999999998,藏北路22号,887909
怡南花园,9,7937,-0.00507976,120.74835700000001,30.752509000000003,城南路516号,890085
越秀里小区,2,10064,-0.0139687,120.74038999999999,30.762323,吉杨路280号,890109
平安家园,4,11722,0.027102099999999997,120.775429,30.790405,塘汇路,890248
绿城玫瑰园昆山市,1,20096,0.000778426,120.850477,31.442726,湖滨路3888号,883839
阳光城愉景湾,4,42520,0.297313,120.723373,31.252114000000002,东方大道，近星湖街,887425
郎诗未来街区,5,30290,0.0352724,120.756045,31.376547,青澄路9号,888251
御景苑,1,7246,,120.461676,30.440101000000002,长河路128号,891841
景辰大厦,1,6373,-0.11028900000000001,120.931777,30.824494,嘉善大道666号,941369
新贤园小区,44,7557,-0.151179,120.807775,30.669946999999997,五星路,890051
锦溪江南美墅(别墅),10,9958,-0.00418947,120.024239,30.671625,建设路1号,939058
莲花苑,1,9359,-0.029810200000000002,120.894875,31.282590000000003,莲花路113号,883809
莱茵河畔,6,10344,0.014117600000000001,119.920406,31.044107,锦绣路，近合溪新港路,1006347
文星花园汇龙苑,4,8608,-0.00398254,120.779803,30.748212,凌公塘路773号,890026
天河理想城,177,9386,-0.0143144,120.084654,30.847662,田园东路77号,939146
唐韵花苑,143,10348,0.022934,120.62342,30.795529,兴镇路，近虹桥路,991003
乌镇悦景庄,2,18553,0.256567,120.529072,30.740567,子夜东路1508号,993030
五峰山枫林山居,1,10790,-0.38002800000000003,119.58521599999999,30.602462,306省道,989734
长江城市花园,21,7573,0.0155255,120.562025,31.865005,沙洲东路20号,889613
翠堤紫府,1,6883,0.12142599999999999,120.622228,30.798634999999997,虹桥路495号,890177
巨匠义圣名苑,11,10113,-0.00514615,120.734058,30.743554999999997,中环西路,889893
加州阳光城,11,8331,0.0371101,120.971799,30.913332,洪福东路666号,527415
古荡佳苑,3,9349,-0.0917448,120.945976,30.544961999999998,华丰路,890472
翡翠湾(别墅),1,13937,,120.719829,31.633639000000002,环湖南路，近尚湖中央大道,885313
雍景湾西苑,2,12380,,120.970969,31.377397,柏庐中路,884291
向阳花苑,2,9908,-0.09921050000000001,120.64063200000001,31.969271000000003,锦店路,889545
万科悦中环,325,11365,0.0338397,120.73132,30.772947,中环西路，近洪殷路,890330
鑫茂东苑,15,7593,-0.035825,120.988372,31.476689,鑫茂路360号,884669
东南邻里,1,14063,-0.06242809999999999,120.791284,31.604969,东南大道，近银环路,885337
禾旭华府,1,4674,-0.073486,120.173321,30.788846000000003,袁家汇路,939233
绿城柳岸禾风,19,9575,0.0334102,120.786651,30.796141,塘汇路，近茶园路,1012476
海风苑,2,8115,-0.294716,120.964077,30.526394,城东路,890473
紫金南苑,9,7429,0.0209601,119.905667,30.999503000000004,紫金路,939612
佳源英伦都市,240,9386,0.0615424,120.82143400000001,30.746947,新风路,939499
新虹桥花苑,2,9483,0.11652799999999999,120.770545,30.775827000000003,城东路,905025
蓝天嘉苑,13,9885,0.0341425,120.75663899999999,30.738429999999997,新气象路929号,889901
锦绣家园,1,7552,,120.584717,32.109432,纬三路18号,918352
舜江碧水豪园,1,7845,0.0461193,120.93821100000001,31.29601,京东路688号,884070
水木晶华,9,9581,0.0800835,120.956033,30.839593,晋阳东路859号,890414
财富之星,3,8832,-0.037681599999999996,120.442264,30.468366999999997,环镇北路311号,952788
太湖黄金水岸(别墅),5,18709,0.00786511,120.472146,31.227294,环太湖大道,888027
中都华庭,1,8505,,120.95636,30.785028999999998,康兴西路，近云溪北路,952782
云谷周庄(别墅),8,10582,0.022190400000000002,120.868652,31.154684999999997,大桥路1688号,884338
天凝金水湾,12,8482,0.0353254,120.819726,30.898784999999997,兴贤东路,556918
虹桥花园,7,10847,0.000524277,120.945204,31.391721,马鞍山路231号,883556
中兴公寓,2,10000,,119.974499,30.531013,中兴南路568号,939447
合景领峰,16,15044,0.014855000000000002,120.53440400000001,31.279878999999998,金枫路268号,887755
中南世纪城(别墅),2,13491,-0.033393400000000004,120.648475,31.134922999999997,中山南路,887086
顺城锦湖湾,10,11028,0.056088900000000004,120.91548200000001,31.177596,长寿路,884066
碧水云天,82,12377,-0.00537143,120.83465600000001,31.024821000000003,新友路,941272
华信花苑,1,7317,,120.951995,30.528321000000002,长安路15号,1010357
花园新村,1,14586,-0.223113,120.97938500000001,31.378815000000003,环城东路,883587
绿城诚园,1,8870,,119.729526,30.627190999999996,安吉大道,939679
环球国际,1,7914,0.0156483,120.72493500000002,30.756729999999997,文昌路1209号,944516
华庭现代城,7,8805,0.00290733,120.698095,30.516209999999997,海昌路,890671
南庭嘉园,1,19224,0.0987985,120.955274,31.370490999999998,衡山路,883903
广益大厦,216,9990,0.0220918,120.82441999999999,30.745707,亚欧路465号,912651
金鼎广场,1,8163,,120.75956399999998,30.771516,建国南路400号,1006366
吉翔澜山,34,10304,0.0304421,120.711153,30.547280999999998,碧海路,925385
海宁江南世家,13,10266,0.07040039999999999,120.69993799999999,30.499938,海昌大道,892083
盛大开元,1,11005,-0.0753257,120.57011399999999,30.624814,人民路,892503
新城丽园,18,8522,-0.00202145,120.989286,31.365253999999997,庆丰路,884188
嘉兴苑,3,10418,-0.0689525,120.958786,31.425531,北门路1209号,883651
桃园新村,1,10125,-0.033854,120.960701,31.385491,中山路,884088
杉杉in象,138,11142,-0.0688178,120.732647,30.780637,中环西路，近东升东路,890329
万通城,1,8333,,120.943991,32.026680999999996,太平路,917589
秀景苑,3,9226,-0.133186,120.79846599999999,30.67039,贤埭街,890059
景华城,1,15238,-0.0162686,120.845748,32.017635,任港路50号,917310
嘉悦大厦,130,10501,0.0171225,120.74018799999999,30.765507,中山东路1292号,991788
雅苑,4,7747,-0.197796,120.43766200000002,30.814103999999997,兴横路,939310
紫阳公寓,2,7687,-0.014412999999999999,120.757476,30.761888,环城南路303号,890140
盈湖花园,112,8646,0.044942,120.93984499999999,30.828815999999996,农商路333号,890435
石榴坊,6,8089,,120.77936000000001,30.760274,农翔路,927324
东方润园,12,10989,-0.379616,120.92836499999999,30.707788,平林路928号,889755
弘信观湖,30,9540,0.08986569999999999,120.762504,30.831289,奥星路191号,610586
新城金樾,905,10052,0.0286127,120.979782,30.681138,九场公路，近S202,1023925
正大家园,1,10208,,120.65258700000001,31.173598,中山北路113号,886992
天香花苑,25,10185,-0.167892,120.85710700000001,30.751663,天明路478号,889996
乔克国贸中心,42,11184,0.0344695,120.93210800000001,30.826874,嘉善大道518号,941368
南通大厦,1,14285,0.0368731,120.873073,32.023990999999995,人民中路28号,917470
金溪五村,11,17129,0.154327,120.93175500000001,31.04083,培育路125弄,818155
竹园四季花城,4,9827,-0.00223373,120.964497,31.399577,紫竹路,884396
锦绣家园,6,12443,0.665361,120.646561,30.985421000000002,学才路29号,887217
招商雍华府,8,37669,-0.00747046,120.535459,31.276885999999998,金枫南路8号,887920
雪松里,4,9078,0.0130801,120.935423,30.844455,谈公南路,890428
天鸿名都,1,8799,-0.037145599999999994,120.94205500000001,30.534014000000003,百尺北路155号,890492
利得国际,2,8349,0.0436842,120.97893,31.355029,长江南路666号,884707
商榻老街小区,47,10740,0.223822,120.934063,31.127371999999998,商榻北路278号,652550
旭辉朗香郡,8,10050,-0.0158585,120.69441599999999,30.757351,秀园路,791966
太湖缘,1,30973,0.0263097,120.464073,31.133017,腾飞路399号,560931
尊贵丽景家园(别墅),1,8770,,120.932125,30.706765,盐丰北路19号,890144
洪兴花园,2,12960,0.5630029999999999,120.724383,30.768989,常安街208号,890204
乌桥水岸花园,2,10752,0.0606688,120.66024099999998,30.925619,盛泽大道，近盛泽西路,798915
景江花苑,7,8642,-0.116539,120.965601,30.914956,新景南路192号,617044
中远华城,2,7878,0.0042065,119.928844,31.042081,发展大道,939608
佳源优优华府,655,10964,0.00286915,120.71668100000001,30.722345,嘉杭路，近开禧路,927358
三元新村,5,31116,0.00264566,120.583281,31.311355,金门路,885572
水岸华庭,3,15883,0.290731,120.535895,30.635933,和远路，近和悦路,993027
新湖香格里拉,1,12359,-0.00604406,120.56715600000001,30.651446999999997,逾桥东路165号,892518
豪天花苑,242,6269,-0.00588319,120.591509,32.110665000000004,长江东路,918311
虹桥世家,1,31015,1.2154,120.59550700000001,31.310827000000003,虹桥路6号,885517
名都绿洲,4,8818,-0.010962000000000001,120.704901,30.765537,聚贤路,890243
怡苑豪宅,95,8375,0.00445645,120.766058,30.773638000000002,解放路69号,890086
平湖塘花苑,202,8138,0.05874580000000001,120.856508,30.747226,天宁路,889946
象屿珑庭(二期),42,12273,0.121031,120.95506200000001,31.364081,珑庭路,989806
恒隆商业广场,8,8796,-0.036787900000000005,120.9087,30.946854,祥符路，近南苑路,941373
南塘琴园,3,8243,-0.0596263,120.94393000000001,30.519677,朝阳西路94号,890488
万豪佳园,8,7633,-0.050083800000000005,120.973252,31.613411,支塘集贤路,794389
阳光新天地,1,9657,0.00778242,120.66053000000001,31.139218,花园路1888号,887077
威尼斯花园,1,16521,0.11392200000000001,120.649827,31.264602000000004,白云街2号,887598
嘉宝花园一期,1,28509,0.000156944,120.646847,31.275758000000003,迎春路174号,887501
金都花苑,2,7456,-0.292338,120.37369299999999,30.442504,天顺路177号,890745
绿城百合园,1,8833,,119.90938999999999,31.010923,县前西街189号,939540
阳光天地,8,13000,,120.701535,31.251875,环湖路,887409
澳洲花园,5,13628,0.039218800000000005,120.96578400000001,30.916477,新景南路,890335
小曲景苑,1,13333,,120.936625,30.536728000000004,海丰西路,890496
翡翠公馆,334,11799,0.00258932,120.94433300000001,30.87538,申友路1号,908960
幸福花园,2,6927,-0.21808200000000003,120.68522,30.534755999999998,西山路858-860号,891769
嘉裕广场,24,12236,0.20064200000000001,120.991276,31.404928,春晖路,883654
东方丽苑,2,18010,-0.034435,119.70761100000001,30.636979999999998,胜利东路416号,939627
金都景苑,20,8048,-0.0364571,120.724713,30.764065999999996,中山西路958号,798057
巴黎春天(别墅),2,20000,0.504891,120.695801,31.435075,元春路8号,889147
水榭蓝湾,13,9227,0.00494675,120.919513,31.181216999999997,长寿东路,884061
新康花园金碧苑,1,26475,-0.0990914,120.60125500000001,31.288296000000003,桐泾南路181号,886061
桃园小区,2,10631,0.0631579,120.94966699999999,31.236482000000002,桃园路，近洛阳西路,884512
瑞香花园,8,11282,0.048805400000000006,120.92821799999999,30.854368,瑞香路16-18号,890407
跃进新村,3,12961,-0.0648658,120.966516,31.374740000000003,跃进路,884332
东湖新村,1,15002,-0.06517619999999999,120.635108,31.232105999999998,盛城路,887451
星光汇商城,8,13395,0.104946,120.68213100000001,30.498271999999996,江南大道,892166
凤凰新城,22,4876,-0.365249,120.364974,32.649469,墩头路,926351
好第坊,29,7000,,120.83144899999999,30.743292999999998,中环南路,767010
合景峰汇一期,1,16671,-0.0363654,120.610345,31.371862,人民路,888958
东苑村,1,16066,-0.054935000000000005,120.63608899999998,31.276978999999997,东苑路56号,887461
德信泊林公馆,11,9588,0.013952299999999999,120.96615800000001,30.533547,城东路,890468
南方大厦,10,8323,-0.247406,120.88596799999999,32.03884,工农路108号,917388
金洲海景,309,10809,-0.00106032,120.96941799999999,30.548988,盐北路，近滨海大道,940422
正荣悦岚山,2,9915,-0.00707833,120.482621,31.389657,真山路,886728
高新花园,1,10171,-0.23318200000000003,120.656419,31.149541999999997,体育路358号,886882
攀华国际广场,3,8453,-0.0060893,120.576089,31.844886,东南大道,889454
东湖金悦,210,8120,-0.016772799999999997,119.99115400000001,30.989926,滨江大道,946359
绿都姑苏雅集,24,39456,0.00539123,120.63224699999999,31.295494,人民路，近东二路,1024528
假日半岛,34,10410,-0.024100599999999996,120.86835500000001,31.121194,全功路,883660
合悦江南,24,15170,0.25736,120.572686,30.545333000000003,悦容路,892450
丽江苑,2,26895,0.6263529999999999,120.75575,31.676388,长江路286号,884976
恒隆商业广场,16,9199,-0.0115363,120.70396399999998,30.784778000000003,东升西路1229号,911217
仁宝新天地,77,9133,-0.012170299999999998,120.957675,31.369061,衡山路1399号,883979
南通东苑小区,4,16294,0.105235,120.884491,32.025843,人民东路,917471
禧悦,165,22842,-0.0211203,120.57023799999999,31.297512,滨河路999号,886612
御溪雅苑,5,16283,0.00320375,120.919095,31.177596,环湖北路168号,884467
金泰城,94,20213,-0.00548715,120.701085,30.505176000000002,新苑路,1015057
文苑小区,1,8236,-0.030959800000000003,120.12184199999999,30.869363,外环东路,939167
锦绣江南,4,9868,-0.0131579,120.608934,31.075803000000004,同心西路88号,887128
碧悦湾,34,9949,-0.021374599999999997,120.939673,31.300015000000002,振新西路999号,883324
枫泾新村一区,3,15384,-0.0332433,120.76234199999999,31.653432000000002,枫泾路,884809
佳源优优中环,385,11876,-0.00818,120.78694499999999,30.776975,中环东路，近长安路,1024177
枫景苑A区,61,8703,0.0749335,120.96658500000001,31.353207,柏庐南路,883445
万达广场住宅,8,16603,0.0589558,120.62175400000001,31.348985,人民路3188号,885436
嘉兴日报宿舍,4,7118,-0.288137,120.69993600000001,30.763519,中山西路265号,890215
金汇奥园,43,10145,0.0016055999999999998,120.95889199999999,30.536915000000004,海丰路，近新桥北路,890508
京昌苑,1,12903,-0.00959472,120.781525,31.600064,湖山路,884795
颐和花苑,2,7894,-0.10528699999999999,120.701471,31.812412,永进东路15号,889587
香醍花园公寓,1,8125,-0.00465515,119.898032,31.03585,画溪大道,939572
格林春天,18,9884,0.0443462,120.928175,30.852383000000003,车站北路118号,890362
滨江花园,5,14375,-0.019775,120.97867,31.406440999999997,汉林路,883325
中良新塍花园,21,9044,-0.062127499999999995,120.61691499999999,30.795233000000003,兴镇路,780835
富贵园,1,15071,0.0481151,120.873391,32.025406,建设路,917437
伟业银座,8,8432,0.039519099999999995,120.668298,31.167906,云梨路,887032
凤华丽都(北区),1,9090,,120.85941100000001,30.666403000000003,凤启路378号,889778
银河苑,1,10534,0.0281548,120.739653,30.776515000000003,洪波路757号,890089
庆盛名邸,2,11036,-0.080307,120.921675,30.516465000000004,曲秀路311号,1010361
山景水岸,1,9876,-0.0481987,120.92321100000001,31.955261,源兴路,917647
中海御湖熙岸(别墅),3,56479,-0.022463900000000002,120.69041999999999,31.304078000000004,金鸡湖大道,888475
碧桂园,166,14458,-0.05585880000000001,120.468703,31.379205,华通路299号,886669
华敏世家花园,5,12690,-0.020968200000000003,120.99177399999999,31.38878,前进中路,883600
庆丰苑,1,10883,0.08833680000000001,120.80906599999999,30.759346,南溪东路96号,889958
望江新村,146,6902,-0.0367231,120.89188999999999,31.278859999999998,震阳路126号,884130
上海威尼斯花园,129,16976,-0.0036417999999999997,120.92718,31.072862,沪青平公路8600号,8734
水榭蓝湾(东区),1,8806,-0.0214737,120.920041,31.181366999999998,长寿东路,989802
久强幸福湾,1,6489,-0.0255294,120.637305,32.396046999999996,双群东路，近中山东路,1010393
金大元御珑宫廷,19,62593,0.00817033,120.919393,31.415421999999996,博雅路，近萧林西路,884483
星宝花园,1,11783,-0.0839961,120.666398,31.139840000000003,长板路,887076
桃花源,21,17560,0.000509763,120.95778899999999,31.401072999999997,娄苑路818号,884086
锦都名邸,33,8733,-0.00780923,120.64255,31.965967,永新路,889390
东方雅苑,1,10109,-0.059593600000000004,120.88918999999999,32.026003,工农路附87号,917428
优优湘洲,10,8996,-0.0955697,120.364676,30.582019,公园路128号,996025
鸿运城市花苑,1,7507,-0.030228700000000004,120.85208899999999,32.019239,人民西路,917295
中梁壹号院,20,9949,0.0884045,120.7101,30.500543,江南大道，近农丰路,952796
湖畔御园,28,8729,-0.04657290000000001,120.64381999999999,31.774193,西凤路,801523
海盐金色海岸,29,11753,0.00148441,120.967859,30.53759,新桥北路281号,890507
春波景苑,3,8905,0.125694,120.769236,30.775753,大新路193号,363888
阳光水岸,3,9246,-0.0267036,120.13171000000001,30.866528000000002,湖东路,939188
万科吴越,106,11579,0.00869246,120.718305,30.772683,吴越路536号,991000
云川名都,1,9339,0.128682,120.616798,30.496363,云川路,891856
果园新村,7,12686,-0.0734044,120.768755,32.043603000000004,果园路,917736
绿溪玫瑰园(南区),1,9887,,120.757525,30.742125,会展路105号,889922
姑苏院子,15,40710,0.0127088,120.59286599999999,31.322892,西园路66号,885620
通山新村,1,24491,-0.10941400000000001,120.96111499999999,31.397153000000003,拱辰路,884115
丰泽园,1,14767,,120.85420900000001,31.43608,湖滨南路680号,883440
纳帕尔湾山庄,53,12947,-0.046215,120.996508,31.194851,新乐路1666号,883898
滨海未来城(人才小区),57,9030,0.00790649,120.95281100000001,30.547694,华丰路，近长安路,941363
千禧园,1,10706,-0.00264751,120.968916,31.376905999999998,跃进路,883936
景华园,1,9183,0.139189,120.45071999999999,30.451851,景华路178-3号,890883
梅里公寓,1,8522,,120.638011,31.160483000000003,仲英大道47号,886933
世纪阳光,1,7122,0.0175263,120.44089699999999,30.706049,市南大道,939292
金润玺景苑,5,11238,,120.63736000000002,32.403794,中山东路，近如泰运河大桥,1030932
新都国际,3,9192,0.0205805,120.57850400000001,32.386412,福寿路,918412
凤凰花苑,3,5778,-0.422158,120.63537099999999,31.770144000000002,凤恬路，近凤北路,889260
优优花园,65,10825,0.0225251,120.764606,30.726095,长水路,890093
聚宝华府,7,8867,-0.10522100000000001,120.62350900000001,30.67923,凯旋路,993050
太阳岛高尔夫别墅,4,17108,0.011652299999999999,120.950027,31.257293,碧云路195号,884080
海图公寓,35,12720,-0.105419,120.931694,31.119237,宝银路139弄,8603
申大苑二区,2,20648,-0.061447400000000006,120.75374599999999,31.680197999999997,李闸路,885094
南郊花苑(北区),2,9272,-0.018420500000000003,120.76172199999999,30.725,马塘路278号,889939
恒润太湖壹号,6,18445,-0.119449,120.43533000000001,31.225818,梅舍路1号,887985
润江花园,11,8982,-0.00460176,120.95164299999999,30.787413,云寺西路139号,890408
华发雅苑,7,10477,0.010425799999999999,120.758894,30.732695,珠庵路219号,889826
春漪园,7,8249,-0.09074349999999999,120.976175,31.374464,珠江南路,883369
中熙梅里江南,12,10625,-0.0219557,120.718333,30.641941999999997,梅北路，近梅秀路,1012469
阿里山花园,1,13443,-0.265759,120.938382,31.39452,马鞍山路360号,883266
纳帕溪醍,45,16067,0.08322130000000001,120.93184199999999,31.149216999999997,锦商路66号,884551
百澜地,1,10648,-0.0740046,120.978408,31.408708,汉林路1号,884418
明珠苑,2,10000,,120.964878,30.540129999999998,海兴东路21-2号,1010360
香樟园,1,17571,0.000911421,120.96065700000001,31.395669,马鞍山东路,884164
锦溪江南美墅,9,7702,-0.00557843,120.02394299999999,30.671711,建设路1号,939059
中港白金大厦,314,10256,0.0161498,120.963976,31.933455,长虹路6号,995630
龙鼎国际公馆,63,9262,-0.00156017,120.724604,30.758359999999996,龙凤路，近龙舟路,927322
湖滨花园,2,8693,0.0076809,120.773022,30.769976,人民东路132号,890149
森隆蓝波湾,3,9336,0.011518500000000001,120.942218,31.288125,学士路188号,883992
明珠花园,5,9545,0.044014099999999994,120.95959099999999,31.403359000000002,花园路761号,883889
枫景苑C区,82,9000,0.00989795,120.96014299999999,31.354543,雁荡山路,883447
鑫苑鑫城,1,12005,0.00790954,120.642035,31.427915000000002,南天成路,889143
恒达星湖湾,1,10239,-0.012285899999999999,120.668504,31.157607000000002,运东大道,887010
格林小镇,27,10280,-0.0245654,120.794128,30.745506,格林路199号,889797
海上新园,3,10905,0.0120699,120.74098799999999,30.743883,城南路,889805
樾城花园北区,1,11278,-0.06015790000000001,120.98826499999998,31.395096999999996,杉欣路,884436
富安御园,2,9444,-0.026793099999999997,120.75353700000001,30.784299,三元路818号,889791
淀山湖别墅,78,24921,-0.00253626,120.924067,31.071855,金商公路1348弄,877245
花园浜,1,23294,-0.23226,120.69641399999999,31.672622999999998,虞山南路,884881
江南春堤玫瑰苑,5,9105,0.0116667,120.963603,31.314504,俱巷路894号,883668
凤和园,3,8033,-0.0407227,120.93401200000001,31.507708,中华路，近长江北路,883451
友谊苑,1,12901,-0.020596400000000004,120.95571000000001,31.471907,陆苑路,884299
时代阳光小区,1,8959,-0.0699077,120.74858300000001,30.795721,禾兴北路946号,890254
金地都会艺境,322,11388,-0.00256751,120.814447,30.676806,新昌路，近幸福路,944520
首创青旅岛尚,23,12855,0.0722987,120.92114299999999,31.162634000000004,同周公路，近溪锦商公路,884049
爱渡小镇,4,12100,-0.0214765,120.85165500000001,31.128203000000003,爱渡路,884691
润土嘉和,8,9298,-0.0702,120.927525,30.853665000000003,环北西路115号,790520
佳源优优城南,60,11308,-0.000316385,120.735666,30.735902000000003,创新路，近城南路,927346
力宝翡翠花园,1,9828,0.00809717,120.79359699999999,30.753939000000003,望湖路585号,889905
碧桂园中央公园,24,12145,,120.973605,30.549028999999997,盐北路，近滨海大道,1032296
清水湾别墅,4,17038,0.014061600000000002,120.98333000000001,31.195556,锦淀公路88号,884698
淀滨宝岛别墅,28,16263,-0.0741941,120.930578,31.118616999999997,宝银路175号,817491
同乐社区,2,5943,0.188653,120.749877,30.775865000000003,同乐路433号,890004
万华金御湾,82,7484,0.00883223,119.941685,31.026258000000002,中央大道,939558
京浦花园,2,7898,0.00525847,120.954027,31.297836,亲和路,883725
佳源都市(三四期),19,9199,0.000864596,120.7772,30.786582,佳园路，近凌塘路,927321
风清云都,1,8094,-0.0560442,120.738727,30.773171,洪越路36号,889776
信达东郡,11,11818,0.0296219,120.792363,30.756809999999998,景宜路,905030
星城时代商业广场,3,11749,0.00952334,120.65061899999999,30.910812,舜湖西路,887342
豪仕登大厦,30,13116,0.180924,120.733562,30.762847999999998,吉杨路639号,1024169
中梁壹号院(别墅),8,14179,0.151114,120.710171,30.499391999999997,江南大道，近农丰路,952795
万科公望,1,22601,0.598151,120.788903,31.648959,开元大道，近金山路,885278
娄邑小区,5,19049,0.014744,120.97728799999999,31.395243,玉龙路,883832
得力御龙湾,87,7364,-0.0369529,119.905726,31.042247999999997,画溪大道2689号,939463
太湖纯水岸二期,4,8475,-0.00114754,120.41958400000001,31.232902000000003,伍相路1号,887999
置信公寓,14,9548,0.074364,120.68056399999999,30.763696999999997,洪高路1507号,1012475
紫溪花园,1,7073,0.0046875,120.75498300000001,30.792344,中环北路846号,890319
佳源东方都市,55,10617,-0.01835,120.82271200000001,30.73892,亚欧路,927327
民欣花苑,1,6968,0.026338999999999998,120.85911499999999,30.538669,招宝路，近学才路,890512
月亮湾,1,23167,0.025625,120.958779,31.236009999999997,淞沪中路171号,884452
金色华府,12,8969,-0.010818799999999998,119.92576899999999,31.02608,长城路，近中央大道,1012330
碧水佳园,39,8584,-0.0532585,120.88923999999999,31.449526000000002,祖冲之路,883323
美都铭座,54,8978,-0.015597299999999998,119.92440500000001,31.003582,明珠路61号,939542
中南闻荷府(别墅),77,11472,0.0260263,120.727296,30.879490000000004,滨河东路,991007
金庭花园北区,5,7203,,120.318469,31.139365,东园公路115号,888109
云山诗意,2,13504,0.11551900000000001,120.996753,31.412748999999998,横泾路633号,884341
新悦花苑,2,7761,0.21085500000000001,120.68261899999999,30.508652,文宗南路,891668
公园一号,45,8072,0.00217583,120.39156000000001,30.862361,人瑞西路1588号,939241
嘉辰花苑,8,10318,0.000495032,120.94703899999999,30.855604999999997,施家北路,798191
望湖公寓,55,9320,-0.00970206,120.76377,30.766396000000004,大年堂前135号,890015
南郊小区,1,8143,-0.022725099999999998,120.699877,30.5132,海昌南路328号,891193
中央公园城(别墅),1,8625,-0.0968311,120.680204,30.897895000000002,东方大街2号,887362
紫金豪庄(别墅),3,9942,0.0133577,120.82193000000001,30.709518,民丰路,515443
银河新都,2,18368,-0.0447984,120.93913400000001,31.285124,银河路,884277
御翠花苑,9,9716,0.0366955,120.926549,30.705303999999998,平林路969-971号,500443
万科碧桂园,48,14145,0.0714326,120.652027,31.226373,兴中路,886817
青龙公寓,2,9722,0.201879,120.767248,30.775831,青龙街,889950
金色海岸,330,10883,-0.0178542,120.967895,30.53753,海丰路，近海滨大道,890518
海盐碧桂园,2638,9663,-0.11745699999999999,120.91723400000001,30.522669,出海路1000号,890516
锦绣江南(别墅),1,7463,-0.08346210000000001,120.60777,31.074976,同心西路88号,887137
云谷周庄,1,8958,-0.21619899999999997,120.869422,31.153519,大桥路,884337
开元广场,11,17048,-0.044427499999999995,120.922324,30.834428999999997,人民大道1023号,941372
书香名苑,10,9772,0.08056519999999999,120.686535,31.542661,新阳大道65号,885109
新南浔孔雀城(别墅),8,11417,-0.141184,120.425926,30.844728999999997,联谊路,995199
昌盛花园(西区),3,9317,0.23052399999999998,120.72233500000002,30.789969,昌盛中路,890164
巴黎海琴公馆,55,8149,-0.0617873,120.96708400000001,30.530634999999997,枣园东路,890502
嘉善置地广场,154,9143,-0.0114038,120.932625,30.840969,嘉善大道399号,890454
楠林水岸,208,12620,0.0302925,120.931882,31.073241999999997,沪青平公路8499弄,8562
菊海雅苑,4,12600,-0.08538639999999999,120.462253,30.619259000000003,环城南路1088号,892541
朗诗国泰城,1,30612,,120.57214599999999,31.873526000000002,华昌路,889410
滨湖绿洲,6,11111,,120.926045,30.819709999999997,白水塘路,890340
太湖洞庭苑,1,7303,,120.31822700000001,31.135285999999997,银杏街1号,888114
水仙坊,14,7694,0.04201830000000001,120.77821999999999,30.758173,南溪西路,927323
格兰春天,3,8863,-0.00849029,120.766714,30.814460999999998,天星西路255号,890193
育贤花园,4,4958,-0.00831579,120.587851,32.396415000000005,东皋路99号,918427
盛世明珠园,1,15981,0.331798,120.846149,31.132695000000002,淀南路509号,884031
金洲阳光,3,8950,-0.06742630000000001,120.945645,30.546547999999998,华丰路，近百尺北路,1010359
星海花园,1,9268,-0.211167,120.949699,31.916179999999997,振兴东路,917733
中成新世纪公寓,6,8312,-0.07494110000000001,120.799125,30.746614,中港路79号,890126
上置香岛庄园,4,11893,0.00407456,120.82281499999999,30.815683,灵湖路,889966
滨海一号,4,12126,0.226167,120.965231,30.525788000000002,城东路490号,890505
新城市花园,1,11197,0.16628199999999999,120.67437199999999,30.540978000000003,洛隆路,891638
滨江嘉苑,14,8957,-0.00402608,120.792841,30.3433,新民路，近硖尖公路,952787
苏州城市生活广场,2,10884,0.08289830000000001,120.614273,31.34897,平泷路，近花莲路,885448
风和丽苑,3,9583,-0.0262008,120.70778,30.508577000000002,钱江东路99号,890538
锦绣江南,33,9020,-0.0172533,120.731495,30.875484999999998,运河东路1001号,656386
金都上品,13,10195,0.07096419999999999,120.922407,30.822638,亭桥南路,890384
新景花园,25,7452,-0.0396026,120.936771,32.280264,解放路,918254
新城香溢紫郡(南区),18,11983,0.338965,120.972085,31.3359,青淞路，近长江南路,946584
绿地新都会,3,23373,-0.053765099999999996,120.915186,32.027745,人民路718号,917583
新湖绿都,12,8603,-0.11989200000000001,120.774235,30.766417999999998,纺工路84号,890050
中南新村,6,8888,0.00873908,120.438877,31.955253000000003,中南路,889633
农房斯坦福德小镇(别墅),57,8054,-0.00982879,120.71533600000001,31.925390000000004,乐富路99号,889670
天居华庭,18,14722,-0.1144,120.92110500000001,31.385571000000002,前进西路,884098
海宁百合新城(西区),4,9375,-0.00793651,120.684956,30.502925,文宗南路185-15号,890544
南通上海花园,4,7059,0.049727999999999994,120.486709,32.36415,中山西路999号,926269
达多龙庭,1,11657,-0.0673684,120.09483700000001,30.870772,红旗路384号,939077
东方名邸,6,7622,-0.00319355,120.93508,30.855117,谈公北路274号,890351
汇宏新村,1,14956,0.428543,120.897443,31.281846999999996,汇宏路,883622
东方悦宫,211,10417,0.016562900000000002,120.82478,30.686003999999997,余北大街，近东余线,952903
金华新村,22,18542,0.0344329,120.93184099999999,31.120776,宝银路21弄,818553
昆城博奥苑,4,12293,0.021141800000000002,120.935677,31.376833,江浦路,883768
天天嘉苑(北区),5,8928,,120.74808300000001,30.750987,怡南路162号,889994
名骏豪庭,4,9206,0.047059,120.625111,30.798132,虹桥路,762087
天乐苑,9,15170,-0.11289300000000001,120.732974,30.726785999999997,银河路172号,889991
颐和湾花园,1,18997,-0.000144044,120.627606,31.266556,太湖西路199号,887660
万汇广场,864,9651,0.206454,120.083165,30.869895,红旗路1188号,939160
保利壹品,3,9565,-0.17183900000000002,120.94493500000002,30.535052,海丰西路283号,1010350
绿岛花园城市绿洲,1,12915,-0.10925599999999999,120.938745,31.402520000000003,虹桥路598号,883840
鑫茂花园,1,12820,-0.0170287,120.98079299999999,31.473599,万安路,884212
红星花苑,12,3148,0.0494211,120.597151,32.119828999999996,经五路,918317
南城亲水佳苑,4,10571,-0.005003100000000001,120.94434299999999,31.297911,商秧路,883899
秀洲小区,4,7272,,120.695683,30.755869,秀园路128号,890289
太湖临湖湾,3,14817,0.09403660000000001,120.459469,31.133028999999997,腾飞路605号,888059
丁香花园,1,12423,-0.07504860000000001,120.726982,30.781867,东升西路229号,890183
桃源新村,3,11974,0.09891180000000001,120.95970600000001,31.385347999999997,中山路,884090
绢纺三村,5,9268,,120.77569799999999,30.760210999999998,纺工路462号,889895
解放新村,2,10486,0.000808712,120.86533,32.014182,桃坞路,917305
景尚墅(别墅),6,12650,0.11388800000000002,120.708955,30.784221000000002,秀庄路,890225
锦和苑(东区),10,10092,0.00928421,120.914033,30.832479,子胥路601号,890386
太湖天阕,1,19787,-0.08849030000000001,120.448656,31.228428000000005,太湖大道66号,888005
嘉城绿都合欢苑,3,5978,0.00818319,120.79408799999999,30.779171,宜城路399号,889855
康来登花园,38,12872,-0.026528700000000002,120.503318,30.736927,青镇路,996024
幽澜苑,1,9782,,120.930985,30.844675,罗星路64-66号,890438
东城华府,55,9888,0.018331599999999997,119.989281,30.958728000000004,广福路,939466
临江景苑,3,11776,0.00778259,120.91663100000001,30.821231,体育南路1558号,890393
巨匠金色年华,5,9029,0.047417900000000006,120.57998899999998,30.628703,银菊路82号,892538
明珠小区,1,9101,-0.0530915,120.923277,30.827242,亭桥南路,890401
怡景苑,6,26953,0.00021093299999999998,120.633655,31.619952,王家浜路,885212
阳海景怡(中区),1,6578,-0.19955,120.74611200000001,30.80228,云海路69号,890297
绿中海,5,30300,0.0100211,120.99385600000001,31.369663,朝阳中路77号,883857
荣盛百合花园,124,11059,-0.023651,120.79415800000001,30.793711,城东路,1012466
龙鼎御园优仕苑,5,10598,0.00457471,120.922821,30.84475,瓶山街,890398
天竹坊,167,7012,-0.0605704,120.78031499999999,30.763121999999996,天竹路,889999
城市花园,9,6511,,120.55798500000002,32.383221999999996,宁海西路,918277
锦盛花苑,2,4932,-0.023283,120.692752,32.566615999999996,勤政路，近S221,926344
慕容城,20,11442,-0.16513699999999998,120.67446000000001,30.542790000000004,富兴路23号,798199
太阳岛花苑,7,10492,0.09300989999999999,120.542924,30.9163,双泽路,887266
宝石花园,4,7126,,120.3294,30.780566999999998,维多利大道,939216
丽景佳苑,4,7625,-0.058267200000000005,120.45788,32.540237,永安北路,917915
嘉汇城市广场,21,9027,-0.057630999999999995,120.963072,30.84126,惠民大道,801496
颐景苑,1,22268,0.0872567,120.874804,31.99193,洪江路156号,917250
碧桂园城市花园,1,12566,0.00531789,120.522062,31.852110999999997,澄杨路,889213
长新公寓,1,7952,-0.147788,120.74903300000001,30.730787,翠柳路,890119
天华佳园,51,11356,-0.00103245,120.966205,31.373109999999997,合丰路,884097
天邻湖景,7,18775,0.127075,120.878957,31.23935,甫澄南路18号,888177
嘉园,7,87293,-0.0310368,120.64353200000001,31.302637,南石皮弄7号,886158
M旭辉城,66,16961,0.00012413799999999998,120.95923400000001,30.9131,姚庄大道，近兴学路,1023389
紫元尚园,2,10125,0.08472919999999999,120.74269299999999,30.741221000000003,城南路,890141
泓润新城华府,1,13793,-0.014759399999999999,120.86413200000001,31.272701,鸣市路35号,888197
凤祥名城居住小区,1,5978,,119.57701200000001,30.597233000000003,孝丰路623号,939636
时代悦府,3,15617,-0.0017259,120.912402,31.384235999999998,体育场路,884465
百盛花园,21,12195,0.046354599999999996,120.785866,30.75185,百盛路,889721
春晓苑,20,10193,0.0203078,120.957695,30.824,之江路,635121
嘉城绿都春兰苑,1,8163,-0.028098599999999998,120.79084099999999,30.773085,湘溪路,805600
合生国际花园(别墅),2,29255,0.106531,120.994772,31.466339,迎周路99号,884607
尚湖花园别墅,2,14342,-0.0008360039999999999,120.727096,31.633625,环湖南路,885085
锦都名苑,4,8650,0.056255999999999994,120.56241000000001,30.642028999999997,学前路317号,892472
钓鱼台别墅,2,15340,-0.0110244,120.70383500000001,31.480109999999996,钓鱼台路1号,889154
中昊檀宫(别墅),1,28854,-0.446454,120.56708300000001,31.85714,南苑东路,889674
巴比伦国际广场,7,12061,-0.0664698,120.95876100000001,31.367202000000002,人民南路998号,883275
雅阁花园,14,38725,-0.00402161,120.56711200000001,31.297068,狮山路185号,886625
富康花园,3,10116,0.15503499999999998,120.953962,31.4184,环庆路,883472
香港城天和公馆,1,11036,-0.00669796,120.58380600000001,31.850033000000003,乘航西路,889537
绣东新村,12,8568,-0.07223450000000001,120.98039399999999,31.391509999999997,同丰路,884228
恒创金色恬园,1,8666,0.0017339000000000002,120.75018600000001,30.786015000000003,禾兴北路,889816
万科中环公园,1816,12285,0.012650299999999998,120.73816299999999,30.789834999999997,中环北路，近城北路,1022024
中行公寓,6,7591,-0.036872800000000004,120.734581,30.767716999999998,凯旋路,890312
融悦华庭,2,7978,,120.889551,32.060639,永和路,917813
佳园小区,7,8199,0.151509,120.720177,30.77325,洪殷路516号,890209
嘉丽花苑,1,6811,-0.0690749,120.964335,30.884368,里泽大道210号,890371
长泰淀湖观园,122,15049,0.03737940000000001,120.973982,31.172827,锦耀路333号,998762
云都花园(别墅),9,12832,0.0412128,120.952848,30.787882,云寺西路77号,890442
未来城,85,12529,0.00363413,120.57575200000001,31.86955,暨阳东路493号,889523
万达公寓,53,13490,0.0798258,120.7805,31.648506,包家巷81号,885133
巴黎都市,115,12625,-0.0127494,120.784979,30.745990000000003,凌公塘路,649803
绿城春风十里,34,10016,-0.113318,120.866473,30.670492,大桥路,795305
湘湘恬园(别墅),6,8441,-0.012066200000000001,120.834857,30.818896000000002,兴民路,952905
瀛洲花园,3,8941,0.155114,120.745258,30.750814000000002,城南路657,890092
仁文公寓,1,22857,,120.659825,31.309064000000003,东环路930号,888409
凤凰国际公寓,1,23674,0.117252,120.673301,31.321103000000004,苏州大道西158号,888344
城南印象生活广场(商住楼),15,23566,-0.0157846,120.637222,31.249972999999997,东吴南路98号,887690
湘湖长岛御墅,24,10473,0.00683573,120.832104,30.815603000000003,七星路770号,799068
优优花园,31,10810,0.021261500000000003,120.7646,30.725782000000002,花园路，近东升路,927332
罗马假日,3,9735,0.0621634,120.927624,31.406965999999997,花园路，近虹祺路,883838
常乐里,1,10000,,120.961779,31.388976,前进西路208号,883346
桐溪景苑,5,8160,-0.00252832,120.70363,30.488475,丰收路,801890
枫泾新村二区,1,12500,-0.143425,120.76218999999999,31.655026,枫泾路,884806
托斯卡纳(二期),143,10789,-0.000560637,120.767398,30.833190000000002,奥星路87号,926315
大树家园,10,10319,-0.028780200000000002,120.54510900000001,30.652601,逾桥西路,892441
香樟公寓,6,35176,-0.308425,120.66799499999999,31.326546999999998,星明街216号,888433
金桥公寓,3,11526,-0.33920700000000004,120.935705,31.931496999999997,金桥路8号,917679
龙庭国际,1,8750,,120.570904,30.648545000000002,中山路298号,892482
康达公寓,12,9283,0.10562,120.763626,30.767934999999998,秀州路,889897
嘉业商住楼,7,13767,-0.0166391,120.43115800000001,30.875646999999997,嘉业路,939243
巴黎春天,3,9822,-0.114971,120.69495400000001,31.434105,元春路8号,889129
仁和苑,5,8481,0.0921154,120.815146,30.682031,余北大街,889959
盈都君悦,10,10211,-0.235958,120.39676399999999,30.360175,启潮路48号,892029
苏州凯悦,2,14876,0.181884,120.635049,31.255929,东吴南路155号,887509
菊园三村,1,11515,0.04689,120.968355,31.401664,娄苑路,883742
弘阳甪源,5,18053,-0.0648264,120.87236299999999,31.284931,甪直大道，近甫澄北路,1005434
港佳公园里,4,13372,,120.983092,31.393633,同丰西路,883484
商华新村,5,14005,-0.09993239999999999,120.929428,31.122566,商榻商周路28弄,559269
府南花园(三区),2,8925,-0.102559,120.75658700000001,30.731325,新气象路,889787
万科金色梦想,46,11074,0.0346681,120.690482,30.791466999999997,成秀路355号,890263
花苑新村,21,6634,0.20391800000000002,120.55545,32.389232,桃源路,918322
雍景湾东苑,2,15259,-0.287892,120.974205,31.373928999999997,柏庐南路1111号,884289
新世纪花苑,9,11555,-0.000518986,120.116371,30.874309000000004,环城东路47号,939179
时代御湖,67,14361,-0.00446562,120.97330900000001,31.194803000000004,锦淀路189号,884038
小城春秋,26,10404,0.061199500000000004,120.955794,30.831815999999996,福泉山路，近之江路,941364
苹果假日,9,7750,0.0170167,120.807585,30.743202,庆丰路，近广益路,927328
大运府邸,23,10027,0.104486,120.957746,30.78759,云寺东路,890346
金色港湾,6,10203,-0.0143171,119.90652800000001,31.014295,道园路,939512
城市花园,2,7422,0.0200415,120.94481499999999,30.521849,朝阳西路151号,1010352
佳源优优秀湖,19,12190,0.0173813,120.68693,30.780103000000004,东升西路，近秀园路,926329
湘湖苑,2,10014,0.00790321,120.82761200000002,30.817421000000003,兴星路569号,890045
鹏轩,151,7048,-0.0308784,120.955459,31.35577,小渡河路,883923
东菱宝石公馆,2,11184,0.0240172,120.816202,30.750789,凌公塘路,889758
宝领家园,2,10266,-0.124359,120.967652,31.367216,宝领路51号,884676
朗诗未来街区一期,4,26224,-0.0851979,120.75566299999998,31.376193,青澄路,888255
中楠双水湾花园,22,10335,-0.0273262,120.996377,31.399586,昆太路458号,883951
新亚香榭水岸,2,11025,0.0379798,120.706629,30.766911999999998,新平路，近聚贤路,890331
金海大厦,1,8495,0.302714,120.58712,30.626387,校场东路1572号,993007
阳光城翡丽湾花园南区,137,12696,-0.00267086,120.70138899999999,31.251628000000004,游湖路，近踏湖路,887408
阳光昆城,91,9033,-0.0558991,120.96242099999999,31.406909999999996,紫竹路500号,884249
新城柏丽湾,7,10567,-0.040309,120.961945,31.342168,小澞河路,884184
碧桂园天誉,3,12030,0.00395736,120.620769,30.906425,市场西路，近广州路,887281
梁林帆影庄,1,8192,,120.71545,30.755936,文昌路1669号,889906
如皋碧桂园,26,7604,0.0725707,120.56909499999999,32.414074,海阳北路,918381
泰丰花园,1,6329,,120.848095,31.014955,泰丰路63号,887171
世博帝宝花园,4,10473,0.0141887,120.934077,30.828770000000002,嘉善大道,730498
鼎昌名邸,10,5276,0.055590099999999996,120.41654399999999,32.311134,人民路64号,926278
嘉辉南湖美寓,26,9874,0.028516800000000002,120.78728600000001,30.775387,中环东路,890150
水韵花苑,18,8817,0.0738163,120.859871,31.131918,云亭路,884065
绿地太湖城(别墅),2,21034,,120.602434,31.132481,东太湖大道8899号,886860
新月公寓,23,8377,0.10170499999999999,120.707218,30.75364,文昌路2081号,905028
顺城锦湖湾(别墅),1,10041,0.00418421,120.91560700000001,31.179254999999998,长寿路,884642
南通碧桂园,5,9527,-0.00112569,120.958542,31.948101,新开北路,917708
巴黎都市(南区),4,8262,-0.264806,120.58367700000001,30.652028,逾桥东路,892428
江南印象,247,13699,0.00248022,120.910211,30.946785,南苑路288号,610553
张浦裕花园,17,8847,0.12732000000000002,120.935724,31.284596999999998,锦上路,884348
金都花苑二期,8,7620,0.138519,120.448675,31.944117,中兴南路，近晨丰公路,889703
丽水湾(西区),3,11578,0.257482,120.962395,31.243903000000003,商鞅湖路,883806
万科海上传奇,223,16957,0.00641925,120.96791699999999,31.187395000000002,周同公路，近锦东路,993646
怡居苑,1,14197,,120.850325,32.055453,永怡路,917831
山水华庭,1,34279,-0.00011820799999999999,120.56276399999999,31.275115999999997,长江中路99号,887831
格兰英郡,62,10343,0.014469,120.80958500000001,30.747988,中港路628号,889795
泰富世界城,244,9412,-0.021325099999999996,120.725378,30.755086,文昌路1299号,927349
新都银座,2,9510,-0.00246762,120.98640900000001,31.380427,长江南路1233号,946531
锦园新村,4,13981,-0.11025399999999999,120.91040500000001,31.179377000000002,长寿路,883722
巴比伦花园,15,11997,0.00269646,120.98733,31.412614,长江北路289号,883276
盛世钱塘,6,9886,-0.0115924,120.966085,30.544082,城东路,890489
悦湖美郡,2,9945,0.00657295,120.54185,30.925853999999998,镇南路958号,800130
望江水岸,2,6645,-0.016934,120.569147,31.969898999999998,滨江路，近港城大道,889521
中山花园小区,1,5454,-0.365371,120.85101,31.030375,芦莘大道471号,887179
文星新村,2,3627,-0.0932105,120.46529,31.917626000000002,文星南路,889526
乐澄花园,3,10892,0.0272042,120.741046,31.499896000000003,城中路91号,889162
书香名苑,7,9178,-0.020974,120.61436100000002,30.494916999999997,云川路,952814
江浦新村,1,11489,-0.0537283,120.92940700000001,31.398193,万步路500号,884544
万科未来之城,12,15158,,120.86960900000001,31.339062,晨丰路288号,1032529
南园花苑,2,23487,0.0211991,120.645197,31.292605,南园南路,886213
奥林清华,1,13997,-0.0497374,120.639905,31.147082,鲈乡南路1417号,886865
王冠里,1,7116,-0.241749,120.742231,30.75293,文萃路,890011
迦南美地广场,18,8318,0.014578200000000001,120.770591,30.71635,槜李路,1006358
三景花园,1,10227,,120.78627900000001,30.763907,泾水路216号,889960
十梓街小区,1,44444,0.523411,120.63441999999999,31.308114,十梓街,886263
德鸿练溪上郡,214,6594,-0.010854700000000002,120.42043600000001,30.720259999999996,迎宾路289号,939222
印象欧洲,9,13446,0.195209,120.868466,31.338978000000004,晨丰路,884285
中华园,87,9360,0.049986699999999995,120.975454,31.360056,衡山路,884370
麟湖公元壹号,7,8229,-0.112105,120.76355,30.833526000000003,奥星路155号,657163
书香门邸,6,10439,-0.0811847,120.905626,30.827555,阳光西路,648227
凤凰五区,1,6884,-0.0164662,119.704155,30.621928000000004,凤凰路,939633
湖畔首府,459,9063,0.00606411,120.85383,30.536653,滨河路，近南王线,1010375
汎港润园,12,9315,0.028352099999999995,120.080147,30.86477,二环西路355号,938972
海纳公馆(东区),6,8817,0.0920824,120.76731399999998,30.812794,天星西路188号,890194
红星国际生活广场,24,27392,-0.162857,120.558226,31.267213,长江路，近长塔路,887760
育龙湾,1,7157,-0.0839289,120.800449,30.79608,章园路687号,890308
湖光里小区,9,11333,-0.018586000000000002,120.95883500000001,31.250297999999997,天盛路68号,883563
嘉善博文府邸,10,11667,-0.0154906,120.94531599999999,30.844108000000002,环城东路288号,941376
吉杨公寓,1,9546,0.0915306,120.738004,30.763142,吉杨路387号,889838
新城雾山嘉园,1,7526,,119.690583,30.6675,半岛中路,939705
新阳花园,2,14415,-0.00218949,120.967638,31.385371000000003,新阳街,884200
梦想家园,7,11227,0.102215,120.86603799999999,31.034196,浦港路，近江苏路,887250
长新公寓(北区),13,8669,-0.100408,120.74778899999998,30.738915000000002,由拳路,890120
巴黎春天,71,9349,0.0411089,120.081127,30.867828999999997,红旗路,938929
星星港湾,3,9234,-0.292064,120.42985900000001,30.387203000000003,启潮路,891754
双溪花园,37,8560,0.0245488,120.80038700000001,30.760102000000003,南溪西路2536号,889978
江南摩尔,100,9474,-0.111791,120.715731,30.768867999999998,高层(12-30层),926316
象屿两岸贸易中心,1,17142,,120.954026,31.363366,创业路，近珑庭路,926374
万和家园,8,14906,-0.030553399999999998,120.96644099999999,31.912501000000002,广贤路,917725
拙政别墅,5,44329,0.042569199999999995,120.63716200000002,31.332225,百家巷99号,607022
金域蓝湾,16,12797,0.200356,120.93361000000002,30.515432,百尺南路,890486
绿地香颂别墅,22,47401,-0.00808065,120.605876,31.134289000000003,学院路6699号,886854
上海公馆,3,10653,-0.05054430000000001,120.976955,31.369594,珠江南路33号,884001
百合春天,13,11022,0.015207299999999998,120.9032,30.82777,阳光西路1283号,611837
御墅园,3,6088,0.0147719,120.571647,32.353347,益寿南路186号,918430
祥云花园,9,7227,-0.164689,119.708568,30.627744,玉馨路,939704
竹镜茶语,15,10215,-0.00119898,119.87550300000001,31.098995000000002,长达线,939610
百盛花园,2,11027,0.0423391,120.654826,30.983652000000003,通运东路2号,887211
中奥美泉宫,75,17961,0.0035966,120.07658899999998,30.920657000000002,弁山大道1818号,939207
托斯卡那东泰花园,1,7000,,120.47757299999999,31.139459000000002,新市街519号,888037
文曲佳苑,2,8359,-0.0587298,120.94559699999999,30.536485,海丰西路208号,890494
银洲花园,2,16332,-0.0200282,120.96983300000001,31.392870000000002,前进西路239号,884284
长泰花园,43,12608,0.048373599999999996,120.936223,31.744674,扬子江大道7号,885251
四季香榭,3,9306,0.0383272,120.710974,30.518658000000002,海州东路,892138
南苑新村,1,9175,-0.0135356,120.981408,31.385503000000003,震川中路，近珠江路,883906
钱江君庭(南区),3,22457,-0.14162,120.56836100000001,30.406853,翁金线，近三里港路,914290
若为谷月亮湾(别墅),8,9630,0.16215,120.01114799999999,30.756039,妙新线,990897
摩尔公馆,91,8863,-0.0419995,120.707374,30.769575,洪兴西路，近殷秀路,890322
解放四村,1,20476,,120.938282,30.851017,谈公北路,890380
绿城桂花城,6,9600,-0.0800192,119.982448,30.534345000000002,舞阳街688号,939392
开元悦都,113,8887,-0.0092931,120.97641399999999,30.680646000000003,曹丰路,993644
紫薇花园,1,14097,0.011045000000000001,120.680328,30.521911,文宗路8号,892014
绿城花苑,2,8826,0.212529,120.947103,30.523231,勤俭北路250-6号,890487
金都花苑一期,2,4874,0.202477,120.438598,31.945704,晨丰公路，近勤政路,889704
福馨花园,2,8048,0.167053,120.83420500000001,30.853035,育才路,941365
天馨花苑,4,40963,0.14113599999999998,120.885658,32.024213,平安路,917504
光明新村,29,9675,0.00755795,120.867345,32.006904999999996,虹桥路,917281
太湖华府,5,11820,0.072769,120.325249,31.140628999999997,大桥路,888116
桃园新村,20,11266,-0.015240700000000001,120.933209,31.046193,培育路268弄,820209
上河原墅,11,52241,1.7565400000000002,120.64562600000001,31.25518,石湖东路,887558
华美小区,2,8693,-0.00479619,120.77508600000002,30.779203999999996,城东路792号,889827
吉翔澜山公馆,16,10296,-0.059982900000000006,120.71343999999999,30.546884000000002,碧海路，近横山路,952802
丰泽湾,5,19602,-0.11789200000000001,120.93454799999999,31.148235999999997,锦商路,883439
金科东方水榭,6,15792,0.122752,120.87332099999999,31.262356,柯福路1号,888198
学仕嘉园,2,8108,0.00172968,120.93956399999999,30.842746,罗星路539号,890427
江南新村,1,26383,0.574685,120.970817,31.386384999999997,柏庐中路278号,883676
凤凰花苑,3,9618,0.268552,120.485491,32.537074,宁海南路181号,917874
新公馆花园,3,12648,0.0105078,120.951783,31.384555,震川西路,884196
信达香格里,1,12152,-0.0136865,120.692695,30.761446000000003,秀园路398号,890276
春晓源燕园,2,8263,-0.00133567,120.719823,30.774714000000003,洪波路1688号,890175
伊顿公馆,80,9846,0.0119219,120.428605,31.956734,中圩路，近中港南路,943754
阳光广场月河苑,1,9230,,120.75413400000001,30.779031,禾兴南路1265号,890073
凝欣花苑,3,5681,,120.84349399999999,30.914690999999998,西周路8号,404633
紫金公寓,1,5172,,119.906972,31.009044,解放西路,939611
大树星岛花园,1,14508,-0.00169849,120.955279,30.821788,之江路1号,890345
绿地新都会,13,10381,-0.0240026,120.826719,30.745029,亚美路,889919
青春里,3,32996,-0.197449,120.961745,31.387898999999997,前进西路218号,883952
格林小镇,6,10784,0.00018549400000000002,120.70161599999999,31.535902,227省道,884824
莲花庄小区,1,11499,0.0470536,120.11148,30.866035999999998,莲花庄路149号,939073
隆兴公寓(东区),3,7743,-0.00429742,120.761321,30.727094,花园路,889910
江南春天,16,11426,0.19125,120.964427,31.415275,紫竹路689号,883672
龙河花园,1,10593,,120.636278,31.119211,芦荡路，近渔港路,887065
中兴花苑,2,11619,0.181169,120.936435,31.925488,厦门路,917705
中星城际广场鼎苑,23,12077,-0.00369055,120.96203,31.361503999999996,九华山路60号,884381
绿城玉兰花园,10,19965,0.274741,119.94703899999999,31.014583000000002,县前东街1088号,939541
裕隆公寓,2,11387,0.0122246,120.728755,30.766656,秀仁路187,890311
如意新村,4,5250,-0.10683,120.669123,30.915136999999998,如意路,887320
绿城玉兰公寓,1,22486,-0.00639086,120.89128799999999,31.983169,世纪大道99号,917604
紫竹公寓,1,11175,0.0159426,120.964184,31.408832,紫竹路548号,884403
万达华府,241,11103,-0.00362244,120.808393,30.740710999999997,广益路,798053
嘉乐城,14,11288,0.38561799999999996,120.858299,31.040458,城司路,627853
台昇国际广场悦府,35,11009,0.029134800000000002,120.76122,30.729118,花园路,792519
世茂蝶湖湾,37,9865,-0.0103479,120.96931200000002,31.347002000000003,新南中路288号,884042
农翔社区,1,6364,0.0327901,120.78176100000002,30.760624,东塔路97号,889944
和平花苑小区,1,5196,0.15473699999999999,120.45884299999999,31.925631,解放路,889302
万润家园,3,9785,-0.00354808,120.55609299999999,30.881116,延陵路168号,887268
汇宇都市花园,1,9558,,120.574933,30.631985999999998,振兴东路,798078
润家广场,607,11000,,120.916018,30.518114,联翔路,1010373
龙鼎瑞园,9,8988,,120.918292,30.835371000000002,人民大道,890396
芙蓉新村,14,25607,0.0356958,120.626604,31.40285,芙蓉街33号,888814
捷达名轩,1,9903,-0.0206008,120.66835,31.16405,庞金路,887014
名都花苑,2,9756,0.0339127,120.56111499999999,31.859676,新市河路75号,889435
东苑新村,1,15974,-0.36348400000000003,120.910182,31.183426,文昌路,883428
银鹿新城,2,10047,0.00472632,120.946831,31.287476,机场路,884280
恒大龙溪翡翠,3,12008,-0.0392884,120.096521,30.872197999999997,红旗路318号,990873
上峰华府,1,9833,,120.679305,30.486935,经都三路38号,925383
水绘曦园,1,6324,,120.572901,32.401277,海阳路,918398
东方丽都,1,7500,,120.95494,32.137715,东环路，近三总路,918460
亭林山庄,1,16213,0.00200365,120.952031,31.391434000000004,马鞍山东路189号,884109
中大未来城,7,15495,0.121243,120.921576,31.388959000000003,共青路,884364
昆山万达广场,11,10852,0.023471799999999998,120.99754899999999,31.418371999999998,青阳北路238号,884419
远洋绿洲,4,9863,-0.0007251439999999999,120.74641499999998,30.7619,吉水路272号,890104
瑞丰苑,1,5920,-0.21056799999999998,120.538698,31.890929999999997,人民西路120号,889470
水榭花都,27,10633,0.00256558,120.790543,30.746045000000002,景宜路963号,889980
恒基未来城,2,11217,0.03324559999999999,120.576246,31.869983,暨阳东路,889311
裕隆府,6,10319,0.00334161,120.691379,30.764186,秀园路,890310
海悦府,105,11086,0.004631199999999999,120.462865,30.444865999999998,修川路,892096
君临天下花园,1,10029,0.00292105,120.99101100000001,31.412776,白塘路555号,883747
东方都市,74,12024,0.0239785,120.72410900000001,30.514978999999997,碧云南路,798254
吉安公寓,1,8626,0.0102625,120.74478300000001,30.765056,吉安路15号,889834
东苑新村(吴中区),1,9176,-0.16578900000000002,120.873993,31.277852000000003,迎宾路,888136
华盛广场新邻域,3,7333,-0.22221,120.788576,30.732081,乌桥路，近普民路,927353
花样年太湖天城,3,11469,0.0180079,120.4237,31.222382,环太湖大道128号,505193
玖珑湾,3,15572,0.0104915,120.980465,31.374185999999998,车站路388号,883984
龙桥新村,1,9750,,120.634923,30.904757,市场路,887308
海宁碧桂园,52,9531,-0.017368400000000003,120.34656799999999,30.430613,人民大道,892069
金桥名苑,2,9060,0.0257885,120.86334599999999,30.746796999999997,广益路,889879
御上江南景园,14,11079,-0.0109755,120.825418,30.741064,亚欧路656号,890097
新海佳苑,5,8888,,120.713599,30.505997999999998,农丰路，近江南大道,925381
新城金郡1期,3,27051,0.552606,120.630045,31.225695,邵昂路66号,887645
清华园,1,14751,0.00198414,120.99936000000001,31.394115000000003,桃花江路77号,883966
天诚公寓,1,8658,,120.697352,30.522235,海昌南路,891511
江中小区,1,10244,0.00964247,120.65731399999999,31.159315999999997,垂虹路52号,886905
禾源新都,3,8958,0.05145790000000001,120.72981000000001,30.711582,开禧路,889813
龙翔大厦,5,10069,0.208114,120.805699,30.744360999999998,庆丰路1407号,927351
万达华府,8,20770,0.48362799999999995,120.73933400000001,31.690779,富民西路，近珠海路,885328
华德力公园壹号,2,10206,0.00935834,120.93527399999999,31.278722,翰林路，近通湖路,883592
御澜湾,5,31862,0.00521052,120.99917099999999,31.397594,桃花江路199号,884510
江南润园,16,8617,-0.00377244,120.63761799999999,30.798878000000002,润园路168号,890220
同方燕语林苑,2,11794,,120.79349599999999,30.758878999999997,南溪西路2208号,890001
信达翰林兰庭,1,10745,-0.0639062,120.811254,30.755926000000002,南江路,890052
象屿珑庭,38,13361,-0.0646317,120.95504299999999,31.364765999999996,中华园路1555号,884168
海上印象花园,5,7994,0.021507299999999997,120.942945,31.294426,京东路555号,883511
山水桃源,2,12971,0.13507,120.69375,31.689838,虞山南路96号,885079
东泰花园(别墅),1,10937,,120.477442,31.138561,新市街519号,888067
中交美庐城,5,7829,0.0191699,120.56813700000001,32.420988,海阳北路，近惠民路,926272
永新花苑(别墅),1,11400,-0.049947399999999996,120.861406,31.71623,将军路6888号,885306
朗诗未来街区三期,1,32467,-0.06720110000000001,120.75071299999999,31.379281,夷浜路,888253
赞成新都名邸,1,8526,0.0657895,120.76143,30.735264,花园路1151号,798061
长安佳源中心广场,4,10588,,120.44786,30.444181,长安路，近健康路,952812
绿城龙王溪小镇,43,17668,0.0416783,119.603879,30.602415,苕源路1号,939680
四季华城,135,10000,-0.0124432,120.964945,31.364694,中华园路836号,884071
金茂国际,3,7392,-0.100512,120.556051,32.388758,中山西路1号,918348
龙庭花园,2,10382,0.180053,120.59613,30.991766,双龙路,887243
蓝海LaVíe,3,13737,0.055210800000000004,120.985091,31.382013,长江中路,883790
汇智阳澄华庭,1,10814,-0.0284128,120.845087,31.47767,学院路828号,883626
四季江南,7,10172,0.00608509,120.91868400000001,30.822539000000003,体育南路1583号,798193
海佳名邸,111,8936,-0.00315261,120.896546,31.387934,前进西路,883509
望湖大厦,4,9397,0.00688558,120.40284399999999,30.96361,南太湖大道6168号,887207
万丽广场,887,10918,0.0239737,120.690858,30.76475,秀园路698号,991005
龙潭苑,3,27818,0.0398052,120.87598500000001,31.270740999999997,晓南路218号,888165
银河湾,11,10229,-0.030284699999999998,120.73138600000001,30.728127,银河路,890087
信源亲水湾,23,8985,-0.21016500000000002,120.81696200000002,30.745701,广益路,798232
西塘新天地,37,16089,0.0651649,120.887624,30.942249,南苑路,623405
中华西村,1,7849,-0.0678254,120.971828,31.362221999999996,衡山路,884369
汇金广场,4,7241,,120.79328899999999,30.743940000000002,广益路247,927315
水岸花园,3,10926,-0.028715800000000003,120.97752,31.410156,萧林路118号,884056
嘉辉南湖美寓,2,6631,-0.052360800000000006,120.78728999999998,30.775335,湘溪路76号,890154
元一柏庄(一期),20,9869,0.0726237,120.720725,30.757734000000003,昌盛南路,890102
一泓蓝溪湖墅,3,11999,0.20680500000000002,120.92431599999999,31.174326,五保湖东路599号,884261
新桥北村,1,13333,0.8920110000000001,120.889758,32.035569,工农路,917394
奥园黄金海岸,33,10735,0.0342409,120.789423,30.792567,永政路98号,794708
民乐小区,2,13316,-0.289774,120.002881,30.545069,武源街,939399
朗峰裕花园,18,15460,0.07155310000000001,120.975054,31.369553999999997,庆丰西路573号,883792
南园新村,1,43174,-0.00601611,120.62668799999999,31.297076,新市路,886220
枫情佳苑,1,9175,0.0194854,120.950222,31.284235,商秧路,883449
景瑞望府,1,16591,0.42791999999999997,120.95236899999999,31.932467,惠泽路18号,917681
御园(别墅),1,34330,-0.00267271,120.722277,31.302738,西华林街99号,888653
莱茵河畔(别墅),15,10508,-0.0243832,119.92018999999999,31.046924,锦绣路，近合溪新港路,1006346
东方润园,23,12833,0.128114,120.94503700000001,30.824935999999997,世纪大道,619539
江锦云庐,38,6847,-0.09375610000000001,119.900943,30.998919,紫金路,1006348
昆山花园,15,11577,-0.19312100000000001,120.982304,31.405876,长江北路118号,883774
东方名嘉(南区),6,10197,0.019726300000000002,120.93894399999999,30.836028000000002,施家南路668号,890354
漕泾新村一区,1,15325,-0.09851389999999999,120.768303,31.665315999999997,衡山路,884738
物美大厦,2,7503,-0.055473800000000004,120.91856899999999,30.841091,晋阳西路558号,941374
万达广场,19,16485,0.178958,120.738647,31.689116,珠海路8号,885334
太湖上景花园,69,26181,0.135916,120.437455,31.228272999999998,梅舍路3号,888118
浙联金座,39,9253,-0.0394204,120.705234,30.769164,洪兴路2203号,890324
龙湖时代天街,1,21701,0.025926400000000002,120.562671,31.299667,狮山路,886587
置地公馆,2,8545,-0.00685728,120.934595,30.83052,阳光路，近嘉善大道,890459
昌盛花园(东区),1,7471,0.0038968,120.724567,30.789015000000003,常秀街,890165
新南浔孔雀城,309,11648,0.0135094,120.425475,30.843790000000002,联谊路,995198
水月周庄,252,12630,0.028351299999999996,120.866824,31.131208,全旺路88号,884064
东渡海派青城,3,29561,0.013544999999999998,120.691273,31.437637,聚金路,889131
赞成名仕府,19,9120,0.0221781,120.105725,30.922756,安吉路,939200
碧桂园云谷,2,10000,,120.963523,31.938144,通盛大道，近宏兴路,1016079
锦瑞苑,3,8733,-0.0979238,120.445176,30.885081,便民路449号,939255
御景湾,2,13541,0.195917,120.91720500000001,30.830329,体育南路,890440
富力湾,74,13177,-0.0963228,120.999553,31.170884,万园路88号,999689
苏锦一村(百合苑),3,29788,-0.00703509,120.61650300000001,31.341935,锦芳街，近平川路,885387
秋泾公寓,2,7725,-0.151058,120.767331,30.784496,大东路43号,797728
水月周庄(别墅),97,13548,-0.017375900000000003,120.865385,31.130888,全旺路88号,884641
莱茵河畔,24,14201,-0.0021671,120.89718500000001,31.990235,沿河路1号,917233
金汇奥园,15,10332,0.012235,120.958877,30.536952000000003,新桥北路,890517
中朝悦榕庄,1,11165,0.563288,120.71609699999999,30.510195,钱江东路368号,891920
经房浅水湾,3,8270,-0.00786064,120.79205800000001,30.799334,鸣羊路,720987
阳光景苑,4,9308,0.0474792,120.62091699999999,30.808484000000004,兴育路289号,890292
东菱梅湾花园,20,14058,-0.00644969,120.75171399999999,30.756870000000003,城南路158号,889760
万科初见,4,9643,-0.0327087,120.970358,31.467624,长江北路,884428
华丽家族太湖汇景,31,16983,0.0218602,120.44506000000001,31.230048999999998,梅舍路，近蒯祥路,887988
春晓源(东区),7,9159,-0.00255621,120.716675,30.773446000000003,洪波路1840号,890174
竹园新村,2,9814,0.47230200000000006,120.697826,30.525053000000003,塘南东路64号,891974
天和人家,2,24146,0.833548,120.647962,31.18155,鲈乡北路818号,886816
碧海花园,2,21850,0.235513,120.61028400000001,31.51083,康升路,889191
嘉凯城太湖阳光假日(别墅),1,10468,,120.122425,30.957273999999998,梅洲路188号,939035
合景峰汇二期,1,17912,-0.0359847,120.61136,31.369884999999996,人民路,888949
西城花园,1,4718,0.0485731,120.555305,32.379455,宁海西路,918407
花苑二村,6,25174,0.0580688,120.520949,31.267870000000002,花苑西路,887762
信达格兰上郡,19,13476,0.165812,120.823948,30.730240000000002,亚欧路，近三环东路,927334
白鹭湾,1,8087,0.016734400000000003,119.92931100000001,31.040046000000004,希望大道,939450
城南花苑,1,9330,-0.0669895,120.66184299999999,31.129601,长安路1181号,887045
一品江南,1,6000,-0.27623600000000004,120.43058500000001,31.961228000000002,长江中路,889580
宇业天逸华庭,1,9405,0.040146,120.97870400000001,31.459462,迎宾东路,884485
西需浦新村,5,11569,0.0241678,120.96935,31.374973999999998,跃进路,884144
蔚蓝澳洲中心,77,9060,-0.0159318,120.746328,30.740648999999998,紫竹路,991785
锦绣佳苑,229,11687,-0.00195065,120.86056299999998,30.539723,招宝路,1010372
象屿珑公馆,75,14033,-0.00913797,120.954893,31.362353000000002,九华山路,884167
隆兴嘉苑,67,7258,-0.00307216,120.70179499999999,30.544956,由拳路,891015
金海丽水湾,6,6723,-0.011009399999999999,120.452041,32.556914,河滨西路88号,917905
阳光丽景,1,9777,,120.57516499999998,30.63745,为民路98号,892522
友谊公寓,1,12496,0.041346499999999994,120.865803,32.016017,桃坞路44号,917347
真如新村,1,6024,,120.74591399999998,30.752409000000004,城南路533号,890124
万象北园,1,12883,-0.007999899999999999,120.85723600000001,32.025021,万象路,917335
国际公寓,1,11547,0.154789,120.630826,30.908955,西二环路,887292
友谊新村,1,8638,-0.07209,120.108875,30.875928000000002,苕溪西路300号,939190
虹桥花园,3,10499,0.035568800000000005,120.44979099999999,30.437555,汉帛路，近城西路,952798
金都夏宫,1,11995,0.161104,120.813294,30.754642999999998,南溪路,889875
卡森花苑,5,9407,0.13361800000000001,120.684202,30.528415999999996,梅园路228号,890908
北禾春天,243,9281,-0.024041200000000002,120.73126599999999,30.794309000000002,城北路1574号,890332
和风丽园,73,7443,-0.03189790000000001,120.77457700000001,30.7971,和风路474号,890196
巴黎春天,38,9122,0.0170099,120.61056200000002,30.674969,永安路,798203
阳光城丽景湾,2,10638,-0.0633914,120.851794,31.284077000000003,甪直大道87号,888195
阳光城翡丽海岸,858,10951,0.014514500000000001,120.97313799999999,30.545631,滨海大道，近华丰路,1018748
御江南(别墅),6,11276,-0.239891,120.499082,30.739438,青镇路300号,993040
云都大厦,4,8166,0.09368939999999999,120.739392,30.770845,越秀北路306号,890334
五一新村,1,22763,-0.07203419999999999,120.89640800000001,31.995932,洪江路，近启印路,917245
育贤花苑,1,4912,0.07468129999999999,120.57383600000001,32.296418,振兴路,918428
人民新村,1,7961,0.09484110000000001,120.457799,31.921195,人民南路,889469
华宇林泉雅舍,2,29263,0.828947,120.498962,31.321603999999997,建林路,886685
清枫和院(别墅),1,22468,-0.13583,120.75611699999999,31.664281,李闸路78-104号,885298
欧洲花园,3,24374,0.24288200000000001,120.67211200000001,31.297077,通园路668号,888396
金谷园,1,38223,0.00387038,120.95176799999999,31.383764000000003,白马泾路,883692
宝马花园,6,6194,-0.0568867,120.44202299999999,30.527477,工农路999号,892543
名城花苑,12,10057,-0.0783807,120.454213,30.536459000000004,青阳东路,797225
巴黎印象,3,7519,0.110885,120.73166100000002,30.631475,花园路351号,926318
赞山景苑(南区),6,9482,-0.016594099999999997,120.71990500000001,30.505463,钱江东路,891870
翰林府第,108,10851,0.00977108,120.77560600000001,30.74765,纺工路1235号,798054
阳光花城,3,13784,-0.0863448,120.620127,30.679631,凯旋路1398号,892521
碧桂园翡翠湾,26,14824,-0.11320999999999999,120.558458,31.854055,暨阳湖大道，近河西南路,889642
名仕花园,2,20328,0.109169,120.59988899999999,31.303703000000002,三香路,885958
上城蝶园,1,9560,,120.709597,30.50217,江南大道,891396
常发香城名园,101,10875,0.0219488,120.957181,31.367486,中华园路1558号,883344
江南理想,4,20000,0.09337419999999999,120.90580200000001,31.390038,康居路,883673
合景天峻,476,12124,-0.0177542,120.94375900000001,30.547665999999996,百尺北路，近华丰路,1018747
龙联朗郡,1,10281,-0.0137322,120.583693,31.890242999999998,中兴中路，近江帆路,889710
金水湾,1,34580,-0.014974200000000002,120.724323,31.305712,金鸡湖大道,888526
中润嘉兴中心,122,7475,0.104975,120.728086,30.756284,文昌路,927320
花园新村,1,9857,-0.00217367,120.967805,31.996259000000002,花园路,918634
崇福凤凰城,7,8298,0.000272801,120.428205,30.533301,崇民大道，近崇永线,992985
金山浜花园B区,1,15000,,120.527331,31.295799,金山路，近渔洋街,887778
紫澜别墅,9,11655,0.0296986,120.80306499999999,30.748316,中港路,802035
恒天花园里,17,8558,-0.00629404,120.968853,30.847843,泰山路81号,727136
汇众佳苑,3,11115,0.77032,120.837585,30.817398999999998,七星路,782040
幸福里,1,14895,0.050401,120.55951100000001,31.820439,华苑路1号,889206
天虹花园,2,13492,-0.05231,120.898559,32.029275,人民东路,917499
翡翠名都,12,10235,0.0146657,120.984953,31.369489,长江南路,883435
世茂蝶湖湾(二期),37,8481,-0.0015243000000000001,120.973599,31.345364,新南中路288号,989818
嘉城绿都紫薇苑,1,8531,0.035988900000000004,120.791771,30.774656,湘溪路,889859
旭辉郎香郡,43,10270,,120.69438500000001,30.757483,育英路，近秀园路,926311
中南公馆,22,8380,,120.810493,30.744351,九曲路，近南江路,927343
金地艺境,799,11554,0.0202998,120.761123,30.822723999999997,东方路，近正阳西路,990999
百福公寓,2,8169,-9.018879999999999e-05,120.750817,30.764401,安乐路152号,800914
香榭水岸,3,13333,-0.00965609,120.939986,31.388613,马鞍山中路,884161
海上湾(别墅),1,27802,-0.0688399,120.163453,30.873685,蜀山路1788号,938997
桂苑,1,8113,-0.00649033,120.78443100000001,30.760168,南溪西路1412号,889804
花园浜南村,1,11641,0.0539611,120.571178,31.864663,沙州东路,889330
世博名邸,9,10521,0.00181419,120.93477,30.833378000000003,嘉善大道,890412
正荣国领别墅,8,45195,-0.00852561,120.708424,31.258309999999998,东方大道,887420
台昇璞悦汇,3,10526,-0.00293644,120.76123,30.728997999999997,长水路,992975
新城香溢紫郡(北区),1,10000,,120.972311,31.337616999999998,青淞路,884190
康桥名城,14,9881,-0.00262945,120.680393,30.517896999999998,文宗南路18号,890941
格林阳光,1,9535,0.0184433,120.94861499999999,31.284939,海虹路467号,883489
尚东名邸,75,9203,0.00226964,120.78255800000001,30.789134000000004,中环北路,657418
清河嘉园C区,1,9000,,120.082396,30.859678000000002,清河路31号,939113
新城吾悦广场,4,15425,-0.06364410000000001,120.549377,31.843690999999996,金港大道，近南二环路,889655
汇龙新城,1,14235,0.29543400000000003,120.748947,31.637103000000003,招商北路118号,884897
祥和花园,2,14422,-0.0916727,120.99090100000001,31.399261,昆太路528号,884165
东湖金悦(别墅),128,9627,-0.00127211,119.99099299999999,30.990111,滨江大道,946358
万科西郡,2,16038,0.309233,120.510644,31.246263,姑苏路,887865
富力湾(别墅),91,14088,0.0161216,120.997577,31.17538,万园路88号,883473
富阳新村,10,11762,-0.062078499999999995,120.96793500000001,31.377468,跃进路,883478
明珠苑,1,10972,-0.289608,120.96466399999998,30.539224,海兴东路21-2,952149
梅里春天,21,10179,-0.046493900000000005,120.72890100000001,30.634682,花园路，近常乐路,926328
嘉尚年华,28,11236,-0.0636316,120.97213400000001,30.851012,东升路129号,890460
盛巷小区,1,10112,-0.00130981,120.947111,31.303579,港浦中路,884032
万达华府,21,15545,0.060473,120.611175,31.260957,友新路,887596
东方时代广场,1,10181,,120.676351,31.472838,珍珠湖路，澄阳路,924925
昆城博奥苑,1,12307,0.061039699999999995,120.935851,31.377094,朝阳西路,883333
红星国际生活广场(商住楼),1,9984,-0.00107949,120.560102,31.266363000000002,长江路，近苏福路,887976
旭辉御府,11,11430,-0.08871380000000001,120.72725200000001,30.748846999999998,桐乡大道,890067
昆山柏盛园,2,12101,-0.046515,120.971974,31.371522,柏庐路,883773
明鑫凯迪城,2,12483,0.0436162,120.939931,31.385595000000002,虹桥路118号,883753
香槟一号,1,16414,0.510254,120.874229,31.264746999999996,柯福路2号,888181
景辰家园,2,8825,0.08010360000000001,120.931292,30.823742,嘉善大道,890388
大成莲创,1,10882,-0.00838748,120.954668,31.345863,乐山路,884431
水乡景苑,99,6902,0.00414989,120.848822,30.913576000000003,洪兴路,890456
时代城,4,7857,-0.022274799999999997,119.913895,31.003635,长海路,939551
东方时代广场(商住楼),1,13189,0.0141068,120.67613600000001,31.472005,珍珠湖路，澄阳路,924926
太湖明珠南泊湾,105,8903,0.00659308,120.411374,30.962085,环湖路,887198
桃源林语,5,9258,-0.00387347,120.865377,30.6705,大桥路,628030
卓锦兰香,1,9909,-0.019997099999999997,120.66816100000001,31.159751,运东大道399号,887038
嘉业阳光城,22,10645,0.0384353,120.10511499999998,30.888771999999996,凤凰路288号,939037
巴黎都市(北区),34,11603,-0.0591609,120.58391100000001,30.654195,环城东路,892427
春晓苑,2,10750,0.0258612,120.87089499999999,31.713459999999998,寺泾路,884784
维纳阳光花园北区(别墅),4,32980,0.0220182,120.759518,31.378443,科能路80号,888295
朗诗绿色街区,1,41406,,120.536482,31.257577,金枫路,887798
曙光苑,1,32592,,120.576283,31.307965999999997,滨河路,886527
香山花园,1,8000,-0.0174404,120.41208799999998,31.231697999999998,校场路,888014
湖畔家园,1,8650,-0.08404110000000001,120.988201,30.711109999999998,城西路,892328
大都汇,5,21215,0.0730299,120.104552,30.877224,劳动路356号,990896
顺城名湾,13,8027,-0.005081800000000001,120.939273,31.280946000000004,翰林路,884067
乘航新村,1,5714,-0.00953371,120.586399,31.848903999999997,镇中路，乘航西路,889232
太湖黄金水岸,50,13193,-0.031395,120.45761599999999,31.228719,环太湖大道,658770
嘉城绿都凌霄苑,6,8445,-0.033298400000000006,120.789336,30.776208,中环东路,889856
华府壹区,8,11132,0.0397084,120.860669,31.03639,重庆路1号,611100
海派秀城,160,9541,-0.00036392699999999995,120.723013,30.773818,洪殷路420号,890327
碧桂园湖悦天境花园,156,17608,0.049870099999999994,120.863794,31.037428000000002,清河路,941269
吉田国际广场,7,17675,-0.00318485,120.96859599999999,31.358068,创业路666号,883632
天星如意湾,2,8371,-0.015408100000000001,120.762725,30.814281,天星西路505号,793893
湘景苑,5,6255,-0.00823646,120.832599,30.813647999999997,七星大道,890046
湘都公寓松音坊,18,7999,-0.0362397,120.827646,30.761838,三环东路,890043
金水苑,1,8235,,120.594241,32.105796000000005,新城经二路,918349
碧水云天,6,11033,0.03932,120.557221,30.653088,庆丰北路399号,892435
太湖之星,4,11666,-0.025641000000000004,120.36462,31.199195,长沙路,888011
湖畔佳苑,23,36000,,120.590856,31.262451000000002,学府路189号,886652
东湖家园,1,7042,0.173754,120.12546299999998,30.857946000000002,东湖路,938965
北港绿苑,1,16000,,120.569278,30.643132,金波路,892432
他她公馆,1,9568,0.083767,120.60153600000001,31.345914,石曲街99号,885431
普禧观澜,20,18233,0.0859628,120.565101,31.42727,春秋路,889060
中交璟庭,1,11538,,120.622607,31.147015999999997,秋枫街，近高新路,886862
长顺滨江皇冠,5,15000,0.022913299999999998,120.94136100000001,31.38593,前进西路,884352
孔雀城澜院,20,12165,-0.05834740000000001,120.915852,30.814111999999998,白马线,890455
太湖颐景,1,15411,,120.62175400000001,31.193988,永旺路,888080
世纪公寓,2,11684,-0.317164,120.92554299999999,30.848271999999998,桥南路,890413
玫瑰苑,2,29363,0.32137,120.592549,31.325940999999997,虎丘路177号,885545
嘉业阳光城,4,10190,0.00721558,120.711928,30.767435,新洲路388号,1012468
舜江碧水豪园(南区),2,10227,,120.93669399999999,31.292733000000002,京东路688号,884068
康桥小区,2,7283,,120.855166,31.46732,湖滨北路,883761
湘湘恬园,229,9592,0.008828200000000001,120.83438500000001,30.820290999999997,兴民路,952906
金凤花园,1,5675,0.0345377,120.48611100000001,32.53415,宁海南路201号,917902
正荣华府,1,26167,0.19431600000000002,120.539317,31.270946999999996,金枫路699号,887922
丽景佳苑,11,8000,,120.45069199999999,30.450845,景华路220号,952804
金域蓝湾,10,9376,-0.19911700000000002,120.52653799999999,31.297521999999997,金山路，近湘江路,887782
金科廊桥水岸(别墅),1,13356,-0.0309306,120.64393100000001,31.126565000000003,庞杨路,887085
中楠都汇广场,3,17052,0.395223,120.98666399999999,31.409264,萧林东路,884377
南德大院,4,15846,,120.808252,30.756262,南溪路，近庆丰路,927354
城南印象,148,8147,0.0434047,120.96738799999999,31.365931,衡山路,884540
南山雅居,87,11149,-0.0125251,119.876074,31.099139,长水线,1025093
泰富苑,1,30076,-0.42855,120.62632099999999,31.311408,干将西路79号,886284
华府锦苑,1,8792,-0.07643739999999999,119.913095,31.043604,忻湖路157号,939488
世纪新城,2,15650,-0.130503,120.546318,31.887964,恒河路，近大包巷弄,889484
华庭苑,1,31003,0.125324,120.665774,31.324355999999998,星明街217号,888356
常客隆信一隆庭,1,16184,-0.12517799999999998,120.78206599999999,31.671115999999998,珠江路,884750
长江一品,1,9416,-0.0903868,120.845519,32.064898,长泰路,917844
菁英汇,2,14864,,120.97294199999999,31.354978000000003,创业路588号,883728
清华园,3,8251,-0.321305,120.57152099999999,30.653344,逾桥东路425号,892496
保利香槟国际,1,9550,-0.00208986,120.83939199999999,32.047858000000005,长平路28号,917786
荣盛观湖景园(别墅),2,13257,0.256027,120.833774,30.822853000000002,兴民路,991786
优山美地花园,4,17890,0.09907460000000001,120.922271,31.945773,星湖大道1888号,917661
华府国际广场,1,10428,-0.0848572,120.741873,30.737249,由拳路，近城南路,927338
鑫隆花园,1,6522,0.0034251,120.67285,31.162640999999997,绣湖西路618号,887033
江南乐章,1,11235,0.012344599999999999,120.92279099999999,30.838540000000002,亭桥南路438号,890377
奥体新城,1,6666,-0.0320894,120.60783400000001,32.379582,惠政路,918271
经都名庭,2,10256,0.00796069,120.67983999999998,30.473628,红旗西路19号,798532
新城吾悦广场,12,16157,0.018762900000000002,120.595896,30.634163,振兴东路439号,993033
万豪佳园(别墅),9,8602,-0.0281827,120.97398899999999,31.612781,支塘集贤路,885303
东方新村,19,11484,0.000798074,120.968231,31.378809000000004,朝阳西路,883411
望湖公馆,9,8180,-0.00868051,120.74605,30.737358,由拳路,890014
中港城世家一期,1,9213,,120.853199,32.047048,濠西路,917856
华美家园,1,13294,-0.261398,120.626851,31.366142,齐门北大街603号,888833
经房福瑞国际,1,5548,-0.216694,120.73014599999999,30.764590000000002,秀仁路,890224
协孚锦园,3,10661,0.0627518,120.978076,31.368078999999998,庆丰路,884177
佳兆业君汇上品花园,1,22850,1.14742,120.59023799999999,31.388877,兴业路,888969
锦绣家园,2,10389,,119.709934,30.633693,昌硕东路734号,939659
锦泽苑,3,22339,-0.158149,120.70071100000001,31.34941,汇隆街8号,888777
文苑小区,47,8123,0.105894,120.779076,30.743105,纺工路,890031
罗马都市(二期),4,11276,0.034994300000000006,120.7997,30.756176,望湖路906号,889917
太阳湖大花园,115,14089,0.0008898430000000001,120.87584199999999,31.086002,张园东路88号,13044
农房斯坦福德小镇,3,7944,-0.12474,120.716047,31.926953,乐富路99号,889451
珠江新村,3,21276,0.285905,120.977244,31.385977,珠江北路,884391
鑫控吴越学府,71,10941,-0.00999105,120.825326,30.735291999999998,由拳路,989586
中茂花苑,1,6232,-0.019230599999999997,120.94839499999999,30.523118,勤俭路,798197
佳源都市,153,10068,0.0380506,120.08013100000001,30.850406,佳园路,939033
金都花苑,3,6432,-0.108923,120.442986,31.944232,晨丰公路，近勤政路,889370
小城春秋,59,10711,0.00254685,120.881798,30.7661,嘉善大道113号,890047
紫桂花园,2,8685,0.26338,120.903396,30.890058000000003,叶新路61号,890447
昆山国际模具城,1,9600,-0.2,120.95284199999999,31.462115,北门路，近玉杨路,946552
金玉满唐,4,15679,0.24192600000000003,120.85684499999999,31.552025,中环路,884939
嘉新职工公寓,1,11309,0.028172199999999998,120.76146299999999,30.775175,环城北路175号,889864
东郊新村,1,7968,-0.205304,120.71366200000001,30.553140000000003,碧云北路,890532
中洲花溪地,83,12329,0.09025880000000001,120.82902800000001,30.736753000000004,由拳路,952158
花溪新村,1,10653,0.014958100000000002,120.76356000000001,31.632555,荡蹲路,884876
苏州丽都国际,1,14444,,120.63995700000001,31.259621999999997,石湖东路100-12号,887586
淀山湖壹号,216,13259,0.00847838,121.01926399999999,31.15012,环湖大道,883396
摩玛自由城,3,5770,-0.0495193,121.01254099999998,31.34736,金阳西路,883896
恒大名都,199,9106,-0.18523900000000001,121.01625200000001,30.684385,梅园路,892324
云湖92墅,104,18327,0.029804,121.00459,31.183058000000003,万园路188号,884339
颐景园,7,27842,0.09902029999999999,121.00079699999999,31.413438,金浦路,884268
