小区,房屋数量,count,均价变动,lng,lat,地址,ID
阳光水岸,1,27193,-0.157000,120.562313,31.871086,东环路330号,889578
万科金色梦想,7,11333,0.011694,120.690482,30.791467,成秀路355号,890263
荣盛阳光名邸,2,35171,0.029483,120.642937,31.370070,阳澄湖中路128号,888873
嘉和丽园,2,14278,-0.133060,120.625742,31.384743,春申湖中路592号,888837
胥江一号别墅(别墅),6,13118,0.019436,120.493069,31.241010,胥欣路221号,887902
中交美庐城,10,7764,-0.069487,120.568137,32.420988,海阳北路，近惠民路,926272
南山金城1958,1,16338,0.106052,120.556378,31.365314,城北西路1958号,885361
锦绣江南(别墅),1,9333,-0.226504,120.591108,31.852675,镇中路,889394
锦盛苑,3,10406,0.080694,120.652442,30.886753,中心大道1689号,887301
万城明月公馆,47,10807,0.103799,120.669092,30.522085,广顺路，近联合路,917184
香溢花园,2,31200,0.369119,120.642723,31.244259,东吴南路88号,887646
中海御景湾,1,19217,0.271386,120.551447,31.378433,虎殿路,885365
远洋公寓,1,5200,0.114445,120.412617,31.962943,长江中路,889600
绿景苏州公馆,21,11162,0.030217,120.601576,31.220431,塔韵路199号,1002470
宝石花园,96,9110,0.176757,120.329400,30.780567,维多利大道,939216
招商依云水岸(别墅),63,15541,-0.199670,120.664875,31.375523,阳澄湖东路98号,888906
江海新村,2,7177,-0.069014,120.434499,31.964680,中兴南路,889360
佳源罗马都市,15,11249,0.096350,120.549718,30.637551,复兴北路128号,892544
盈都君悦,16,10516,0.022135,120.396764,30.360175,启潮路48号,892029
华安豪庭,80,4845,0.024060,120.695720,32.460427,红旗东路,995408
金都花园,2,9788,0.186143,120.270867,30.858670,富民中路120号,939043
永金公寓,2,13144,-0.061118,120.629900,31.358798,齐陆路10-3号,888928
西苑公寓,1,9357,-0.049080,120.678772,30.523563,联合路323号,891565
西门北村,7,11596,0.085985,120.544705,31.871761,龙须弄，近梁丰路,889530
金都花苑,2,7500,0.016536,120.442986,31.944232,晨丰公路，近勤政路,889370
绿洲华庭,4,11510,0.056157,120.639312,30.908196,舜湖西路，近宝龙桥路,887313
海悦府,295,12579,0.066459,120.462865,30.444866,修川路,892096
万科金色里程,3,37584,-0.009330,120.550195,31.372493,藕巷街6号,885363
紫金花园,2,11111,0.215646,120.560297,30.643815,茅盾东路5-38号,993046
星岛仁恒,1,28000,,120.684820,31.294213,通达路1818号,888735
望河花园,1,9247,0.012150,120.693734,30.524965,联塘路,891535
仁文公寓,1,22857,,120.659825,31.309064,东环路930号,888409
红旗新村,6,27849,0.007656,120.613326,31.306832,三香路40号,885938
阳光家园,1,8715,-0.033995,120.421369,30.871575,人瑞路889号,939314
御景豪庭,56,9287,0.090629,120.539980,31.016826,商业街315号,887133
旭辉郎香郡,8,10696,0.076613,120.694385,30.757483,育英路，近秀园路,926311
太湖花园,3,16771,0.380451,120.108034,30.901814,太湖路699号,939142
融创太湖印,22,8510,-0.002987,120.119784,30.949183,震泽路,994850
蓝湖湾,16,12936,-0.035605,120.537879,31.855617,暨阳湖大道,889409
德鸿练溪上郡,60,6839,0.022101,120.420436,30.720260,迎宾路289号,939222
旺角维多利亚花园,1,12400,,119.911700,31.025707,花菇山路,939560
西山一品商务中心,2,7962,-0.004650,120.691835,30.534672,工人路218号,892152
白领公寓,2,18031,0.003406,120.554828,31.284946,枫瑞路178号,886556
涵月楼花园,3,24951,0.296830,120.409367,31.092111,雨花路,888094
姑苏金茂府,3,42647,-0.155929,120.595284,31.313455,金门路,885501
香榭假日山庄,1,24615,0.036377,120.524727,31.279587,金山路,887889
东茂商业广场,90,10844,-0.031127,120.647267,30.909754,舜湖西路，近西环路,887365
金星花苑一区,1,23622,,120.561958,31.435225,中市路,889050
钱江君庭(北区),5,12780,-0.014953,120.567984,30.408870,中新路79号,914291
时代摩尔公寓,1,7999,0.028584,119.985263,30.553383,北湖东街748号,939415
当代万国府ΜΟΜΛ,3,32064,-0.180117,120.625190,31.339094,苏站路,915259
紫竹园,2,12535,0.164924,120.572151,32.385457,健康南路45号,918436
1号公馆,66,8121,0.007581,120.589161,30.632833,圆明路403号,992977
碧桂园,173,12425,-0.040755,120.468703,31.379205,华通路299号,886669
苏苑二村,1,14814,-0.234142,120.648014,31.279700,吴中东路66号,887582
中南世纪城,2,14382,0.009263,120.646623,31.135135,中山南路，近长板路,887080
利铭花园,64,7227,-0.044082,120.268921,30.725610,莫墙线,995195
星湖湾,1,12531,-0.123221,120.596915,30.638033,环园路176号,993036
仓街28号小区,2,14000,-0.005117,120.644244,31.317454,仓街28号,885868
碧桂园翡翠湾,17,9536,0.034024,120.081540,30.844649,田园路，近二环西路,1030268
恒达星湖湾,9,11000,-0.064069,120.668504,31.157607,运东大道,887010
东湖新村,4,24899,0.363883,120.635108,31.232106,盛城路,887451
首开幸福广场,1,11111,,120.628834,31.227646,邵昂路，近兴昂路,1002469
中良新塍花园,14,6314,-0.304138,120.616915,30.795233,兴镇路,780835
攀华国际广场,3,8038,-0.084777,120.576089,31.844886,东南大道,889454
如皋碧桂园,34,5948,-0.052572,120.569095,32.414074,海阳北路,918381
汇金新城,1,13147,-0.110386,120.584974,31.875249,长泾路,889349
绿洲华庭(别墅),1,28581,0.028956,120.640103,30.907438,舜湖西路,887359
绿都锦苑,1,8624,0.019359,120.549814,30.627916,校场西路288号,892486
万汇广场,41,8083,-0.011096,120.083165,30.869895,红旗路1188号,939160
汇丰新村,40,6358,0.195478,120.546360,30.626085,校场西路,892465
西塘小筑,40,26507,0.030010,120.630167,31.282214,西塘北巷12号,887630
江锦云庐,6,7347,-0.000829,119.900943,30.998919,紫金路,1006348
百合花园,23,9178,0.021037,120.563107,30.645698,中山东路,892429
吉祥一区,2,11200,0.317647,119.974532,30.542174,吉祥街,939378
新南浔孔雀城,626,11231,-0.011438,120.425475,30.843790,联谊路,995198
大运城,2,14194,0.337716,120.541454,31.262816,中山东路88号,887970
何山花园,1,16454,-0.003271,120.568849,31.307137,邓尉路288号,420304
人民新村,2,14955,0.035385,120.110047,30.880024,人民路432号,939118
苏州城市生活广场,1,10289,-0.215832,120.614273,31.348970,平泷路，近花莲路,885448
恒润新新家园,2,18807,0.071350,120.577805,31.323525,新庄西路,885459
高尔夫花园(别墅),1,64359,0.063793,120.696699,31.300098,高和路,888750
立新漾滨春天,1,11238,-0.024225,120.652205,30.911962,中心大道2699号,887307
南门新村,2,14515,-0.168048,120.632773,31.298202,竹辉路，近人民路,886207
幸福新村,4,9762,0.058888,120.573222,30.633008,幸福路，近振福路,993037
大自然城市花园,9,10112,-0.005801,119.925174,31.011068,解放东路129号,939461
赞成学士府,7,9575,0.010469,120.133449,30.882939,二环东路,939201
民乐小区,4,21754,-0.053572,120.002881,30.545069,武源街,939399
大新新村,1,14926,-0.346469,120.632294,31.321166,大新巷,885701
光福锦泽苑,1,13572,-0.055479,120.398108,31.305591,塔山路6号,887983
融创81栋长岛,2,15288,-0.038303,120.562909,31.423537,春秋路5号,889062
月浜一村,1,12897,0.014433,120.640896,31.276071,月浜街,887673
君御豪庭,1,8845,-0.195470,120.575346,32.383957,福寿路303号,918358
绿地中心泊珑湾,1,14861,0.073350,120.606899,31.136967,东太湖大道9999号,886855
豪天花苑,225,6481,0.022940,120.591509,32.110665,长江东路,918311
万丽广场,1159,11334,-0.013560,120.690858,30.764750,秀园路698号,991005
宝马花园,30,7201,0.161508,120.442023,30.527477,工农路999号,892543
宏坝B区,8,8029,0.397563,120.585543,32.394269,宁海东路,918319
伟业银座,5,9010,0.036404,120.668298,31.167906,云梨路,887032
湖畔御园,18,9024,-0.010841,120.643820,31.774193,西凤路,801523
华美花园,1,16584,0.253537,120.519204,31.370016,文昌路277号,886678
德尔金色摩纺,6,12878,0.098337,120.647708,30.903486,市场路1号,887353
青成名苑,17,8542,0.018292,120.393387,30.584109,青石路16号,1034807
金色华府,11,9508,-0.008819,119.925769,31.026080,长城路，近中央大道,1012330
康桥丽都(别墅),1,43065,0.377510,120.634586,31.375154,嘉元路663号,888925
伊顿公馆,47,9750,-0.009573,120.428605,31.956734,中圩路，近中港南路,943754
新都汇,1,10800,0.045600,119.933771,31.016721,县前东街,939575
信达香格里,5,10466,-0.004764,120.692695,30.761446,秀园路398号,890276
湖畔佳苑,65,40000,0.074143,120.590856,31.262451,学府路189号,886652
旭辉朗沁花园,9,32867,0.030834,120.524928,31.351166,星丰路，近星宇路,886714
恬园,4,11954,-0.002170,120.312883,31.130880,金庭路170号,888120
御湖天誉,13,10443,-0.004827,120.125044,30.947209,安居路66号,939195
明华月亮湾花园,3,11487,-0.226192,120.433033,30.863374,嘉业南路318号,939274
濮院佳源中心广场,2,9661,-0.106171,120.610157,30.681838,凯旋路,892542
合景峰汇六期,2,16817,-0.104849,120.607138,31.371959,文灵路，近沈思港路,888952
锦瑞苑,5,6747,-0.237277,120.445176,30.885081,便民路449号,939255
东湖金悦(别墅),97,9176,-0.035357,119.990993,30.990111,滨江大道,946358
水岸华庭,1,12683,0.024475,120.535895,30.635933,和远路，近和悦路,993027
人民南路小区,1,15560,-0.029107,120.634883,31.290936,人民南路,886244
宏和珈都,106,5081,0.051386,120.267702,32.670016,文化路，近白古线,1020805
绿地家园,4,10123,-0.159941,120.676050,30.688721,绿园路,890239
西小区,3,8500,-0.192936,120.686699,31.169109,云梨路,887018
金海大厦,2,10000,-0.133449,120.587120,30.626387,校场东路1572号,993007
梅花新村,6,32172,0.111159,120.637143,31.344447,官渎路,885411
中央花园,2,9575,0.125838,120.629583,30.673005,兴旺路19号,926331
唐韵花苑,130,9779,-0.032560,120.623420,30.795529,兴镇路，近虹桥路,991003
狮山当代MOMA,22,18303,-0.096498,120.538871,31.283342,竹园路，金枫路,886640
锦溪江南美墅(别墅),1,9739,0.201814,120.024239,30.671625,建设路1号,939058
高桥阳光城,12,11664,0.094534,120.574273,30.547356,乌镇大道，近高铁大道,998685
佳和玫瑰园,2,6493,0.230586,120.282879,30.834109,潘塘路,939239
海上湾(别墅),5,29686,-0.149682,120.163453,30.873685,蜀山路1788号,938997
丽景苑,8,37159,-0.209741,120.638735,31.314705,干将东路636号,885861
香山花园,1,12500,0.131631,120.412088,31.231698,校场路,888014
金润玺景苑,3,10273,-0.063366,120.637360,32.403794,中山东路，近如泰运河大桥,1030932
桃园新村,5,9134,-0.038627,120.606102,32.305125,园景路,918402
新城吾悦广场,30,20712,0.212889,120.595896,30.634163,振兴东路439号,993033
中南新村,3,8792,0.140145,120.438877,31.955253,中南路,889633
绿地太湖城,4,14021,0.077295,120.605416,31.132782,东太湖大道8899号,886853
曙光苑,1,21976,-0.084923,120.576283,31.307966,滨河路,886527
中兴花园,3,14322,0.399355,119.977802,30.549196,中兴北路126号,939448
东郊花园,6,13489,0.304298,120.646509,32.406481,贾公路1号-60号,918287
华庭现代城,2,8750,,120.698095,30.516210,海昌路,890671
银杏苑,4,32526,0.385241,120.591122,31.313241,金门路919号,885605
太湖明珠南泊湾,38,10111,0.141522,120.411374,30.962085,环湖路,887198
五峰山枫林山居(别墅),2,15151,0.025101,119.585216,30.602462,306省道,989734
嘉园,2,86250,0.066822,120.643532,31.302637,南石皮弄7号,886158
招商小石城香樟园,1,13523,-0.323572,120.620820,31.222845,梧桐街，近吴港南路,887643
龙湖苑,4,4613,-0.004072,120.188990,30.717432,东栅路,939268
新湖小区,1,5344,-0.004072,119.916880,31.047480,忻湖路,939577
星光耀花园,19,11675,-0.004196,120.552755,31.361465,虎池路1588号,885364
秀洲小区,5,8005,0.038212,120.695683,30.755869,秀园路128号,890289
花样年太湖天城,22,9704,0.011986,120.423700,31.222382,环太湖大道128号,505193
海上湾,5,11042,-0.004072,120.163551,30.873112,蜀山路1788号,938998
宏博金海岸,3,5416,0.059695,120.505874,32.553297,迎宾路116号,917894
海宁江南世家,10,9174,-0.018355,120.699938,30.499938,海昌大道,892083
玫瑰半岛花园,1,9954,-0.004550,120.415563,30.862489,年丰西路99号,939271
春江花苑,8,10394,0.098763,120.630413,30.496143,庆东路，近硖斜路,925378
康桥名园,8,9278,-0.028755,120.453944,30.448584,开元路,890957
文苑小区,6,6532,-0.000658,120.121842,30.869363,外环东路,939167
山湖如归苑,1,10333,-0.032219,120.694496,31.162969,绣湖东路588号,887026
金科廊桥水岸,4,13736,0.193501,120.643321,31.127697,思贤路，近鲈乡南路,802377
国际公寓,8,8467,0.041323,120.630826,30.908955,西二环路,887292
智富城MIMON,20,6961,-0.004661,120.695384,30.765529,秀清路626号,890325
紫薇花园,3,10168,-0.051958,120.680328,30.521911,文宗路8号,892014
翰林世家,1,10854,-0.147368,120.103623,30.902323,太湖路899号,939000
南环东路3号小区,4,27272,-0.003289,120.655683,31.290033,南环东路3号,886378
锦绣家园,4,5597,-0.188363,120.584717,32.109432,纬三路18号,918352
新城金郡1期,14,28417,-0.106140,120.630045,31.225695,邵昂路66号,887645
江风海韵,32,6069,0.002742,120.577505,32.107194,长江东路,918341
龙栖湾国际花园,1,6888,0.319188,120.578090,32.284829,育贤路，近光明路,926271
向阳新村,3,9842,-0.000498,120.553259,31.871107,梁丰路，近河东路,889546
佳兆业君汇上品花园,4,21245,0.398631,120.590238,31.388877,兴业路,888969
锦绣江南,18,13986,0.050676,120.608934,31.075803,同心西路88号,887128
阳光水榭花园(50-94幢),1,14202,-0.015118,120.633309,31.255132,东吴南路，近石湖西路,887657
时代广厦,15,9422,0.045611,120.693782,30.528707,海昌路192号,891426
开元名都,28,11546,-0.071161,120.676821,30.498522,江南大道2388号,892110
众盛阳光嘉园,1,10833,0.004358,120.672516,31.186717,运东大道，近江陵东路,887036
招商依云华苑,4,13402,-0.098860,120.603646,31.395123,广济北路，近安元路,889003
书香名苑,6,10095,0.101484,120.686535,31.542661,新阳大道65号,885109
西门南村,2,13139,-0.071963,120.544422,31.870541,长安中路,889531
海安7星首府,5,6395,0.048762,120.500605,32.540343,黄海大道东19号,926348
中梁秀湖壹号院,21,9871,-0.048834,120.685475,30.780036,秀园路,890333
中央公园城(二期),2,9192,-0.022453,120.680716,30.899405,杨扇路，近目澜路 ,887351
鑫苑鑫城,1,12533,0.029648,120.642035,31.427915,南天成路,889143
碧桂园翡翠湾,10,13122,0.051077,120.558458,31.854055,暨阳湖大道，近河西南路,889642
禧悦,200,23380,0.000935,120.570238,31.297512,滨河路999号,886612
康桥名城,1,9264,-0.017978,120.680393,30.517897,文宗南路18号,890941
招商雍华府,10,36377,-0.021889,120.535459,31.276886,金枫南路8号,887920
格林悦城花园,1,10309,-0.045937,120.683525,31.189091,淞兴路2号,988071
丽景佳苑,1,7439,0.027912,120.457880,32.540237,永安北路,917915
溪山美墅,2,9561,-0.112100,119.986081,30.531109,云岫南路459号,939428
梦享城,486,11151,0.039869,120.083228,30.870870,红旗路，近二环西路,1033222
世纪花苑,6,7422,-0.022082,120.557504,30.648721,庆丰北路183号,798204
绿城御园(别墅),2,25257,-0.004072,120.080533,30.905083,青铜路1739号,939082
金色港湾,14,11361,-0.049808,120.455406,30.454675,修川路,798198
恒熙湖庭,3,25391,0.124334,120.685565,31.288445,通达路1988号,888703
南方大厦,66,7621,-0.050336,120.568514,30.634042,永兴路2号,993022
中南世纪城(别墅),2,13600,,120.648475,31.134923,中山南路,887086
万城理想公馆,32,10408,-0.021069,120.667362,30.531750,硖仲路，近双联路,917054
金茂花苑,1,8394,-0.093244,120.367150,30.639654,河山大街132-138号,926330
姑苏院子,1,35000,-0.045020,120.592866,31.322892,西园路66号,885620
豪杰翡翠湾,5,10168,0.031352,120.646887,30.790762,嘉铜公路,795480
锦昌苑,1,33088,0.174625,120.570398,31.300361,狮山路100号,886580
通和家园,1,14457,0.220309,120.124067,30.879191,龙湾路196号,946357
禾旭华府,1,5127,0.048722,120.173321,30.788846,袁家汇路,939233
中栋名都,1,16156,-0.137110,120.696121,30.529087,水月亭西路,891945
瑞丰大厦,2,9880,0.249937,120.569165,30.636486,润丰步行街东68号,993026
佳源都市,90,9781,0.009380,120.080131,30.850406,佳园路,939033
合景领峰,5,16104,0.055881,120.534404,31.279879,金枫路268号,887755
金科世界城,14,7191,-0.280825,120.553923,32.381147,宁海西路168号,926280
锦安小区,1,11330,-0.058146,120.635733,31.170290,锦业路725号,886909
祥符寺巷1号院,1,16031,-0.133419,120.630483,31.322943,祥符寺巷1号,885794
富源花园,2,7249,0.059397,120.542708,30.848782,广场路,887369
金水苑,7,8535,0.028851,120.594241,32.105796,新城经二路,918349
悦湖美郡,2,9910,-0.022527,120.541850,30.925854,镇南路958号,800130
欧洲花园,2,25985,0.397014,120.672112,31.297077,通园路668号,888396
天顺花苑,2,5800,,120.577823,32.107881,长江路，近通江路,926268
东方时代广场,1,10181,,120.676351,31.472838,珍珠湖路，澄阳路,924925
新城市花园,4,10666,0.203294,120.674372,30.540978,洛隆路,891638
旭辉朗香郡,4,13035,-0.078267,120.527604,31.351563,星宇路,886716
佳兆业悦峰,1,23031,0.386157,120.565539,31.285276,塔园路99号,886572
招商雍和苑,8,29370,0.388078,120.427992,31.345302,科发路,886763
祥云花园,3,8460,-0.019801,119.708568,30.627744,玉馨路,939704
汇金广场,2,6205,-0.140233,120.592943,32.111819,长江东路,918328
凤凰二村,6,7255,-0.053879,120.099150,30.883850,青铜路,938978
苏州义乌国际商贸城,1,18518,-0.132768,120.619620,31.339117,苏站路,885393
港澳桂苑,1,14468,-0.002509,120.638501,31.250467,天灵路111号,887467
虹桥新村,1,4471,-0.014838,120.645903,31.821350,虹桥路，近南京路,889315
金色港湾,30,8561,0.002453,119.906528,31.014295,道园路,939512
森松花园,1,5892,0.106951,120.589633,32.096776,华江大道,918387
滨江丽景,4,10302,0.011447,120.390475,30.866905,适园西路999号,939220
新南浔孔雀城(别墅),57,9303,-0.273864,120.425926,30.844729,联谊路,995199
新亚旭景园,1,9398,0.036392,120.683304,30.913962,红安路58号,887340
旭辉朗香郡,2,10019,-0.023026,120.694416,30.757351,秀园路,791966
得力御龙湾,34,8113,0.025480,119.905726,31.042248,画溪大道2689号,939463
融创太湖印(别墅),16,9020,0.001499,120.120611,30.947999,震泽路,994849
优优学府,47,11995,-0.037039,120.174538,30.854018,草荡漾路，近小山路,1033219
名城花苑,16,9420,,120.454213,30.536459,青阳东路,797225
景瑞望府,1,14243,0.159193,119.899424,31.030097,龙山大道888号,939522
幸福家园,2,7501,-0.037222,120.600489,32.178692,迎宾路,918574
西城时代,2,9055,0.009678,119.877205,31.012848,滨海路,939564
观景府,17,9091,-0.006193,120.435301,30.853436,嘉风路,939232
金庭花园北区,3,7203,,120.318469,31.139365,东园公路115号,888109
如意新村,3,5714,0.067486,120.669123,30.915137,如意路,887320
合景峰汇一期,1,17406,-0.071648,120.611207,31.370158,人民路,888958
永兴小区,4,40936,-0.009861,120.601224,30.658630,恒兴路,892525
镇南新村,6,8948,0.186549,120.514514,30.917500,镇南路1270号,1037886
东湖金悦,21,10649,0.007031,120.592460,30.634900,振兴东路329号,992988
瑞富广场公寓,2,8693,-0.172033,120.631571,31.298082,人民路438号,886245
合悦江南,16,11780,-0.067528,120.572686,30.545333,悦容路,892450
东大街如意佳园,26,7921,0.025178,120.472706,32.558567,凤山北路，近河滨东路,917957
皇家领誉,1,11891,-0.002684,120.633694,30.911346,舜湖西路1300号,887298
学府花苑,2,18863,-0.343961,120.586850,31.265245,学府路,886660
南山雅居,89,10821,0.000481,119.876074,31.099139,长水线,1025093
滨江龙湖湾,9,7582,0.226816,120.560987,31.973520,府前路,889216
曙光新村,2,20047,0.101406,120.634338,31.320975,临顿路,885772
苏州湾景苑(西区),1,14606,-0.144698,120.601030,31.148984,高新路，近水秀街,886857
朗诗绿色街区(别墅),1,45375,-0.002828,120.536736,31.257572,金枫路,887949
新城吾悦广场,8,15000,0.023192,120.549377,31.843691,金港大道，近南二环路,889655
鑫苑国际城市花园南区(虎丘区),5,17931,-0.010649,120.568911,31.322939,华山路8号,886535
富都花园,1,8857,0.082692,120.421684,31.962644,天台北路15号,889268
丽景佳苑,3,7748,-0.013371,120.450692,30.450845,景华路220号,952804
姑苏区万达广场,1,15138,-0.033656,120.621754,31.348985,人民路3188号,885436
上海城新天地家园A区,1,5166,,120.462175,30.915060,贯南一路,887275
书院二村,1,8850,0.347032,120.597882,31.927809,书院路，近合兴路,889489
金湾别墅苑,1,7000,,120.454609,31.924889,塍西路69号,889383
海宁洛塘公馆,140,11463,0.056766,120.629617,30.495679,硖斜路，近白狞港,1032298
星城铭座,8,10000,,120.493428,31.245856,孙武路602号,887900
名骏豪庭,8,7240,-0.186683,120.625111,30.798132,虹桥路,762087
海光小区,1,7067,,120.480872,32.544691,海光路,917886
绿都姑苏雅集,18,39289,-0.006962,120.632247,31.295494,人民路，近东二路,1024528
中奥美泉宫,14,18008,0.003209,120.076589,30.920657,弁山大道1818号,939207
金都花苑二期,1,8089,0.203899,120.448675,31.944117,中兴南路，近晨丰公路,889703
和睦苑,2,6554,-0.203893,119.975237,30.538093,和睦巷,939370
东花桥巷,3,15700,-0.219347,120.636207,31.323586,临顿路,885847
竹镜茶语,4,10196,,119.875503,31.098995,长达线,939610
天诚公寓,1,9599,-0.205709,120.697352,30.522235,海昌南路,891511
曲新花苑,1,4705,,120.337193,32.500607,曲新路13号,926350
三元新村,2,28649,-0.048910,120.583281,31.311355,金门路,885572
绿地中心海珀云玺,1,18081,-0.097392,120.594545,31.136958,东太湖大道,886850
世纪新城,1,12464,-0.055479,120.546318,31.887964,恒河路，近大包巷弄,889484
花苑二村,3,28641,-0.027981,120.520949,31.267870,花苑西路,887762
翡翠家园东区,1,7449,0.155990,120.678154,31.459881,翡翠路,889091
太湖纯水岸,3,13333,-0.031806,120.431176,31.229758,伍相路1号,887998
莱茵河畔,29,8333,-0.196495,119.920406,31.044107,锦绣路，近合溪新港路,1006347
绿城诚园,2,9672,0.090417,119.729526,30.627191,安吉大道,939679
金域蓝湾,2,14705,0.238837,120.526538,31.297522,金山路，近湘江路,887782
金域世家,50,11113,0.001658,120.664962,30.532158,硖仲路499号,1018750
鼎昌名邸,62,4617,-0.075626,120.416544,32.311134,人民路64号,926278
金海丽水湾,8,7530,0.058625,120.452041,32.556914,河滨西路88号,917905
天地源太湖香颐花园,2,15411,-0.139675,120.621754,31.193988,吴郡路，近君益街,888080
水岸家园,1,25833,-0.052522,120.612939,31.344893,总官堂路1160号,885424
恒都香缇溪岸,5,11971,0.130555,119.668150,30.602097,浒溪南路,939641
合景峰汇二期,3,18431,-0.190302,120.609995,31.370039,人民路,888949
钱江君庭(南区),5,36623,0.133081,120.568361,30.406853,翁金线，近三里港路,914290
保利居上,1,18484,-0.196335,120.690246,31.251628,郭新东路78号,887381
奥体新城,1,6674,0.001200,120.607834,32.379582,惠政路,918271
建成丽园,9,5434,0.028972,120.578104,32.281848,如港公路,1010377
南洋公馆,1,5623,-0.231936,120.291574,30.614928,南洋路,939343
观音弄小区,1,35119,0.398276,120.639771,31.309263,十梓街,886137
紫金南苑,3,8060,0.230722,119.905667,30.999503,紫金路,939612
阳光花城,13,20570,0.022841,120.620127,30.679631,凯旋路1398号,892521
一品苑,58,7343,-0.057833,120.562969,31.873234,东环路，近暨阳中路,889581
万华金御湾,21,7317,-0.012417,119.941685,31.026258,中央大道,939558
汇高百悦府,6,10000,,120.697337,30.497450,江南大道，近海昌南路,952801
莱茵河畔(别墅),51,10342,-0.004495,119.920190,31.046924,锦绣路，近合溪新港路,1006346
滨湖苑,1,3625,0.035714,120.191256,30.722448,里桥路,939219
融创石湖桃花源,3,20642,0.046810,120.608872,31.261439,友新高架，近新郭港,886663
春江花苑,59,3763,-0.009737,120.584407,32.111654,纬八路,918279
香墅湾,25,12512,0.331101,120.418683,30.862450,年丰路379号,939302
汇景名苑,2,9384,0.025798,120.640742,30.909460,舜湖西路,887299
秀湖香颂湾(商住楼),19,8334,-0.070383,120.697037,30.788941,秀洲大道1369号,1022023
海德公寓,6,5159,0.008405,120.563980,30.627280,梧丰路511号,992994
花苑新村,45,11786,0.003670,120.521679,31.265741,花苑街,887764
秀水瑞苑,1,9812,-0.038357,120.624995,30.801293,蓬莱路,794262
合景峰汇三期,1,18979,-0.094461,120.611531,31.371300,聚贤路,888954
嘉业阳光城,15,11486,0.113498,120.105115,30.888772,凤凰路288号,939037
雅阁花园,5,40751,0.029622,120.567112,31.297068,狮山路185号,886625
奥林运河湾,1,10291,-0.169848,120.671396,31.188575,淞兴路,887005
信业ICC,4,16100,0.026503,120.106134,30.870853,红旗路，近南街,990888
长广金水苑,16,6135,0.265302,119.713780,31.080395,s301,939601
金都花苑一期,6,4054,,120.438598,31.945704,晨丰公路，近勤政路,889704
龙庭花园,10,8836,0.393079,120.596130,30.991766,双龙路,887243
太湖华府,1,10638,-0.032205,120.325249,31.140629,大桥路,888116
绿城安吉桃花源,3,12575,-0.191936,119.638616,30.582754,梅灵线,939678
锦溪江南美墅,1,7572,-0.051322,120.023943,30.671711,建设路1号,939059
龙庭国际,1,6369,-0.113733,120.570904,30.648545,中山路298号,892482
新塍佳源中心广场,2,9252,0.075919,120.622725,30.800661,虹桥路581号,1012474
苏园,1,11614,-0.150179,120.554750,31.834789,新泾中路,889499
旭辉悦庭,1,12566,-0.193641,120.508454,31.376832,大家浜路8号,886719
苏园(别墅),1,12200,-0.189931,120.554669,31.834218,新泾中路,889676
弘博名人世家,1,5380,-0.021709,120.456507,32.581354,城丹凤路216号,926345
吴江上海城,1,14174,0.005962,120.641152,31.182029,仲英大道1088号,886824
承安新都会,58,11249,0.037754,120.091853,30.850348,二环南路，近夹山路口,1030279
世贸中心,1,8888,0.059789,120.134560,30.867175,苕溪东路,939131
太湖缘,1,30973,,120.464073,31.133017,腾飞路399号,560931
铂金公馆,14,14125,-0.021156,119.667402,30.610807,独松观路468号,989736
美都铭座,12,9139,-0.027456,119.924405,31.003582,明珠路61号,939542
中南世纪城南区,1,12374,-0.030724,120.647862,31.133761,中山南路,887082
万科新都会,8,17085,0.000723,120.415426,31.350758,武夷山路,886756
运河苑,233,10211,-0.044526,120.452832,30.457092,青年路96号,952811
锦绣家园,18,12357,0.156006,120.646561,30.985421,学才路29号,887217
西塘河小区,1,10000,-0.264706,120.649992,31.174669,西塘河路97号,886975
盛泽国贸中心,19,9237,0.007410,120.637848,30.903818,市场西路599号,1022391
月亮湾(南区),24,13190,0.007351,120.645769,31.272182,迎春路，近文曲路 ,887709
金盛花苑小区,3,9692,-0.030735,120.497495,32.539268,黄海大道,917906
西门新村,2,19080,0.390678,120.541308,31.872307,梁丰路688号,889532
宝祥苑,1,17942,0.277151,120.547991,31.370206,城北西路2555号,885350
明珠花园,18,7794,0.045052,119.924021,31.000952,海兴路,939544
万科新都会(别墅),1,18110,0.001427,120.414594,31.351222,武夷山路,886770
芙蓉新村,18,26099,0.018587,120.626604,31.402850,芙蓉街33号,888814
凤凰公寓,1,9583,0.001149,120.569908,30.633805,振兴东路，近人民路,992989
建新别墅,1,38918,-0.014734,120.638795,31.315643,建新巷,885852
锦绣苑,4,8510,0.032266,120.571067,32.395336,锦绣街,918353
苏锦一村(丹桂苑),2,31818,,120.615194,31.342552,平河路，近江坤路,885391
金茂国际,17,6586,0.219187,120.556051,32.388758,中山西路1号,918348
碧桂园天誉,2,10576,-0.116359,120.620769,30.906425,市场西路，近广州路,887281
绿地香颂别墅,20,30735,-0.177301,120.605876,31.134289,学院路6699号,886854
水绘曦园,1,6324,,120.572901,32.401277,海阳路,918398
达欣祥河湾,1,5337,-0.134738,120.395959,32.517447,宁海线，近烟沪线,938362
苏州吴中万达广场,22,11967,-0.018362,120.614096,31.259948,友新路，近石湖西路,887689
赞成名仕府,96,8990,-0.071548,120.105725,30.922756,安吉路,939200
凤凰花苑,3,6255,0.365201,120.635371,31.770144,凤恬路，近凤北路,889260
东渡海派青城(别墅),2,31371,0.030236,120.691920,31.435863,聚金路,889149
红星花苑,116,4539,0.014209,120.597151,32.119829,经五路,918317
御花园,2,22401,0.080196,120.557698,31.293008,长江路318号,886632
上河原墅,6,18154,-0.331955,120.645626,31.255180,石湖东路,887558
中天锦绣诚品,45,11386,0.004056,120.685595,30.545193,隆兴路89号,1026580
桐庆小区,1,5440,0.115375,120.560869,30.619155,人民路,892512
绿色家园,2,21063,0.024565,120.084744,30.891305,山前路118号,939084
巴黎春天,44,9933,-0.005203,120.081127,30.867829,红旗路,938929
海宁百合新城(东区),2,10196,0.008521,120.694141,30.505745,文苑南路,890543
蓬莱雅苑,2,7977,0.092325,120.614471,30.801870,人民西路，近同仁路,890323
御江南(别墅),2,11494,0.005599,120.499082,30.739438,青镇路300号,993040
佳源优优秀湖,16,11107,-0.018461,120.686930,30.780103,东升西路，近秀园路,926329
镜湖花园,40,9650,0.095409,120.678194,30.920933,如意路418号,887304
曙光佳苑,3,11733,0.393380,120.476172,32.551818,曙光东路,917927
碧桂园凤凰府,1,8500,,119.722508,30.626597,安吉大道,1037312
山湖花园弘雅苑,3,11843,-0.001799,120.693091,31.154010,庞东路，近湖心东路,887020
拙政别墅,7,52223,-0.149333,120.637162,31.332225,百家巷99号,607022
新湖明珠城聆湖苑,6,16477,,120.647899,31.191294,柳胥路,886813
名城花园,1,10773,-0.284466,120.644066,31.147480,高新路1216号,886937
锦绣花园,1,6452,-0.317372,120.696009,30.519301,南苑路431,890868
爱法山水国际,17,6793,0.035376,120.460022,32.520510,黄海大道西1号,925932
新奇世界上影安吉(别墅),1,10533,0.016953,119.621288,30.694038,详真路,1037316
立新苏杭之星,2,10786,0.012105,120.630790,30.913796,西二环路，近秋泽路,887306
三星苑,2,33717,0.047656,120.660115,31.325390,现代大道270号,888412
城南印象生活广场(商住楼),7,23898,-0.004235,120.637222,31.249973,东吴南路98号,887690
太湖黄金水岸(别墅),3,14580,-0.006653,120.472146,31.227294,环太湖大道,888027
瑞景国际,1,13495,-0.014748,120.652944,31.129513,中山南路，近庞杨路,887071
巴黎都市(南区),11,8751,0.055439,120.583677,30.652028,逾桥东路,892428
太湖之春(别墅),1,23076,,120.468368,31.229573,孙武路,888029
公园一号,53,8104,-0.011610,120.391560,30.862361,人瑞西路1588号,939241
太湖上景花园,15,26666,,120.437455,31.228273,梅舍路3号,888118
朗诗国泰城,15,31290,0.013750,120.572146,31.873526,华昌路,889410
财富之星,2,7738,-0.134783,120.442264,30.468367,环镇北路311号,952788
盛大开元,5,10115,-0.076645,120.570114,30.624814,人民路,892503
太阳岛花苑,3,8817,-0.032353,120.542924,30.916300,双泽路600号,887266
金凤凰温泉逸墅,15,8173,-0.028207,120.638151,31.791465,金谷路1号,804644
秀湖香颂湾,100,7852,0.318486,120.698154,30.788423,秀洲大道,890280
东渡海派青城,14,28898,0.031344,120.691273,31.437637,聚金路,889131
融创苏州壹号院,2,22856,-0.031368,120.622243,31.191287,金碧街，近永旺路,888087
金桥花苑,1,7403,-0.037572,120.645773,31.856823,金桥路,889380
广厦公寓,1,26510,-0.206750,120.647382,31.262276,迎春南路,887472
东苑新村,1,6800,-0.027182,120.570516,30.632955,和平路,892444
文星新村,11,3091,-0.168661,120.465290,31.917626,文星南路,889526
长岛花园,1,50100,-0.011167,120.651412,31.302176,莫邪路347号,886403
涵园,7,57082,,120.298926,31.085687,石公路9号,888106
碧桂园时代城,5,8677,-0.047860,120.613870,30.904349,绸都大道，近市场路,1022393
苏州桃花源,2,56231,0.217521,120.694287,31.297106,高和路,888730
山湖秀峰苑,1,10344,-0.088634,120.698349,31.157849,山湖东路355号,887023
大树家园,8,9814,-0.066923,120.545109,30.652601,逾桥西路,892441
南园新村,5,31549,-0.267072,120.626688,31.297076,新市路,886220
西塘南巷8号院,1,20155,-0.294550,120.631651,31.279150,西塘南巷,887629
太湖纯水岸二期,2,8474,-0.000460,120.419584,31.232902,伍相路1号,887999
金城花园,11,10725,0.017232,120.529304,31.882523,暨阳西路68号,889368
隆溪玫瑰园,3,7794,0.041283,120.681253,30.540542,洛隆路252号,798200
紫云东郡,4,15756,0.073600,119.723317,30.630884,后寨路777号,939714
华都豪庭,1,10833,,120.366182,30.575355,中洲路65号,892456
景华园,1,10329,0.214177,120.450720,30.451851,景华路178-3号,890883
泗安凤凰城,2,6887,0.147833,119.665622,30.906569,三贞路,939554
缇香镜湖湾,5,13698,-0.135439,120.536846,31.841373,港城大道,805458
宜欣花园,9,4237,-0.244311,120.411181,32.312285,绘园路，近缘龙路,1030930
东方盛悦,1,10352,-0.120275,120.566465,30.663368,世纪大道，近环城北路,992987
崇福凤凰城,3,9232,0.146077,120.428205,30.533301,崇民大道，近崇永线,992985
公园一号(别墅),1,17474,0.146078,120.392117,30.861474,人瑞西路1588号,939240
金山浜花园A区,1,12820,0.044740,120.526908,31.293165,金山路，近渔洋街,887777
帝景豪园,1,11999,-0.042423,120.572115,31.858444,南苑东路，近华昌路,889241
花苑新村,21,7409,-0.106374,120.555450,32.389232,桃源路,918322
珠江新城,3,11756,0.006765,120.547097,31.260594,珠江南路1083号,908958
日月城三期中央世,1,9372,-0.182155,120.118787,30.888527,外环北路742号,939122
海宁碧桂园,18,9396,-0.027961,120.346568,30.430613,人民大道,892069
新都国际,1,9000,,120.578504,32.386412,福寿路,918412
中海御湖熙岸(别墅),7,57690,0.016501,120.690420,31.304078,金鸡湖大道,888475
嘉业阳光城,31,13550,0.007869,120.575867,31.327667,西环路,885460
解放新村,25,26194,-0.022113,120.614310,31.290757,解放东路,886015
金海国际花园,2,4800,-0.021709,120.477034,32.529730,中坝南路,917904
卡森花苑,3,11088,0.210893,120.684202,30.528416,梅园路228号,890908
恒基旭辉城,11,21669,-0.007675,120.522303,31.364691,鸿福路，近文昌路,886672
水景丽舍,2,21505,,120.651499,31.311460,莫邪路788号,886382
亲亲家园,5,9261,-0.142122,120.573150,30.626242,校场东路,892494
万科金域缇香,2,12511,0.053845,120.697690,30.790282,成秀路88号,890265
碧桂园滨湖城,19,11509,-0.203701,120.345077,30.431458,人民大道,925376
星光汇商城,1,17185,0.352144,120.682131,30.498272,江南大道,892166
巴黎春天,33,8969,-0.121720,120.610562,30.674969,永安路,798203
锦绣江南,1,15799,0.244416,120.626320,31.382023,春申湖中路637号,888846
朗诗绿洲(别墅),1,32842,0.094753,120.423396,31.351380,富春江路,886767
东风新村,2,4231,-0.246394,120.557435,32.396452,益寿路480号,918284
优优湘洲,21,9296,-0.053462,120.364676,30.582019,公园路128号,996025
正荣悦棠湾,62,9772,-0.004710,120.651922,30.893640,中心大道，近南环路,1022394
御墅园,2,6842,,120.571647,32.353347,益寿南路186号,918430
中天观庭,20,7240,0.028708,120.395605,31.954593,镇山路，近长江西路,889640
合景峰汇八期,3,16690,0.003907,120.617093,31.371640,人民路,888948
东城华府,9,7893,0.009967,119.989281,30.958728,广福路,939466
凤凰花园,1,11333,0.360032,120.518817,30.919523,镇南路,887252
旭辉百合宫馆,1,21532,0.031309,120.524136,31.350823,星丰路,886715
城中花园,18,41965,-0.056851,120.625075,31.311324,西美巷,886092
嘉海尚府,12,8134,0.026546,120.669695,30.532161,双学路7号,1026579
东湖金悦,142,8886,0.055040,119.991154,30.989926,滨江大道,946359
名仕花园,2,19915,-0.012731,120.599889,31.303703,三香路,885958
东湖家园,1,12404,0.162403,120.125463,30.857946,东湖路,938965
万科碧桂园,26,14666,0.032966,120.652027,31.226373,兴中路,886817
新华新村,1,6537,-0.025968,120.649494,31.973723,永新路，近锦花路,889560
华丽家族太湖汇景,8,16866,0.013131,120.445060,31.230049,梅舍路，近蒯祥路,887988
都市华庭,1,5700,-0.004601,120.566025,32.386636,大司马路,918293
巴黎春天,14,9718,-0.013145,120.694954,31.434105,元春路8号,889129
巨赢锦绣苑,1,6950,-0.007086,120.407077,30.869426,风顺路399号,939263
太湖之星,10,14797,0.004651,120.364620,31.199195,长沙路,888011
凤凰花苑,1,10200,-0.092253,120.485491,32.537074,宁海南路181号,917874
太湖小区,7,11960,0.005634,120.634897,31.157843,笠泽路871号,886962
锦盛花苑,1,6026,0.221731,120.692752,32.566616,勤政路，近S221,926344
湖滨华城平安苑,1,15788,-0.210595,120.637105,31.133350,长坂路，近苏州河路,887052
首创悦府,5,9566,0.087663,120.079442,30.907906,三环北路,939135
鸿翔洛溪嘉苑,13,11727,0.030459,120.617735,30.494619,706县道,890588
汎港润园,20,8636,-0.014245,120.080147,30.864770,二环西路355号,938972
恒润太湖壹号,1,17942,-0.017861,120.435330,31.225818,梅舍路1号,887985
万达华府,21,16998,-0.091702,120.611175,31.260957,友新路,887596
敏华聚珑阁,31,10305,0.002968,120.668874,31.154678,运东大道，近湖心西路,988075
绿城百合园,1,12948,-0.063503,119.909390,31.010923,县前西街189号,939540
绿岛雅苑,1,7142,-0.034082,120.555787,30.654190,庆丰北路,892485
河坊人家,1,7904,0.014711,120.549909,30.653024,逾桥中路,892453
江南润园,9,8863,0.077946,120.637618,30.798878,润园路168号,890220
阳光水岸,7,11896,0.034586,120.131710,30.866528,湖东路,939188
天河理想城,56,9585,0.057375,120.084654,30.847662,田园东路77号,939146
虹桥小区,6,20092,0.395998,120.594514,31.315162,金门路778号,885518
朗诗绿色街区,1,35974,-0.082109,120.536482,31.257577,金枫路，近中环西线,887798
钻石公馆,3,21707,0.081497,120.632229,30.672841,齐宏路288号,892536
万丽花园,1,18785,-0.023935,120.624297,31.298975,东大街177号,886292
景江花园,1,7531,-0.009996,120.558475,31.864949,东环路86号,889397
凤凰城,5,5994,-0.114194,120.409135,32.309431,绘园路489号,926274
望江水岸,1,7384,0.029219,120.569147,31.969899,滨江路，近港城大道,889521
红星国际生活广场,17,30412,0.078577,120.558226,31.267213,长江路，近长塔路,887760
绿城玉兰花园,6,9436,-0.330393,119.947039,31.014583,县前东街1088号,939541
旭辉御府,4,17843,-0.001773,120.553522,31.322685,长江路,791965
御景苑,9,8119,-0.144457,120.461676,30.440101,长河路128号,891841
光明中央公园,11,6690,-0.244910,120.427510,30.862387,万顺中路111号,1002499
尼盛滨江城(西区),1,16054,0.035768,120.564318,31.257303,长江南路，近七子路,887818
锦绣豪庭,2,9500,,120.452468,30.459439,崇长线，近迎宾路,952803
乾龙花园,1,7945,-0.117200,120.088686,30.546366,乾龙北路103号,939344
文卫新村,3,13970,-0.019339,120.647011,31.278208,吴中东路81号,887601
三洋阳光海岸,1,13979,0.331419,120.091931,30.860400,兴业路658号,939124
绿城花园,1,21333,,120.658065,31.320089,飘一路17号,888394
富力湖州壹号,19,9829,-0.035562,120.153125,30.858282,湖东路,994846
云川名都,1,10804,-0.157714,120.616798,30.496363,云川路,891856
鸿悦府邸,1,5384,-0.021802,120.541941,32.146568,石庄路88号,995411
碧水云天,7,12175,-0.002977,120.557221,30.653088,庆丰北路399号,892435
嘉宝花园一期(别墅),1,25416,-0.112074,120.647862,31.275341,迎春路174号,887704
聚宝华府,2,8798,-0.040298,120.623509,30.679230,凯旋路,993050
河畔花园,8,18200,0.015172,120.552097,30.643995,茅盾西路215号,892454
石榴园,6,9499,-0.050010,119.905898,31.030862,画溪大道,939537
润丰苑,1,33067,0.023651,120.614245,31.284439,南环西路1110号,886042
公园道1号,62,11350,-0.059048,120.699142,30.499960,江南大道，近海昌南路,892056
民和小区,1,10000,-0.043062,120.669710,30.514008,广顺路,891157
锦苑新村,1,3945,-0.013650,120.645662,31.972353,永新路,889396
乌镇悦景庄,3,11335,-0.153491,120.529072,30.740567,子夜东路1508号,993030
长安佳源中心广场,3,9477,-0.031149,120.447860,30.444181,长安路，近健康路,952812
卓锦兰香,5,12142,0.008053,120.668161,31.159751,运东大道399号,887038
南洋景苑,6,6467,-0.026227,120.620185,30.807291,兴育路288号,890247
锦绣家园,1,10389,,119.709934,30.633693,昌硕东路734号,939659
梧桐花园,12,44986,0.088397,120.648150,31.335193,东环路1858号,885890
溪上篁庭,1,7723,-0.007887,119.703721,30.651279,佛东路161号,989731
雅苑,1,10067,-0.082372,120.437662,30.814104,兴横路,939310
万科城,4,12226,-0.239766,120.516212,31.247161,姑苏西路139号,887864
乘航新村,2,5714,,120.586399,31.848904,镇中路，乘航西路,889232
盈都江悦城,8,9865,0.044700,120.405081,30.345972,春潮路,892180
祥生悦山湖,2,12272,,120.090446,30.921637,德清路，近同心路,990886
嘉业商住楼,7,11904,0.002864,120.431158,30.875647,嘉业路,939243
海兴小区,15,7942,0.290213,119.909188,31.000942,海兴路,939481
橡逸湾,2,11764,-0.018358,120.631120,30.910591,舜湖西路，近西二环路,887333
汾湖小区,1,15133,0.286446,120.553713,31.266416,枫瑞路55号,887743
新城十里锦绣,195,8660,0.016031,120.565926,30.889144,太平路,1037883
锦绣花苑,1,7266,0.117954,119.925371,31.001603,海兴路63号,939519
保利山庄,1,8929,-0.079512,119.736734,31.128418,s301,939452
西湖苑,1,19611,0.127148,120.529211,31.858281,西湖苑路,889529
太湖城仕公寓,138,13979,-0.008993,120.398422,31.224379,环湖大道68号,887997
时代广场,2,11200,0.120000,119.914375,31.004144,长海路354号,939552
新世界庄园,5,10718,-0.004072,119.914817,31.006574,河滨路127号,939579
星月翡翠半岛,3,10333,0.081310,120.629745,30.900346,西二环路,887343
文景苑,4,18754,0.384333,120.697023,30.527824,人民路143号,891550
华侨花苑,1,26664,0.269719,120.633985,31.288223,人民东路188号,886144
翠湖苑,1,7075,,120.586082,32.401343,中山东路，近万寿路,926282
繁花郡,1,11764,0.224269,119.673614,30.653175,通凌路，近清政路,989730
绿地太湖城(别墅),1,21034,,120.602434,31.132481,东太湖大道8899号,886860
青阳小区,1,10806,0.080630,120.097052,30.887834,青阳一路,939108
东吴绿郡花园一期,3,54897,,120.644397,31.253430,枫津路30号,887513
名都花苑,1,9756,,120.561115,31.859676,新市河路75号,889435
菊海雅苑,9,8200,-0.245630,120.462253,30.619259,环城南路1088号,892541
绿城龙王溪小镇,27,19236,0.140273,119.603879,30.602415,苕源路1号,939680
金科观天下花苑,1,15545,0.094424,120.656775,31.420771,南天成路,889141
太湖黄金水岸,12,12085,-0.069375,120.457616,31.228719,环太湖大道,658770
蓉塘花苑,1,3974,-0.116700,120.601513,32.535182,惠民北路9号,1020787
桃菀新村,1,6700,0.116667,120.669686,30.901023,绿阳路,887330
金色水岸,1,9852,-0.259511,120.102057,30.891435,二环北路,939053
星城时代商业广场,2,10453,-0.093121,120.650619,30.910812,舜湖西路,887342
慕容城,5,10244,-0.017196,120.674460,30.542790,富兴路23号,798199
凤凰新城,10,4310,-0.008328,120.364974,32.649469,墩头路,926351
方海大楼,21,5111,-0.002323,120.694400,30.530382,水月亭西路142号,890537
朗诗人民路8号,1,56122,,120.633985,31.287134,人民路，近南环路,886175
塞纳阳光,1,8494,0.210380,120.639095,30.871554,南三环路,887321
桂花公寓,1,19844,-0.084010,120.643602,31.297439,南园北路6号,886138
保利雅苑,2,21471,-0.118457,120.572718,31.294940,玉山路38号,886559
锦绣江南(别墅),3,8718,0.143644,120.607770,31.074976,同心西路88号,887137
温馨家园,2,8063,0.152186,120.437675,30.533398,北沙滩5号,892513
康来登花园,6,14957,0.053511,120.503318,30.736927,青镇路,996024
长江城市花园,11,8566,-0.114299,120.562025,31.865005,沙洲东路20号,889613
缔艺家园,2,8116,-0.088626,120.671071,30.520725,联合路525号,925380
悠隐南山,1,25854,-0.138178,119.767439,30.630332,禹溪路680号,1040367
红星国际生活广场(商住楼),5,15539,0.208363,120.560102,31.266363,长江路，近苏福路,887976
大成郡,16,13759,-0.249157,120.535364,31.263886,金枫路980号,887733
锦悦苑,1,36836,-0.024327,120.608503,31.220791,南溪江路255号,887789
东苑新村,1,9340,-0.066000,119.980064,30.541838,曲园南路,939364
锦都名邸,23,6840,-0.208505,120.642550,31.965967,永新路,889390
直港新村,2,7444,0.063471,120.401720,30.861171,人瑞路，近南浔大道,995197
中山名府,1,9035,-0.062350,120.542293,30.644914,中山西路861号,892532
佳兆业广场,1,25874,-0.143273,120.565646,31.285132,塔园路,886571
合景领峰(商住楼),1,18380,-0.005250,120.533555,31.277776,金枫路268号,887965
华丽家族太上湖上景花园一区,55,22644,0.098399,120.444845,31.226874,环太湖大道138号,887989
普禧观澜,62,17565,-0.011088,120.565101,31.427270,春秋路，近春华路,889060
苏园,2,15381,-0.036882,120.520606,31.275323,向阳河路18号,887849
星河家园,1,9397,-0.010789,120.274290,30.845191,富民南路1号,1030269
振兴小区,4,29630,-0.385526,120.542794,30.634122,振兴西路140号,892530
未来城,41,14447,0.155973,120.575752,31.869550,暨阳东路493号,889523
南港悦府,23,8863,-0.052288,120.479255,31.003404,沿湖东路48号,800129
巨都桂花城,2,9938,0.028202,120.424312,30.389738,纬一路72号,952791
汇金新城,1,11285,0.031347,120.688939,31.543464,新阳大道,884896
摩尔公馆,55,8412,-0.027457,120.707374,30.769575,洪兴西路，近殷秀路,890322
东郊新村,3,7352,-0.109496,120.713662,30.553140,碧云北路,890532
鸿翔南湾,1,9365,-0.055391,120.711476,30.509589,钱江东路,890596
万盛家园,1,7073,-0.245305,120.703077,30.751711,文昌路2333号,890008
景佳花苑,5,9247,0.087185,120.718898,30.877761,虹桥路,926327
颐和花苑,4,8235,0.149016,120.701471,31.812412,永进东路15号,889587
格林小镇,6,9004,0.070920,120.701616,31.535902,227省道,884824
润泽嘉园,11,5526,-0.118862,120.716704,32.367919,丁新中路,926267
上城蝶园,2,9000,-0.014239,120.709597,30.502170,江南大道,891396
中熙梅里江南,26,8270,-0.097671,120.718333,30.641942,梅北路，近梅秀路,1012469
大树花园(北区),47,8886,0.170079,120.718791,30.768959,吴越路378号,890181
正荣国领别墅,5,50397,0.073791,120.708424,31.258310,东方大道,887420
群利景苑(南区),1,8000,-0.095227,120.716136,30.524232,塘南东路621号,891367
海城名家,1,7987,-0.023652,120.704787,30.517770,海洲东路101号,890540
蓝光名仕公馆,1,10000,-0.116296,120.700729,30.751474,文昌西路,889900
吉翔澜山(别墅),1,10813,-0.272631,120.713440,30.546884,碧海路，近横山路,952802
地中海一号公馆,10,7341,-0.147474,120.714872,30.549517,横山路,890527
大树花园(西区),6,8061,-0.002055,120.717151,30.767225,新秀路256号,890182
农房斯坦福德小镇,2,7509,-0.134187,120.716047,31.926953,乐富路99号,889451
梁林帆影庄,4,8333,0.028893,120.715450,30.755936,文昌路1669号,889906
海宁月亮湾,2,7510,-0.193005,120.719484,30.528934,碧云南路，近水月亭东路,952789
丁香花园,1,11226,0.095871,120.705934,30.519708,南苑路53号,925379
永泰广场,5,9688,0.063219,120.716508,30.764019,亚厦路181号,890305
万城春晓,1,7803,-0.000979,120.706322,30.526710,赵家漾路45号,952807
金贸中心,1,10419,0.026147,120.719289,30.541469,石泾路15-17号,1026578
香榭水岸,2,7469,0.056997,120.705445,30.766754,新平路88号,890269
洪兴国际广场,68,8942,-0.079990,120.703622,30.769045,洪兴路，近聚贤路,991002
佳源优优华府,564,11410,-0.000451,120.716681,30.722345,嘉杭路，近开禧路,927358
盛世豪庭,7,11698,-0.025138,120.703576,30.764772,聚贤路68号,890253
元一柏庄(二期),2,9755,-0.018057,120.717609,30.757085,梁林路158号,890103
钱江小区,1,11169,0.006297,120.707302,30.514914,钱江东路,891294
昌乐小区,1,7250,0.035714,120.700604,31.540191,昌乐路,884740
隆兴嘉苑,18,7728,-0.014165,120.701795,30.544956,由拳路,891015
秀圣花苑,4,6944,-0.079800,120.711361,30.789285,秀圣路206号,890284
凤凰新村,3,8000,-0.311887,120.707925,31.439441,兴太路,889155
华府景苑,1,11149,0.311493,120.719207,30.524059,塘南中路777号,890634
四季香榭,5,8253,-0.024518,120.710974,30.518658,海州东路,892138
嘉盛龙庭,3,7511,-0.016542,120.705880,30.772105,聚贤路,890213
湖滨四季,1,44954,0.002841,120.709256,31.304871,金鸡湖大道888号,888514
九龙仓国宾1号(别墅),1,42556,,120.713935,31.297141,石莲街9号,888504
农房斯坦福德小镇(别墅),29,8051,0.022042,120.715336,31.925390,乐富路99号,889670
阳光天地,4,19461,0.389026,120.701535,31.251875,环湖路,887409
中梁壹号院,22,9512,0.035532,120.710100,30.500543,江南大道，近农丰路,952796
赞山景苑(南区),2,8811,-0.141228,120.719905,30.505463,钱江东路,891870
新月公寓,32,8990,0.081575,120.707218,30.753640,文昌路2081号,905028
中栋金色家园,1,10674,0.010700,120.702896,30.505193,新苑路,798074
阳光新城,2,9439,0.196179,120.704980,30.515565,福州路59-10号,891797
桐溪景苑,13,8507,-0.089544,120.703630,30.488475,丰收路,801890
春晓源(东区),4,8870,-0.010266,120.716675,30.773446,洪波路1840号,890174
中梁壹号院(别墅),10,11671,-0.047658,120.710171,30.499392,江南大道，近农丰路,952795
创都国际名城,4,7369,-0.076047,120.715938,30.641450,梅北路666号,890171
名都绿洲,6,9192,0.039013,120.704901,30.765537,聚贤路,890243
春晓源燕园(别墅),1,11061,0.234211,120.719823,30.774714,洪波路1688号,795556
万科吴越,32,12009,0.006951,120.718305,30.772683,吴越路536号,991000
吉翔澜山,11,10022,-0.033073,120.711153,30.547281,碧海路,925385
星湖客,1,24703,0.122882,120.718411,31.374480,亭盛街,888281
金泰城,134,14612,-0.123877,120.701085,30.505176,新苑路,1015057
景尚墅(别墅),1,10295,-0.057593,120.708955,30.784221,秀庄路,890225
嘉业阳光城,25,11520,0.094873,120.711928,30.767435,新洲路388号,1012468
浙联金座,89,9637,0.048102,120.705234,30.769164,洪兴路2203号,890324
风和丽苑,1,9065,0.228095,120.707780,30.508577,钱江东路99号,890538
锦泽苑,1,28540,0.025053,120.700711,31.349410,汇隆街8号,888777
高泾新村,1,8028,-0.055479,120.719192,31.584913,高泾路,884819
大树花园(东区),7,7975,0.055732,120.718930,30.767443,蓬莱路61号,890180
恒隆商业广场,28,8021,-0.001655,120.703964,30.784778,东升西路1229号,911217
中山花园,3,9849,0.104367,120.719598,30.763871,吴越路88号,890315
江南摩尔,99,8508,0.041226,120.715731,30.768868,高层(12-30层),926316
万达广场,179,16229,-0.086771,120.738647,31.689116,珠海路8号,885334
昌盛花园(西区),3,9242,0.010783,120.722335,30.789969,昌盛中路,890164
嘉州美都三期欢欣园,1,11063,0.364043,120.738061,30.783724,百墅路99号,926319
杉杉in象,140,10706,-0.049481,120.732647,30.780637,中环西路，近东升东路,890329
金色华庭,12,8719,-0.096394,120.727854,30.632714,兴乐路344号,926313
龙鼎国际公馆,133,8602,-0.018887,120.724604,30.758360,龙凤路，近龙舟路,927322
环球国际,190,8956,0.147988,120.724935,30.756730,文昌路1209号,944516
金穗月亮湾,10,7942,-0.055452,120.733320,30.740503,城南路1655号,889882
云都大厦,8,8976,0.044571,120.739392,30.770845,越秀北路306号,890334
世纪嘉园,1,9302,0.351249,120.729770,30.764057,中山西路658号-672号,890255
立达汇园公寓,120,9204,-0.055577,120.728672,30.769415,常秀街443号,1012471
越秀花园,36,8822,-0.038022,120.736602,30.762111,吉杨路488号,890108
大陆世嘉公寓,4,6437,-0.140345,120.739097,30.763203,吉杨西路,889743
财富广场,4,8066,-0.379866,120.722781,30.765516,中山西路527号,927357
裕隆公寓,1,9871,0.031926,120.728755,30.766656,秀仁路187,890311
亲亲家园,18,8097,0.087456,120.728126,30.730857,骏力路211号,889949
禾源新都,6,6523,-0.170949,120.729810,30.711582,开禧路,889813
中润嘉兴中心,154,6261,-0.004238,120.728086,30.756284,文昌路,927320
中南闻荷府,389,11036,-0.007589,120.727367,30.880202,滨河东路,991006
洪兴花园,20,9468,0.114734,120.724383,30.768989,常安街208号,890204
佳园小区,2,7669,-0.003502,120.720177,30.773250,洪殷路516号,890209
长虹春天,463,10243,-0.008162,120.729280,30.878145,运河东路，近虹桥路,912652
嘉兴龙鼎万达广场,315,11281,-0.049081,120.724729,30.758614,龙凤路,890151
梅里春天,13,10359,0.068651,120.728901,30.634682,花园路，近常乐路,926328
新锐公馆,55,9165,0.025431,120.728574,30.732003,骏力路137号,944518
阳光城愉景湾,4,42615,0.029068,120.723373,31.252114,东方大道，近星湖街,887425
方舟园,2,12266,-0.238585,120.733400,30.771915,友谊街230号,890188
丁香花园,2,10165,-0.006086,120.726982,30.781867,东升西路229号,890183
天城花园(东区),3,7118,-0.249225,120.736508,30.774842,天河街168号,890258
锦绣江南,23,9327,-0.012331,120.731495,30.875485,运河东路1001号,656386
恒丰景苑,4,6748,-0.171193,120.728933,30.629517,花园路,890199
越秀银座商务中心,3,7954,-0.013799,120.739452,30.768348,越秀北路154号,927340
龙凤公寓,1,12611,-0.213698,120.724533,30.766687,洪仁路,890233
皇马公寓,15,9553,-0.021404,120.725547,30.773114,常秀街,798238
盛大晶座(商住楼),2,7800,-0.025000,120.736723,30.781757,东升东路2429号,991004
金都景苑,54,8212,-0.012701,120.724713,30.764066,中山西路958号,798057
龙泽园,8,11015,-0.191790,120.721008,30.872776,闻川路,795318
颐高数码港,1,8521,-0.002014,120.731809,30.757176,中环西路,927318
百家公寓,1,9315,-0.068495,120.739312,30.786378,百墅路69号,889717
旭辉御府,17,12962,-0.114858,120.727252,30.748847,桐乡大道,890067
中梁吴越首府,4,9768,-0.111026,120.729248,30.749459,桐乡大道，近九九大街,927345
豪仕登大厦,258,11565,-0.006878,120.733562,30.762848,吉杨路639号,1024169
风清云都,1,8220,0.007266,120.738727,30.773171,洪越路36号,889776
金水湾,11,37402,0.071242,120.724323,31.305712,金鸡湖大道,888526
SOHO宜家,1,7279,0.048739,120.731428,30.754403,中环西路342号,927341
万达华府,28,13834,-0.066783,120.739334,31.690779,富民西路，近珠海路,885328
晴湾佳苑,4,12602,0.004544,120.722802,30.755420,文昌路1299号,798052
泰富世界城,161,9119,0.002165,120.725378,30.755086,文昌路1299号,927349
北禾春天,470,8675,-0.064456,120.731266,30.794309,城北路1574号,890332
元一柏庄(一期),11,9938,0.015485,120.720725,30.757734,昌盛南路,890102
运河大公馆,346,11479,0.061999,120.720794,30.880747,闻川路，近虹桥路,1037256
海尚壹品,1,28516,0.092232,120.722857,31.334635,九华路,888505
世纪广场,4,5990,-0.132264,120.734551,30.765702,中山东路1601号,889975
十里风荷,83,14948,-0.039586,120.721685,30.537312,碧云北路，近施带路,1026582
盛大晶座,1,6657,0.068727,120.735315,30.782583,东升东路2429号,890251
银河湾,12,10395,-0.011609,120.731386,30.728127,银河路,890087
佳源优优城南,19,11684,0.069444,120.735666,30.735902,创新路，近城南路,927346
万科悦中环,269,10459,-0.052554,120.731320,30.772947,中环西路，近洪殷路,890330
嘉兴人才公寓,152,9251,-0.060325,120.735389,30.740864,创新路220号,889865
昌盛花园(东区),2,7447,-0.002652,120.724567,30.789015,常秀街,890165
天乐苑,8,16435,0.000313,120.732974,30.726786,银河路172号,889991
华天国贸广场,1,8654,-0.026294,120.727374,30.729375,嘉杭路1071号,927342
巨匠义圣名苑,4,9756,-0.048474,120.734058,30.743555,中环西路,889893
中行公寓,3,8692,-0.060110,120.734581,30.767717,凯旋路,890312
盛大花园,9,9284,-0.007473,120.736408,30.780869,百墅路437号,890250
新中国际,475,11796,-0.122070,120.721019,30.787405,郎中桥路,795304
万科中环公园,771,11922,-0.016445,120.738163,30.789835,中环北路，近城北路,1022024
新文化广场,3,6967,0.065421,120.729586,30.754864,香槟街232号,1006361
海派秀城,184,10428,0.063167,120.723013,30.773818,洪殷路420号,890327
瑞鑫大厦,5,5438,-0.211569,120.737850,30.767126,凯旋路88号,1022022
中南闻荷府(别墅),63,10524,-0.040431,120.727296,30.879490,滨河东路,991007
丽丰新天地,1,7266,-0.114945,120.727432,30.758444,龙凤路169号,1024174
银泰花苑,1,8000,,120.733685,30.769709,洪兴路,890303
伊顿花园(别墅),7,24738,0.005373,120.736549,31.313862,南施街1号,888652
隆腾广场,3,7126,-0.084415,120.738913,30.743023,紫竹路18号,1006362
东方都市,20,14117,0.085278,120.724109,30.514979,碧云南路,798254
白金公馆,7,8232,-0.015758,120.721116,30.502610,碧云南路，近城南大道,892042
爱丁堡(别墅),6,37963,-0.018512,120.733455,31.489335,湘太路98号,889182
绿洲别墅,1,20155,-0.109005,120.734701,31.299690,金鸡湖大道,888568
诚恒世嘉,19,8408,-0.050610,120.725149,30.890554,北虹东路129号,797046
巴黎印象,4,7790,0.151485,120.731661,30.631475,花园路351号,926318
现代广场,1,7520,-0.071958,120.722493,30.758884,昌盛南路1625号,1024179
名典公寓,11,10469,0.003470,120.741301,30.765561,中山东路1276号,889930
中环广场,8,8660,-0.137253,120.741428,30.748205,中环南路，越秀路,1006359
城南花园文苑里,1,9918,0.012133,120.748165,30.756203,城南路351号,889733
长新公寓,2,8888,0.060621,120.749262,30.734535,长桥路,890121
滨江花苑(一期),1,7327,0.111836,120.746505,32.054422,龙江路，近长江北路,918441
时代阳光小区,2,6973,-0.005562,120.748583,30.795721,禾兴北路946号,890254
香港兴业御缇湾,1,9693,-0.020612,120.745724,30.733576,翠柳路,890038
瀛洲花园,2,10737,0.061818,120.745258,30.750814,城南路657,890092
太阳公寓,1,10686,0.299799,120.755483,30.761137,砖桥街13号,889983
金鼎广场,5,11941,0.105988,120.759564,30.771516,建国南路400号,1006366
府南花园(三区),30,11303,0.115218,120.756587,30.731325,新气象路,889787
鹤翔里,1,10292,-0.029578,120.748309,30.751615,怡南路,889815
石雪公寓(北区),1,12000,0.345593,120.759140,30.720383,祥和路105号,889970
万科海上传奇,159,16179,-0.038573,120.741272,30.743001,城南路1155号,798055
海上新园,2,10061,0.011424,120.740988,30.743883,城南路,889805
放鹤洲花园,4,13118,0.074022,120.749209,30.748426,放鹤洲路562号,889771
四季香公寓,1,6264,-0.000255,120.754930,30.770366,民生路25号,889981
星雅汇,16,11378,0.138548,120.747291,30.745041,清华路245号,927352
大地公寓,16,8084,-0.013382,120.755515,30.761781,砖桥街45号,889741
蓝天嘉苑,9,10014,0.006594,120.756639,30.738430,新气象路929号,889901
花园公寓,1,8049,0.006237,120.741677,30.778932,东升东路2061号,889823
石雪公寓(南区),9,11074,0.128830,120.759463,30.716735,石隆路103号,889969
绿溪玫瑰园(北区),11,9738,0.067339,120.757561,30.743072,会展路98号,889923
天城园林居,18,10253,-0.134116,120.744782,30.754834,文昌路148号,889989
丽江苑,3,19266,0.198712,120.755750,31.676388,长江路286号,884976
望鹤苑,2,8571,-0.252746,120.747374,30.747447,中环南路,890012
同乐社区,2,6969,0.081822,120.749877,30.775865,同乐路433号,890004
电子中意苑,2,7681,-0.020159,120.743105,30.775972,洪波路569号,889753
天天嘉苑(北区),2,7826,-0.334750,120.748083,30.750987,怡南路162号,889994
怡南花园,3,7825,-0.013713,120.748357,30.752509,城南路516号,890085
石雪公寓(西区),18,9368,-0.054300,120.759140,30.718629,南泉路,889968
吉安公寓,1,10000,,120.744783,30.765056,吉安路15号,889834
九信公寓,3,7380,0.014865,120.755975,30.760420,禾兴南路，近环城南路,1024172
嘉城南都苑,5,9902,-0.035848,120.742488,30.745082,城南路,889860
泰安新村,3,23424,0.009744,120.759609,31.657272,泰安街,885120
电力嘉苑,1,5572,0.044890,120.759173,30.774723,建国南路603号,889751
纺织大厦,3,4712,-0.057600,120.751604,30.767146,中山路148,1024178
紫元尚园,4,9752,-0.012751,120.742693,30.741221,城南路,890141
阳明公寓,1,12721,-0.033074,120.750182,30.779693,城北路445号,890075
清风阁(东区),1,11690,-0.025817,120.754145,30.775663,禾兴南路1136号,889951
紫溪花园,17,9778,0.382344,120.754983,30.792344,中环北路846号,890319
清沁苑,1,7175,0.014148,120.756229,30.785605,三元路703号,889956
聚成广场,1,8715,0.002646,120.740833,30.740087,城南路，近由拳路,927355
长新公寓(北区),36,7617,-0.131366,120.747789,30.738915,由拳路,890120
中楠穆溪左岸(东区),1,14457,0.190366,120.749956,30.799768,禾兴北路1135号,890314
紫阳公寓,1,6954,-0.013098,120.757476,30.761888,环城南路303号,890140
南都中心,274,9113,-0.081661,120.742264,30.745174,城南路，近中环南路,1006356
锦绣苑,3,9561,-0.016301,120.740056,30.774081,越秀北路483号,889884
江海名都,2,8641,0.075432,120.751310,32.099276,育才路,918446
新秀苑,12,5552,-0.126318,120.742256,30.778181,东升东路,905027
禾城世纪花园,1,7996,0.000175,120.751041,30.795733,禾兴北路,890195
禾兴公寓,1,8332,-0.085088,120.754122,30.773972,环城北路20号,889811
春晖苑,1,6423,-0.076624,120.743688,30.774201,洪声路425号,889735
宇隆嘉苑,20,9233,0.059535,120.758484,30.830590,奥星路278号,438527
西马桥社区,4,7258,0.000414,120.750336,30.788530,禾兴北路522号,890035
郎诗未来街区,9,30069,0.002003,120.756045,31.376547,青澄路9号,888251
望湖公馆,6,8719,-0.051072,120.746050,30.737358,由拳路,890014
新东方商厦,1,9048,-0.026262,120.755730,30.771434,禾兴南路833号,927339
朗诗国际街区,3,58580,-0.011258,120.748758,31.311159,津梁街8号,888541
放鹤洲花园(南区),1,17115,,120.747323,30.748178,望鹤路99号,889773
半岛公寓,4,7985,0.007303,120.750630,30.774584,城北路58号,889722
大树金港湾,7,8152,-0.001959,120.745204,30.738607,由拳路499号,889745
老年公寓,26,5635,-0.123289,120.741913,30.780210,东升中路,889902
朗诗未来街区四期,1,35400,0.205168,120.747966,31.379596,夷浜路,888254
中海8号公馆,1,31828,0.026713,120.754199,31.317759,琉璃街,888620
蔚蓝澳洲中心,35,9657,0.059650,120.746328,30.740649,紫竹路,991785
紫金豪园,1,24617,0.395931,120.748393,31.678400,南沙路,885271
南杨新村,6,9112,-0.000647,120.752688,30.764198,斜西街,889943
绿溪玫瑰园(南区),4,9108,-0.078709,120.757525,30.742125,会展路105号,889922
赞成清华府邸,18,11583,0.116228,120.743782,30.744358,城南路1038号,890115
府南花园东(二区),2,9263,0.010615,120.759058,30.735031,新气象路1130号,889786
长新公寓,4,7812,0.018514,120.749033,30.730787,翠柳路,890119
月河公寓(南区),6,7000,-0.013946,120.753214,30.777075,同乐路,890105
放鹤洲花园(北区),3,12083,,120.747682,30.749446,望鹤路36号,889772
清河社区,1,7350,-0.022136,120.751840,30.782001,禾兴北路126号,889952
月河公寓(北区),2,8363,0.046210,120.753124,30.777469,同乐路272号,890106
城南花园,85,8865,0.052362,120.749117,30.757658,城南路237号,889732
乐澄花园,16,12178,0.220326,120.741046,31.499896,城中路91号,889162
旭辉广场,6,10924,0.031206,120.753237,30.766893,中山东路666号,927347
栅堰新村,1,7768,-0.028987,120.746969,30.770055,洪声路30号,890118
中央花园,3,10588,-0.103927,120.743802,30.765360,明月路50号,890133
嘉悦大厦,134,10000,-0.006458,120.740188,30.765507,中山东路1292号,991788
中兴苑,1,7053,-0.001769,120.741817,30.774230,洪波路566号,890131
阳光小区(南区),2,8988,0.027905,120.744388,30.792239,同心路422号,890294
真如新村,2,5054,-0.160956,120.745914,30.752409,城南路533号,890124
华发雅苑,6,9426,0.037785,120.758894,30.732695,珠庵路219号,889826
东菱梅湾花园,11,14000,,120.751714,30.756870,城南路158号,889760
紫欣公寓,1,17361,0.190136,120.757905,30.763029,杨柳湾路23号,890138
绿地新里铂克公馆,6,36976,0.308731,120.744709,31.699242,深圳路,885000
放鹤洲花园(一期),4,12000,-0.008756,120.749968,30.754493,放鹤洲路159号,889770
沙龙公寓,1,7888,-0.186920,120.756717,30.761057,河东街170号,889965
远洋绿洲,10,8637,-0.007275,120.746415,30.761900,吉水路272号,890104
花园社区,6,7877,-0.118530,120.743164,30.777860,东升路,889824
桃源小区,1,13797,0.075585,120.744348,31.661512,桃源涧南弄,885122
朗诗未来街区一二期,4,27181,-0.028827,120.755663,31.376193,青澄路，近科智路,888255
龙之梦悦庭,122,9587,-0.023984,120.745286,30.747210,中环南路1969号,1006355
云景雅轩,1,10743,-0.136068,120.743074,30.791999,同心路，近禾平街,1037257
阳海景怡(南区),1,6286,0.091923,120.746364,30.800357,云海路58号,890296
东方新家园(南区),3,12139,0.135672,120.771292,30.786207,东方路,890184
弘信观湖,21,8636,-0.099484,120.762504,30.831289,奥星路191号,610586
秀水人家,2,7048,0.089482,120.766418,30.775922,青龙街42号,890062
果园新村,1,13896,-0.007407,120.768755,32.043603,果园路,917736
赞成紫景雅苑,2,8424,0.077340,120.770150,30.779333,东方路438号,890117
天星湖公寓(南区),1,5721,0.036995,120.764032,30.769450,天星湖弄,889997
南湖星辰湾,1,7617,-0.300555,120.772713,30.789101,锦绣路199号,798058
彩虹公寓,3,6576,-0.185112,120.767685,30.776128,青龙街95号,889725
华美小区,4,10152,0.387502,120.775086,30.779204,城东路792号,889827
中兴公寓,2,9159,-0.045844,120.760437,30.773069,劳动路288,890130
托斯卡纳(二期),146,10492,-0.001584,120.767398,30.833190,奥星路87号,926315
府南花园(一区),5,7888,0.020736,120.760369,30.738011,新气象路946号,889789
水岸丽都,18,11132,0.039468,120.762617,30.812969,东方路,797902
嘉禾北京城,2,7715,-0.355815,120.761365,30.780216,北京路37号,889862
文星花园海棠苑,3,10221,-0.043558,120.775471,30.749476,纺工路959号,890025
碧霞苑,1,5617,,120.768619,32.245293,市河路,918274
赞成新都名邸,4,10176,-0.004315,120.761430,30.735264,花园路1151号,798061
衡泰国际花园,2,29137,-0.039404,120.770978,31.678984,衡山路158号,884854
皇冠花苑,5,9416,0.176149,120.773082,30.754569,菱香路34号,889832
凌波苑,16,7686,0.018491,120.774213,30.783640,凌塘路319号,889907
恒大绿洲,87,8844,-0.006694,120.763610,30.822442,正原北路,890198
绢纺三村,14,7058,-0.201945,120.775698,30.760211,纺工路462号,889895
文星花园汇龙苑,4,8700,0.002391,120.779803,30.748212,凌公塘路773号,890026
怡梦苑,1,8790,0.051268,120.765473,30.773191,解放路3号,890084
香格丽花园(别墅),2,31243,0.397022,120.766064,31.660657,枫林路17号,885304
佳源都市(西区),17,10212,0.009724,120.778519,30.784961,城东路,889847
新雅公寓,1,7154,-0.273828,120.766175,30.769058,中山东路39号,1006364
金地艺境,532,11290,0.009179,120.761123,30.822724,东方路，近正阳西路,990999
南湖小区,267,8232,-0.035395,120.773893,30.754450,菱香路40号,889937
平安家园,6,11198,-0.128868,120.775429,30.790405,塘汇路,890248
海纳公馆(东区),13,9861,-0.031867,120.767314,30.812794,天星西路188号,890194
迦南美地广场,28,8970,0.005966,120.770591,30.716350,槜李路,1006358
新湖绿都,34,8321,-0.049560,120.774235,30.766418,纺工路84号,890050
三水湾小区,1,5508,-0.083292,120.779974,30.760882,天枫路,927325
名湖人家,1,11633,-0.062913,120.772759,30.754920,海盐塘路,889931
台昇璞悦汇,107,11444,-0.050104,120.761230,30.728998,长水路,992975
翰林府第,48,10521,-0.015191,120.775606,30.747650,纺工路1235号,798054
湖滨花园,9,8746,0.390477,120.771875,30.766736,纺工路25号,889822
嘉城景帆苑,10,9392,-0.043800,120.760224,30.782745,新丝路21号,889853
骏园,1,9551,-0.014634,120.764299,30.721477,花园路,889896
荣盛香韵花苑,104,11400,-0.066189,120.770778,30.780674,凌塘路,992976
优优花园,15,10593,0.048624,120.764600,30.725782,花园路，近东升路,927332
望湖公寓,26,8886,-0.031904,120.763770,30.766396,大年堂前135号,890015
湖滨花园,2,9886,,120.773022,30.769976,人民东路132号,890149
新虹桥花苑,4,7224,-0.076674,120.770545,30.775827,城东路,905025
文苑小区,62,7199,-0.040188,120.779076,30.743105,纺工路,890031
格兰春天,24,9042,0.066128,120.766714,30.814461,天星西路255号,890193
城东公寓,14,6100,-0.197988,120.771038,30.773008,城东路373号,889730
祥生玖熙花苑,377,11250,-0.011970,120.763161,30.716403,新气象路,890153
烟湖苑,2,7488,-0.238442,120.772514,30.746516,海盐塘路558号,890069
佳源都市(三四期),7,11074,0.108201,120.777200,30.786582,佳园路，近凌塘路,927321
中南世纪城,3,19521,-0.025348,120.777834,31.665070,泰山南路,885263
康达公寓,11,10125,-0.115639,120.763626,30.767935,秀州路,889897
枫杨坊,3,7108,0.178789,120.779983,30.764849,天竹路71号,889777
马厍花苑,2,6118,-0.160828,120.769216,30.829516,马库路,890240
南溪花园,39,8746,-0.040272,120.775393,30.763175,纺工路262号,889940
中南世纪城(别墅),14,17939,-0.019745,120.776976,31.661712,泰山南路,885307
大华城市花园,15,10207,-0.061951,120.760840,30.741471,会展路257号,889742
东方新家园,2,8644,-0.029200,120.769504,30.789084,锦绣路,890185
金禾商住楼,1,7940,-0.007500,120.762617,30.774231,秀州路505号,927311
丽苑小区(北区),7,6932,-0.139624,120.765352,30.818423,正原北路,890230
台昇国际广场悦府,260,10988,-0.013990,120.761220,30.729118,花园路,792519
枫泾新村一区,1,18121,0.032197,120.762342,31.653432,枫泾路,884809
和风丽园,133,7386,-0.033239,120.774577,30.797100,和风路474号,890196
爱尚公馆,139,9681,0.142764,120.776996,30.792913,中环北路，近塘汇路,890326
南郊花苑(北区),3,9186,-0.009189,120.761722,30.725000,马塘路278号,889939
春波景苑,2,7695,0.020231,120.769236,30.775753,大新路193号,363888
海逸大厦,1,10000,0.308044,120.779551,30.743329,中环南路370号,927330
青龙公寓,5,13509,0.390673,120.767248,30.775831,青龙街,889950
石榴坊,3,6379,-0.090808,120.779360,30.760274,农翔路,927324
天星如意湾,18,8899,0.136774,120.762725,30.814281,天星西路505号,793893
东豪名都,2,7333,-0.000947,120.770362,30.781853,东方路572号,889756
长泰花苑,2,14953,-0.059553,120.773952,31.676397,泰山路18号,885252
赞成学仕苑,42,10553,0.001889,120.778020,30.747518,纺工路1166号,890116
怡苑豪宅,45,8310,-0.002706,120.766058,30.773638,解放路69号,890086
秋泾公寓,6,7119,-0.228217,120.767331,30.784496,大东路43号,797728
铁树坊,9,6958,0.015305,120.778541,30.761887,景湖路，近天枫路,927335
南郊花苑(南区),1,8081,0.041692,120.761764,30.724233,马塘路275号,889938
秀州公寓,2,8499,-0.128124,120.762844,30.775114,环城北路509号,890064
优优花园,18,10431,-0.012015,120.764606,30.726095,长水路,890093
建业公寓,2,13412,-0.093267,120.760583,30.770648,梧桐树街,889870
万家花园,103,8593,0.064048,120.783221,30.757686,望湖路108号,890006
国际中港城,410,9422,-0.063737,120.799201,30.744628,广益路555号,890148
怡和园,2,8559,0.010483,120.790902,30.755863,景宜路425号,890081
文贤苑(东区),1,8296,-0.009982,120.785353,30.732060,富强路468号,890024
中成新世纪公寓,43,7449,-0.068328,120.799125,30.746614,中港路79号,890126
嘉城绿都凌霄苑,1,9556,0.005217,120.789336,30.776208,中环东路,889856
中南公寓,28,8690,-0.032749,120.791906,30.736512,由拳路2717号,890127
云东公寓,74,9654,-0.151016,120.798955,30.733580,由拳路，近双溪路,952907
金山苑一区,2,18250,0.093338,120.790704,31.642429,金山路,884931
百隆花园,2,12676,0.302641,120.786414,30.766253,中环东路,889718
大树英格澜,237,10293,0.002157,120.788779,30.708394,纺工路,778364
天竹坊,144,6970,0.038513,120.780315,30.763122,天竹路,889999
信达东郡,4,12727,0.107755,120.792363,30.756810,景宜路,905030
承安南湖壹品,2,14145,0.149573,120.790614,30.731981,文贤路，近普民路,927344
同方燕语林苑,1,11458,-0.028421,120.793496,30.758879,南溪西路2208号,890001
佳源优优中环,659,11590,-0.017692,120.786945,30.776975,中环东路，近长安路,1024177
嘉城绿都芙蓉苑,3,10179,0.314985,120.793338,30.781226,宜城路,889854
森兰公寓,3,22476,0.011430,120.799366,31.607571,东南大道28号,885069
嘉辉南湖美寓,68,9144,-0.130668,120.787286,30.775387,中环东路,890150
万达公寓,15,13444,0.021153,120.780500,31.648506,新世纪大道，近富康路,885133
都市文涛苑,11,11029,0.099272,120.784197,30.742899,中环南路136号,889765
三景花园,4,11549,0.122134,120.786279,30.763907,泾水路216号,889960
久久小区,139,8475,0.018911,120.795205,30.734400,双溪路,889891
明珠花园,4,6721,-0.044577,120.789202,31.055971,西鹤路91号,887164
农翔苑,16,8502,0.044796,120.784275,30.753900,望湖路127号,797422
荣盛富盛名邸,101,9953,-0.006865,120.782647,30.734973,由拳路，近富润路,1024171
华盛广场新邻域,1,8125,-0.028110,120.788576,30.732081,乌桥路，近普民路,927353
石堰苑(北区),1,9155,-0.111888,120.787551,30.720496,商务大道,889972
荣盛百合花园,36,11333,0.004342,120.794158,30.793711,城东路,1012466
金鼎花园,1,10734,0.380440,120.793149,31.095495,金鼎东路,887153
紫竹名苑,13,10688,0.019992,120.791061,30.759633,景宜路183号,890142
经房浅水湾,4,9553,-0.007336,120.792058,30.799334,鸣羊路,720987
桃李春风景苑,48,9184,0.014044,120.798747,30.345156,钱塘江路,1005437
举秀苑,2,9972,0.176106,120.794819,30.730736,文贤路837,889892
百盛花园,3,13134,0.001468,120.785866,30.751850,百盛路,889721
龙山景苑,4,5675,-0.191978,120.785526,30.423539,龙山路，近龙晓路,952792
秀景苑,4,9165,-0.019539,120.798466,30.670390,贤埭街,890059
嘉城绿都紫薇苑,4,5930,-0.152152,120.791771,30.774656,湘溪路,889859
茶香坊(北区),9,8717,-0.027988,120.797806,30.795018,章园路,890161
泰富商业广场,1,6480,0.187312,120.790177,30.757771,南溪西路2035号,1006365
怡江苑,42,7221,-0.000208,120.799250,30.679440,镇北大街112号,890082
冶金新村,2,4248,-0.055933,120.782155,30.763892,中环东路,927329
嘉城绿都春兰苑,5,9276,0.139418,120.790841,30.773085,湘溪路,805600
泾水公寓(西区),1,9755,-0.024420,120.790711,30.762565,泾水路443号,889887
秀沁苑,3,8094,-0.117820,120.791776,30.667482,镇西路,890060
御溪花园,10,12872,-0.107818,120.796026,30.752872,双溪路1163号,890100
皇都花苑,31,11320,0.004089,120.793868,30.757285,南溪西路2219号,889831
云洲苑,1,9396,0.060456,120.782315,30.751763,农翔路556号,890112
锦荷佳苑,2,12500,0.007009,120.783843,31.649423,富泰路,884944
华盛广场,3,7214,-0.007859,120.788210,30.731596,商务大道,890146
徐王公寓,11,8301,0.034270,120.783329,30.780757,徐王街59号,890065
水榭花都,35,10369,-0.005023,120.790543,30.746045,景宜路963号,889980
广宜文苑,5,9567,-0.042428,120.790789,30.744291,景宜路1055号,889802
荣盛富盛名邸(别墅),1,12107,0.007070,120.784029,30.735022,由拳路，近富润路,1024170
巴黎都市,128,12010,-0.013004,120.784979,30.745990,凌公塘路,649803
格林小镇,7,12144,0.062524,120.794128,30.745506,格林路199号,889797
嘉辉Loft公馆,245,9041,-0.041696,120.789773,30.774693,湘溪路76号,927331
赞成丽景苑,69,9956,-0.030669,120.792932,30.765657,双溪路453号,890114
金山苑,1,15266,0.033189,120.790599,31.642340,香椿路,884925
桂林坊,1,7586,0.194834,120.781191,30.765743,枫杨路,889803
尚东名邸,163,8579,-0.092703,120.782558,30.789134,中环北路,657418
禾东公寓(北区),50,8799,0.137327,120.782644,30.783914,周安路162号,889809
富鑫苑,1,19171,-0.196601,120.783273,31.636529,富阳路,884817
石堰苑(南区),3,10606,0.171675,120.787147,30.714691,纺工路,889973
桂苑,1,7959,0.003878,120.784431,30.760168,南溪西路1412号,889804
创业公寓,332,10682,0.031144,120.784988,30.775423,创业路,889734
新世纪花苑,1,16616,-0.317213,120.797730,31.604940,东南大道99号,885173
世茂尚景蓝湾,33,8859,-0.059669,120.788409,30.711942,五环洞路88号,440697
九里苑,1,15488,0.314689,120.787104,31.674701,九里大街23号,884954
滨江嘉苑,7,8465,-0.045512,120.792841,30.343300,新民路，近硖尖公路,952787
百盛花园,2,13333,0.045398,120.786143,31.636398,富阳路,884715
嘉辉南湖美寓,7,9523,0.007618,120.787290,30.775335,湘溪路76号,890154
禾东公寓(南区),309,8713,-0.080267,120.782999,30.782549,周安路161号,889808
紫金艺境,64,11208,-0.041456,120.791935,30.734955,乌桥路100号,890156
华玉佳苑,56,8653,-0.229769,120.797802,30.789472,鸣羊路,890207
茶香坊(东区),21,8573,0.056470,120.798530,30.793854,章园路559号,890162
绿城柳岸禾风,22,12533,-0.031713,120.786651,30.796141,塘汇路，近茶园路,1012476
奥园黄金海岸,71,11172,-0.002785,120.789423,30.792567,永政路98号,794708
汇金广场,7,8007,0.008336,120.793289,30.743940,广益路247,927315
世茂尚景翠苑,1,9520,0.011769,120.788818,30.710830,五环洞路,889976
力宝翡翠花园,6,8253,-0.102837,120.793597,30.753939,望湖路585号,889905
金地都会艺境,662,11824,-0.014092,120.814447,30.676806,新昌路，近幸福路,944520
雨润天阁,3,7647,,120.805877,30.757969,庆丰路665号,798239
中南公馆,26,9044,0.101894,120.810493,30.744351,九曲路，近南江路,927343
万达华府,707,13772,0.086350,120.808393,30.740711,广益路,798053
格兰英郡,51,11667,-0.025524,120.809585,30.747988,中港路628号,889795
苹果假日,3,6363,-0.058310,120.807585,30.743202,庆丰路，近广益路,927328
南德大院,2,16885,0.044418,120.808252,30.756262,南溪路，近庆丰路,927354
丽江半岛,46,14750,0.073261,120.805594,30.737857,云东路，近塘桥路,890152
仁和苑,4,8874,-0.112530,120.815146,30.682031,余北大街,889959
金凤城,56,11674,0.205774,120.804814,30.339630,凤凰路38号,917182
金凤城,21,9085,-0.010375,120.805059,30.339178,凤凰路38号,952790
铂金府邸,61,12830,-0.010355,120.809590,30.745707,中港路619号,797985
青年公社,16,12734,-0.001490,120.809407,31.329555,青丘街,888673
万达公馆,719,12026,0.009896,120.803298,30.742026,广益路,1006353
景湖花园,26,11101,-0.092050,120.803560,30.760243,云东路62号,889890
信达翰林兰庭,1,12108,0.001406,120.811254,30.755926,南江路,890052
郁金香岸,1,16818,0.037252,120.803766,30.753714,云东路,890096
海枫苑,1,10568,0.391651,120.811418,31.745032,海阳路,884831
美迪家园,42,7660,-0.041996,120.804225,30.673728,民新路18号,617272
金凤城(别墅),13,10261,-0.031241,120.805030,30.337892,凤凰路38号,917183
双溪花园,37,8350,0.031957,120.800387,30.760102,南溪西路2536号,889978
嘉兴世界贸易中心,12,9021,0.138153,120.802746,30.743694,广益路，近云东路,927337
宝格丽公馆,278,11570,0.065401,120.805966,30.740052,庆丰路,794506
天凝金水湾,20,7193,-0.068141,120.819726,30.898785,兴贤东路,556918
信源亲水湾,31,8938,0.044706,120.816962,30.745701,广益路,798232
仁和锦居,2,8221,0.233318,120.805644,32.094208,集秀路68号,917743
紫澜别墅,6,12712,0.154723,120.803065,30.748316,中港路,802035
万好家居,5,6159,-0.049414,120.808635,30.743838,庆丰路，近广益路,1006360
新贤园小区,10,7266,0.057231,120.807775,30.669947,五星路,890051
龙翔大厦,72,7486,-0.127503,120.805699,30.744361,庆丰路1407号,927351
紫轩公寓,1,9530,0.045344,120.801602,30.749197,云东路685号,944519
佳源东方都市(别墅),6,11608,0.010652,120.821185,30.737343,亚欧路,927326
明珠花苑,12,8404,-0.193813,120.833485,32.356111,三三四省道,918228
御上江南景园,11,10782,-0.021543,120.825418,30.741064,亚欧路656号,890097
好第坊,50,9227,0.318143,120.831449,30.743293,中环南路,767010
湘湘恬园(别墅),4,8836,0.003942,120.834857,30.818896,兴民路,952905
中洲花溪地,92,11139,-0.053408,120.829028,30.736753,由拳路,952158
佳源东方都市,112,11511,-0.001631,120.822712,30.738920,亚欧路,927327
亚太花苑,10,8030,-0.066752,120.820765,30.750167,凌公塘路2758号,890068
永兴花苑,1,10531,0.368451,120.826948,32.041938,利民路,917837
南通赛格时代广场,5,8395,-0.034334,120.836707,32.046778,深南路,917849
金色家园,1,8560,0.034727,120.830424,30.853878,南星桥路，近麟溪路,941366
湘景苑,1,6888,,120.832599,30.813648,七星大道,890046
汇众佳苑,3,10229,0.164371,120.837585,30.817399,七星路,782040
鑫控吴越学府,72,10780,0.013310,120.825326,30.735292,由拳路,989586
万达华府,47,13626,0.002601,120.839077,32.041499,江海大道336号,917824
上置香岛庄园,6,8993,-0.170467,120.822815,30.815683,灵湖路,889966
荣盛观湖景园(别墅),1,13200,0.353044,120.833774,30.822853,兴民路,991786
信达格兰上郡,12,13834,0.038738,120.823948,30.730240,亚欧路，近三环东路,927334
江景国际,1,10343,0.252288,120.832675,32.019831,人民西路，近长江中路,917230
天欣花苑,5,6840,-0.003497,120.820319,30.900832,兴贤东路,799974
大树绿苑(南区),1,9501,-0.074369,120.836255,30.822079,潭星路147号,889746
九城嘉佳家,37,9406,0.009281,120.822169,30.746977,亚欧路,794314
永和佳苑,2,10683,0.068320,120.828014,32.046512,永杨路,917835
华章御树湾,3,10912,-0.004488,120.829547,30.747963,智慧路,889829
紫金豪庄(别墅),6,10421,0.044582,120.821930,30.709518,民丰路,515443
梅湘园,1,7434,-0.233361,120.830407,30.803162,灵湖东路857号,1024165
七星花园,7,8964,0.209022,120.829406,30.816761,兴星路,889948
湘湘恬园,152,10173,0.007596,120.834385,30.820291,兴民路,952906
尚品公馆,35,8435,-0.044751,120.838711,30.578030,大洋东路8号,793572
绿地新都会,8,14157,-0.009861,120.826719,30.745029,亚美路,889919
佳源英伦都市,179,9297,0.016087,120.821434,30.746947,新风路,939499
东方悦宫,122,10359,-0.018582,120.824780,30.686004,余北大街，近东余线,952903
嘉兴总部商务花园,94,7063,0.063407,120.824534,30.745164,广益路,889867
黎明苑,4,7285,-0.129710,120.821126,30.715118,东余线,889903
公园佳苑,2,13563,0.160918,120.828103,32.071462,新华路,917753
湘都公寓松音坊,3,7614,0.005646,120.827646,30.761838,三环东路,890043
广益大厦,185,9999,-0.000440,120.824420,30.745707,亚欧路465号,912651
盛和永兴花苑,1,7941,0.122040,120.827431,32.042453,黄海路,917815
宏润花园,31,13536,0.099225,120.821682,30.741504,亚欧路,889818
江南新家园,136,6594,-0.020664,120.826554,30.824094,湘家荡大道,889873
碧水云天,33,11334,-0.043150,120.834656,31.024821,新友路,941272
上置香岛澜湾,6,8211,-0.387589,120.827978,30.812676,灵湖路1号,801631
湘湖长岛御墅,7,10495,-0.009153,120.832104,30.815603,七星路770号,799068
福馨花园,1,4666,-0.329887,120.834205,30.853035,育才路,941365
荣盛观湖景园,53,8109,0.022416,120.833662,30.823423,兴民路,991787
民欣花苑,1,7741,0.021145,120.859115,30.538669,招宝路，近学才路,890512
黎明花园,1,15780,0.390943,120.854221,32.027543,孩儿巷北路52号,917312
百合苑,96,7599,0.130161,120.859037,31.377600,君子亭路140号,883284
紫金花园,10,7892,0.167530,120.859477,30.536435,招宝路300号,940420
中山花园小区,50,6805,0.182528,120.851010,31.030375,芦莘大道471号,887179
康桥小区,2,7225,-0.007840,120.855166,31.467320,湖滨北路,883761
阳光花园,4,37417,-0.088968,120.840395,31.639055,银河路818号,885206
中港城皇家公寓,1,10527,0.114740,120.851776,32.046690,濠西路290号,917845
常熟玲珑花园(别墅),1,10829,0.008178,120.851783,31.561755,金唐路128号,885348
四季绿苑,1,15171,0.011440,120.853647,32.012825,新建路,917328
瑾润九仰周庄,2,14285,,120.853942,31.124636,全福路,883724
天香花苑,25,11185,0.076441,120.857107,30.751663,天明路478号,889996
阳澄苏园,4,14452,0.077079,120.857441,31.471291,学院路,884246
中港城世家一期,2,9541,0.032172,120.853199,32.047048,濠西路,917856
水乡景苑,60,6999,0.070378,120.848822,30.913576,洪兴路,890456
东景园,1,7746,-0.094953,120.859334,30.755781,零七省道,889757
东方大厦,1,8858,0.388666,120.853864,32.009708,青年西路109号,917274
杨林小区,1,8372,0.024599,120.859634,31.455630,巴城湖滨路,884259
颐和花园,3,12386,0.385614,120.855910,32.027512,孩儿巷北路，近万象北路,917346
怡园新村,3,9772,-0.022750,120.857261,32.050587,通宁大道,917833
凝欣花苑,12,5808,-0.093485,120.843494,30.914691,西周路8号,404633
阳光花园,1,10707,0.228853,120.852626,32.029139,孩儿巷北路69号,917343
华府庄园,4,12305,-0.012816,120.859970,31.393648,马鞍山路1999号,883595
景华城,1,15238,,120.845748,32.017635,任港路50号,917310
绿苑小区,1,33556,-0.366866,120.846946,32.021625,人民西路,917313
吴江虹桥花园,1,21069,-0.122125,120.857561,31.043414,洋砂路,887173
绿苑小区,1,6060,-0.341734,120.847173,32.021715,人民西路191号,917359
新建路新村,1,14633,0.065698,120.858341,32.013853,新建路,917340
绿城玫瑰园(别墅),50,74674,0.011099,120.853176,31.440633,湖滨路3888号,884626
湖畔首府,527,9391,0.011699,120.853830,30.536653,滨河路，近南王线,1010375
爱渡小镇,7,11414,0.002626,120.851655,31.128203,爱渡路,884691
南龙房开,11,6815,0.093654,120.849630,30.898276,兴洪路,378211
旺家园,1,9003,0.014994,120.845425,30.913203,洪兴路205号,650752
兰花园,1,14154,,120.857140,31.123472,全功路202号,884684
绿城玫瑰园(昆山市),11,20269,0.063389,120.850477,31.442726,湖滨路3888号,883839
桃花园,2,11604,-0.016610,120.852695,31.122609,全功路274号,884085
新城香溢紫郡,10,9198,0.035245,120.849325,32.073347,通宁大道，近永兴大道,917762
瑞丰花园,1,10819,-0.009249,120.851279,32.028132,食品路,917319
平湖塘花苑,72,8303,-0.019224,120.856508,30.747226,天宁路,889946
幸福锦园,1,7763,0.109029,120.855657,32.091586,福利路，近福达路,917774
水韵花苑,246,8303,-0.060495,120.859871,31.131918,云亭路,884065
盛世明珠园(别墅),4,12686,0.084105,120.846149,31.132695,淀南路509号,884640
金玉满唐,1,16800,0.015744,120.856845,31.552025,中环路,884939
高林水乡花园,2,12470,0.314195,120.866597,31.121919,东坨路2号,883485
绿洲国际商务城,3,12024,0.002050,120.866388,32.061094,长华路158号,917806
天润尚院,67,14113,-0.024030,120.874324,31.126558,周商公路1号,884102
万科金域蓝湾,19,17944,0.076919,120.869286,32.055436,永怡路558号,917827
云谷周庄,9,11229,0.034377,120.869422,31.153519,大桥路,884337
友谊家园,3,28500,0.046779,120.879683,32.036663,濠东路228号,917398
锦江苑,2,10274,-0.398871,120.865595,32.034008,钟秀中路,917386
金科东方水榭,1,13021,-0.122038,120.873321,31.262356,柯福路1号,888198
天邻湖景,5,15655,-0.022673,120.878957,31.239350,甫澄南路18号,888177
明丰环湖花园(别墅),3,15454,0.015375,120.864245,31.042316,城司路666号,417641
碧桂园湖悦天境花园,415,17593,-0.002961,120.863794,31.037428,清河路,941269
水月周庄(别墅),36,15269,0.069967,120.865385,31.130888,全旺路88号,884641
阳澄尚东,3,8462,-0.031085,120.871098,31.376688,君子亭东路,884245
彩虹岛花苑(别墅),1,12631,0.128592,120.869267,31.060598,彩虹路2号,887332
万科爱情公寓,2,9779,-0.025655,120.867306,32.057179,北大街108号,917825
银杏苑(北区),1,6419,-0.090020,120.860939,31.377949,君子亭路，近下塘街,946579
假日半岛(别墅),5,10452,-0.008748,120.868355,31.121194,全功路,883660
顾家花苑,30,4818,-0.196867,120.864196,30.754266,中华大道,889800
景丽茗苑,2,7543,-0.096196,120.861300,30.540342,招宝路,890511
桃源东湾,17,8766,0.197166,120.861509,30.671209,凤篂路548号,889985
富泽苑,2,8260,0.143384,120.873466,31.378483,君子亭东路,883480
平湖瑞园,1,15053,-0.037163,120.860762,31.246098,湖滨路188号,888167
金桥名苑,2,9175,-0.042429,120.863346,30.746797,广益路,889879
春晓苑,14,9930,0.024265,120.870895,31.713460,寺泾路,884784
凤华丽都(南区),3,4950,-0.009861,120.860040,30.665083,新康路,889779
月亮湾,57,11039,-0.016828,120.874323,31.055519,康力大道588号,792708
万科未来之城,53,14149,-0.056713,120.869609,31.339062,晨丰路288号,1032529
太阳湖大花园,45,16923,-0.027961,120.875842,31.086002,张园东路88号,13044
碧桂园凤凰岛,6,11327,-0.136589,120.873310,31.246014,湖滨路68号,888124
天明花苑(A区),1,6558,-0.195437,120.860462,30.751974,夏云路,889992
凤南新村,16,6959,-0.086373,120.866883,30.659701,凤南路,889782
南湖秋月,1,12094,0.079411,120.862609,31.116187,富贵路2号,884576
光明新村,3,10082,0.033679,120.867345,32.006905,虹桥路,917281
大众湖滨雅园,4,12887,-0.085723,120.864543,31.032656,浦港南路568号,887144
棕榈苑,1,23921,0.300701,120.866178,30.749996,天宁路,890143
水月周庄,144,12679,0.023754,120.866824,31.131208,全旺路88号,884064
华润悦锦湾,1,11769,0.190281,120.861679,32.059271,永和路,917802
海天大厦,1,11538,0.030455,120.878350,32.009856,青年中路58号,917438
梦想家园,4,12121,,120.866038,31.034196,浦港路，近江苏路,887250
碧桂园十里江南,217,15750,0.006940,120.874211,31.094671,张园东路1450号,887140
桃源林语,30,9272,0.040457,120.865377,30.670500,大桥路,628030
绿城春风十里,824,12671,0.033079,120.866473,30.670492,大桥路,795305
锦绣佳苑,211,11462,0.009356,120.860563,30.539723,招宝路,1010372
弘阳甪源,1,18520,0.020729,120.872363,31.284931,甪直大道，近甫澄北路,1005434
桂花园,1,8966,0.280864,120.860419,31.122488,全功路,883500
荷塘月色景苑,132,10138,-0.001354,120.887327,30.950897,西汉大道,605852
天安花园,2,15926,0.015209,120.888837,31.993214,洪江路88号,917239
南方大厦,19,7869,0.009137,120.885968,32.038840,工农路108号,917388
品院,1,13835,0.064250,120.883641,31.397125,古城路728号,883924
绿城玉兰公寓,3,34897,0.165564,120.891288,31.983169,世纪大道99号,917604
新城翡翠湾,7,13792,-0.032892,120.885875,31.392568,古城路668号,884185
小城春秋,187,11121,0.072218,120.881798,30.766100,嘉善大道113号,890047
莱茵河畔,13,14565,-0.030786,120.897185,31.990235,沿河路1号,917233
望江新村,66,7396,0.047620,120.891890,31.278860,震阳路126号,884130
西塘新天地,39,14732,0.060760,120.887624,30.942249,南苑路,623405
江海佳苑,1,8682,-0.305884,120.890199,32.053118,外环北路,917804
汇宏新村,2,9561,0.110394,120.897443,31.281847,汇宏路,883622
东方雅苑,1,8888,0.066219,120.889190,32.026003,工农路附87号,917428
天都花苑(南区),1,11956,,120.897858,31.991688,沿河路，近工农南路,917240
金龙花苑,16,14002,-0.021709,120.891081,32.025286,板桥路,917460
碧水佳园,12,9668,0.029341,120.889240,31.449526,祖冲之路,883323
天馨花苑,2,37966,-0.016059,120.885658,32.024213,平安路,917504
海佳名邸,85,9146,0.000990,120.896546,31.387934,前进西路,883509
南通东苑小区,3,16477,,120.884491,32.025843,人民东路,917471
滨江花园,2,11350,0.394545,120.890592,31.967383,紫琅南路18号,917622
汇丰家园,6,10714,-0.132259,120.910586,30.820948,白水塘路,890366
山水壹号,4,17138,0.080011,120.918850,31.941103,常青路9号,917648
东鼎名人府邸,931,11748,-0.003325,120.912548,30.887146,善西公路,780044
御景湾,10,12012,0.033338,120.917205,30.830329,体育南路,890440
紫桂花园,10,7234,-0.109308,120.903396,30.890058,叶新路61号,890447
银河景苑,17,8456,0.008443,120.919002,30.844099,体育南路298号,890432
书香门邸,7,15401,0.038573,120.905626,30.827555,阳光西路,648227
龙鼎瑞园,1,9615,-0.008767,120.918292,30.835371,人民大道,890396
恒隆商业广场,3,9091,-0.006350,120.908700,30.946854,祥符路，近南苑路,941373
物美大厦,31,8275,0.161800,120.918569,30.841091,晋阳西路558号,941374
长寿路101号小区,4,6933,0.175890,120.907710,31.180791,长寿路101号,946560
金水湾,1,10364,0.325201,120.915022,31.936949,常青路,917643
中南世纪城北区,1,15310,0.020667,120.905591,31.979221,桃园路,917613
北大资源理城,1,9490,0.095177,120.908218,31.442922,迎宾路1999号,883308
白云花苑,1,11066,-0.059674,120.915306,30.819703,白水塘路,890337
御溪雅苑,7,16393,-0.038376,120.919095,31.177596,环湖北路168号,884467
临江景苑,8,11911,0.000063,120.916631,30.821231,体育南路1558号,890393
和风雅颂(别墅),1,14738,-0.000176,120.915230,31.408047,博士路99,884562
南通壹城九间堂山居,1,15832,0.036368,120.916429,31.950402,工农南路18号,917625
畅园,2,12852,-0.389091,120.917541,30.849823,丝绸路80号,890342
禾众商业广场,13,9424,-0.057858,120.901916,30.835526,城西大道,890453
海韵江南,1,8307,-0.206665,120.918111,30.517462,环城南路，近楞港路,1010355
锦园新村,5,14205,0.039467,120.910405,31.179377,长寿路,883722
水乡学府,1,7510,-0.054689,120.901101,30.897172,镇北路,890457
时代悦府,21,15656,0.000844,120.912402,31.384236,体育场路,884465
海盐碧桂园,1079,10015,-0.001177,120.917234,30.522669,出海路1000号,890516
倚林佳园,15,10788,-0.003542,120.919873,31.179927,锦虬路,884270
亚福江南春晓,29,9818,0.112297,120.902329,30.890640,窑兴路,635024
金大元御珑宫廷,20,60775,-0.013800,120.919393,31.415422,博雅路，近萧林西路,884483
绿地新都会,5,27952,0.175415,120.915186,32.027745,人民路718号,917583
水榭蓝湾,53,10351,0.084215,120.919513,31.181217,长寿东路,884061
光耀城,225,14828,,120.917339,30.864417,善西公路,1043140
百合春天,34,11519,0.043523,120.903200,30.827770,阳光西路1283号,611837
北大金城,173,10002,-0.011518,120.919038,30.861928,体育北路533号,439978
四季江南,11,10344,0.010156,120.918684,30.822539,体育南路1583号,798193
锦和苑(西区),3,11325,-0.109611,120.912115,30.832483,子胥路600号,890385
龙熹园(A区),2,7180,-0.089540,120.900347,30.894630,窑砖北路79号,890451
兰亭御园,24,14171,-0.010657,120.914852,31.413793,林荫路777号,884469
塞纳蓝湾,300,12160,0.003370,120.905387,30.823632,世纪大道,652309
润家广场,159,10086,-0.046768,120.916018,30.518114,联翔路,1010373
顺城锦湖湾,23,8727,-0.092859,120.915482,31.177596,长寿路,884066
水晶湖畔,8,13198,-0.028247,120.906704,31.091494,张元东路2号,465974
江南印象,151,11875,-0.024632,120.910211,30.946785,南苑路288号,610553
清风华院(别墅),5,26470,0.085949,120.902968,31.403944,登云路88号,884636
顺发御园,1,20649,-0.082227,120.915006,31.942055,常青路,917649
太平新村,1,9632,0.313623,120.903593,31.182737,长寿路,884425
魏武宸章,178,12164,,120.916706,30.865659,善西公路,1043139
锦和苑(东区),1,11470,0.028146,120.914033,30.832479,子胥路601号,890386
孔雀城澜院,49,13627,0.051188,120.915852,30.814112,白马线,890455
中南云公馆,1,15352,-0.014681,120.904541,31.976846,桃园路,917616
金都上品,10,10532,0.013818,120.922407,30.822638,亭桥南路,890384
罗星公寓,2,11474,-0.075209,120.938936,30.843486,罗星路,890399
纳帕溪醍,17,22891,-0.005327,120.931842,31.149217,锦商路66号,884551
硕士花园,2,5460,-0.257116,120.920613,30.848041,魏塘体育路,890416
丰泽湾,1,16595,0.056106,120.934548,31.148236,锦商路,883439
金桥公寓,1,6500,-0.127048,120.935705,31.931497,金桥路8号,917679
商盛秋居(北区),6,9154,0.123095,120.937387,30.864499,谈公北路,890409
格林春天,63,11974,0.002302,120.928175,30.852383,车站北路118号,890362
楠林水岸,211,11258,-0.048360,120.931882,31.073242,沪青平公路8499弄,8562
华德力公园壹号,7,9411,-0.109144,120.935274,31.278722,翰林路，近通湖路,883592
凤凰花苑,19,6997,-0.057950,120.929017,30.624229,嘉盐路,614808
永福花园,4,9176,0.001309,120.922842,30.841239,晋阳西路,890437
常和景苑,1,5419,-0.104511,120.924752,30.521733,曲秀路,890463
龙柏花苑(北区),2,81000,,120.933598,30.843436,罗星路,890394
鑫河湾,7,20901,0.014028,120.926215,31.181492,长寿东路,884210
商榻老街小区,108,8302,-0.118115,120.934063,31.127372,商榻北路278号,652550
长泰花园,36,11527,-0.056166,120.936223,31.744674,扬子江大道7号,885251
森隆满园,2,13145,0.227987,120.935652,31.293709,京东路,883993
华庭公寓,1,12329,,120.931769,30.853703,环北东路,1043134
景辰家园,9,9111,-0.050016,120.931292,30.823742,嘉善大道,890388
嘉樾府,2,17298,,120.927050,30.854156,环北西路182号,1043138
乔克国贸中心,152,12148,-0.048618,120.932108,30.826874,嘉善大道518号,941368
景河苑,18,12820,-0.391213,120.921531,32.022648,国胜路,917581
淀滨宝岛别墅,17,16217,0.002126,120.930578,31.118617,宝银路175号,817491
商华新村,25,10722,-0.166461,120.929428,31.122566,商榻商周路28弄,559269
龙柏花苑,15,21388,0.110346,120.933623,30.843572,谈公南路,890395
首创青旅岛尚,10,12303,-0.029035,120.921143,31.162634,同周公路，近溪锦商公路,884049
玉兰新村玫瑰里,1,13058,0.129695,120.933092,30.844792,罗星路,890439
舜江碧水豪园(南区),1,10227,,120.936694,31.292733,京东路688号,884068
银泰花园,4,7008,0.006174,120.939321,30.864744,谈公北路777号,890434
开元广场,5,10045,-0.217001,120.922324,30.834429,人民大道1023号,941372
金溪五村,26,13855,-0.091853,120.931755,31.040830,培育路125弄,818155
嘉华春晓,59,11858,0.001368,120.939936,30.824398,农商路163号,890369
江南乐章,1,11816,0.057725,120.922791,30.838540,亭桥南路438号,890377
新城海上风华,122,11723,0.063760,120.926520,30.827400,世纪大道，近车站南路,952781
解放三村,1,11738,0.245893,120.936887,30.847888,谈公南路,890379
新景花园,6,6548,-0.084468,120.936771,32.280264,解放路,918254
优山美地花园(别墅),9,17500,-0.000057,120.921942,31.944042,星湖大道1888号,917667
置地公馆,42,7274,0.016709,120.934595,30.830520,阳光路，近嘉善大道,890459
商盛秋居(南区),5,8834,0.001320,120.936098,30.863089,谈公北路,890410
罗马假日,2,11333,0.090445,120.927624,31.406966,花园路，近虹祺路,883838
蓝天家园,1,11265,0.011638,120.920354,30.835976,体育南路855号,890390
天地华城,21,15734,0.005804,120.924757,31.388292,前进西路1188号,884094
双龙景苑,158,6859,0.079272,120.926607,30.707550,平林路,889977
润土嘉和,66,7970,-0.192564,120.927525,30.853665,环北西路115号,790520
中南世纪花城一期,3,17897,0.379269,120.927071,31.986506,世纪大道，近盘香路,917615
顺城名湾,54,8553,-0.009444,120.939273,31.280946,翰林路,884067
金华新村,66,22854,0.188124,120.931841,31.120776,宝银路21弄,818553
东方名嘉(西区),13,10867,-0.012382,120.934785,30.837153,嘉善大道,890352
中兴花苑,1,6675,0.133798,120.936435,31.925488,厦门路,917705
万联城,169,10610,0.010533,120.933918,30.824594,嘉善大道688号,890458
张浦裕花园,50,10443,0.004661,120.935724,31.284597,锦上路,884348
景辰大厦,6,11523,0.073061,120.931777,30.824494,嘉善大道666号,941369
优山美地花园,4,17945,0.026832,120.922271,31.945773,星湖大道1888号,917661
丰泽湾花园别墅,42,17228,0.003150,120.938791,31.127482,锦商公路4781弄,8732
昆城博奥苑,1,11666,0.001116,120.935677,31.376833,江浦路,883768
银河新都,32,20287,0.191563,120.939134,31.285124,银河路,884277
常绿景苑,3,8974,-0.018729,120.924286,30.515735,河南西路298号,890465
日月星辰,7,40309,-0.009861,120.932076,30.850654,解放东路76号,890406
解放一村,1,10500,-0.286588,120.934533,30.849764,斜家桥路,890381
万联花园,441,12874,0.035145,120.928326,30.824385,世纪大道,890421
滨湖绿洲,18,10993,-0.006695,120.926045,30.819710,白水塘路,890340
学仕嘉园,1,10102,0.093371,120.939564,30.842746,罗星路539号,890427
盈湖花园,137,7972,-0.048640,120.939845,30.828816,农商路333号,890435
雪松里,1,6703,-0.021486,120.935423,30.844455,谈公南路,890428
华鼎贝沙港湾,1,6474,-0.030983,120.924662,30.515678,曲秀路303号,890482
金汇智博广场,1,9294,0.056565,120.934809,30.514062,百尺南路,890510
碧悦湾,155,8339,-0.060850,120.939673,31.300015,振新西路999号,883324
富民新村,2,10363,0.141891,120.937565,31.926210,厦门路,917707
东方名邸,18,7867,0.005419,120.935080,30.855117,谈公北路274号,890351
东方名嘉(东区),7,12582,-0.000842,120.939419,30.839014,晋阳东路,890353
中大未来城,2,19690,-0.040202,120.921576,31.388959,共青路,884364
滨江花苑,15,8658,-0.049984,120.923927,30.846426,中山西路228号,890341
金汇智博,1,8567,0.065572,120.934809,30.514000,百尺南路，近环城南路,890509
金域蓝湾,5,11046,0.064952,120.933610,30.515432,百尺南路,890486
世博帝宝花园,15,13486,-0.024005,120.934077,30.828770,嘉善大道,730498
嘉河花苑,1,10000,0.021033,120.925936,30.844046,亭桥南路,890368
嘉园城市心境,6,10151,0.178489,120.927113,30.838843,车站南路576号,890375
金水湾花园,17,7037,0.014948,120.933238,32.357631,交通东路7号,918264
明鑫凯迪城,2,15140,0.060733,120.939931,31.385595,虹桥路118号,883753
世博名邸,9,10740,0.025029,120.934770,30.833378,嘉善大道,890412
铂金广场,74,9114,0.311424,120.933081,30.821509,环城南路，近嘉善大道,941378
万丰公寓,1,11818,0.218225,120.928586,30.714300,万丰路,890005
瑞香花园,8,11282,-0.004324,120.928218,30.854368,瑞香路16-18号,890407
快乐颂,1,28432,0.209535,120.931352,31.405573,园路2115号,883766
馨逸家园,88,10114,-0.133055,120.928929,31.285143,江浦南路,884207
淀山湖别墅,108,25010,0.000408,120.924067,31.071855,金商公路1348弄,877245
昆城博奥苑,1,12142,-0.010513,120.935851,31.377094,朝阳西路,883333
富康花苑,3,16388,-0.339297,120.935130,30.836051,人民大道758号,890361
金溪三村,53,11660,-0.077378,120.930354,31.042053,金溪三村,818152
恒利国贸广场,2,6716,-0.021675,120.926560,30.846064,中山西路118号,941375
嘉景公寓,1,8491,0.060762,120.935733,30.840254,晋阳东路179号,890370
中南世纪新城,1,14247,-0.059616,120.920737,31.991142,观新路，世伦路,917608
上海威尼斯花园,96,17321,0.005518,120.927180,31.072862,沪青平公路8600号,8734
万丰苑小区,3,9482,0.030690,120.922097,31.369583,中华园西路,884127
风景英伦,3,14465,-0.082908,120.924809,31.410669,萧林中路,883443
嘉都名苑,6,11094,-0.002813,120.922116,30.850030,花园路55号,798192
中信花园,4,9652,0.125992,120.930827,30.852600,车站北路,798066
海图公寓,36,12923,0.250097,120.931694,31.119237,宝银路139弄,8603
上城春天里,1,8947,,120.922953,30.518983,曲秀路336号,1010362
东方润园,60,15518,0.073857,120.928365,30.707788,平林路928号,889755
清水湾(别墅),5,23905,0.245402,120.928420,31.404910,花园路2813号,884637
东方名嘉(南区),2,10265,-0.046741,120.938944,30.836028,施家南路668号,890354
香榭水岸,2,13433,0.007504,120.939986,31.388613,马鞍山中路,884161
天居华庭,14,14279,-0.019400,120.921105,31.385571,前进西路,884098
星宇花园,1,7725,-0.141600,120.925386,31.954198,源兴路567号,917658
枫丹御园,20,12086,0.000952,120.928903,31.177136,环湖北路118号,883444
御翠花苑,11,8967,-0.031064,120.926549,30.705304,平林路969-971号,500443
嘉善置地广场,314,7771,-0.032015,120.932625,30.840969,嘉善大道399号,890454
星海花园,2,19480,0.387723,120.943334,31.390403,马鞍山东路287号,884216
大公小区,6,9372,-0.036935,120.946090,31.365873,中华园路,883375
双洋湖水秀庭院,32,14325,0.390681,120.958657,31.250267,天盛路68号,884054
嘉善博文府邸,22,11707,-0.005699,120.945316,30.844108,环城东路288号,941376
金都花园,4,9249,0.000893,120.959240,31.411565,北门路,883689
大众湖滨花园东区(别墅),32,16396,-0.002752,120.958678,30.826827,之江路,890347
M旭辉城,171,16508,-0.024741,120.959234,30.913100,姚庄大道，近兴学路,1023389
绿城花苑,1,7749,0.178593,120.947103,30.523231,勤俭北路250-6号,890487
景秀苑,21,9383,0.057835,120.950314,31.413388,水秀路,883735
常发香城名园,74,11245,0.014557,120.957181,31.367486,中华园路1558号,883344
尚城国际花园,4,24919,0.074883,120.954838,31.429482,北门路1388号,884008
文曲佳苑,3,7051,-0.083333,120.945597,30.536485,海丰西路208号,890494
桃源新村,5,12599,0.170830,120.959706,31.385348,中山路,884090
逸景湾,1,9824,0.015216,120.946261,31.411153,萧林路,884273
海韵华庭,1,7560,-0.142371,120.952148,30.542992,长安北路333号,890477
中达美林(三期),2,13258,0.015316,120.958934,30.552420,丰潭路,796261
淀山湖上海岛庄园,13,22517,0.040062,120.945960,31.155139,锦商公路,883395
东方曼哈顿,4,30874,0.395658,120.948037,31.386979,白马泾路,884417
金汇奥园,7,8302,-0.165277,120.958877,30.536952,新桥北路,890517
嘉辰花苑,47,10447,-0.001262,120.947039,30.855605,施家北路,798191
嘉德花苑,5,10526,0.004198,120.949191,30.873575,汾湖路150号,890367
桃园小区,4,11843,0.070269,120.949667,31.236482,桃园路，近洛阳西路,884512
春晓苑,12,10106,0.010261,120.957695,30.824000,之江路,635121
名都花园,2,8664,-0.145309,120.950298,31.409604,水秀路643号,883884
金谷园,1,31394,-0.072970,120.951768,31.383764,白马泾路,883692
水云庄园,4,9470,-0.008994,120.951710,30.546043,长安北路488号,890491
锦楠苑,3,8562,-0.036525,120.959580,30.788573,云寺西路,795254
虹桥大厦,1,21009,-0.099593,120.941702,31.387234,前进西路1098号,946505
月亮湾,24,11825,-0.047689,120.958779,31.236010,淞沪中路171号,884452
芳满庭,1,10680,,120.952762,30.545689,长安路，近华丰路,1010354
京浦花园,1,7932,-0.008438,120.954027,31.297836,亲和路,883725
胜利新村,4,10667,-0.038376,120.953235,31.426650,北门路,884023
中都华庭,6,11696,0.091323,120.956360,30.785029,康兴西路，近云溪北路,952782
富康花园,2,12112,,120.953962,31.418400,环庆路,883472
巴比伦国际广场,64,14517,0.038823,120.958761,31.367202,人民南路998号,883275
小城春秋,69,11972,0.029867,120.955794,30.831816,福泉山路，近之江路,941364
华润橡树湾,1,18724,-0.024394,120.955287,31.937197,复兴东路588号,917696
城市花园,1,6466,-0.080358,120.944815,30.521849,朝阳西路151号,1010352
新城家园,3,13758,0.039064,120.959701,31.406076,北门路,884186
盛巷小区,1,8529,-0.027923,120.947111,31.303579,港浦中路,884032
湖光里小区,8,15497,0.325366,120.958835,31.250298,天盛路68号,883563
金汇奥园,10,10212,0.056268,120.958892,30.536915,海丰路，近新桥北路,890508
仁宝新天地,50,9040,-0.011092,120.957675,31.369061,衡山路1399号,883979
阳光家园,1,10000,,120.940306,30.523809,百尺北路3号,890513
润江花园,33,15833,0.267308,120.951643,30.787413,云寺西路139号,890408
玉虹新村,1,12647,-0.138370,120.959071,31.381266,朝阳路,884308
昆山国际模具城,13,8195,-0.134604,120.952842,31.462115,北门路，近玉杨路,946552
金科集美嘉悦,36,13685,-0.194974,120.959629,30.914493,兴学路，近姚庄大道,1040369
世茂新界,33,8850,-0.213276,120.956452,31.925999,新河东路,917686
苏家浜小区,1,9646,-0.211750,120.948513,30.828372,阳光东路458号,890417
紫荆花园,2,10568,-0.091862,120.959701,31.408315,北门路329号,884399
风泽泗洲,2,12146,0.226249,120.948145,30.838499,晋阳东路589号,890360
胜利小区,1,9859,0.232375,120.954477,31.427110,杜桥路1号,884022
名城花园东区,5,9519,0.002100,120.952418,31.285802,商秧路，近海虹路,989820
合景天峻,468,11417,-0.005869,120.943759,30.547666,百尺北路，近华丰路,1018747
象屿两岸贸易中心,6,13879,-0.159319,120.954026,31.363366,创业路，近珑庭路,926374
明珠花园,2,7095,-0.053880,120.948701,31.924050,上海路,917682
南庭嘉园,2,16970,-0.070924,120.955274,31.370491,衡山路,883903
南塘琴园,1,7647,-0.247194,120.943930,30.519677,朝阳西路94号,890488
阳光逸品,1,13679,-0.034719,120.953021,31.432174,永丰余路1579号,884255
富新园,1,5385,-0.060225,120.943500,31.922248,振兴路91号,917675
盈都海棠湾,1,8583,0.030007,120.950378,30.542896,长安北路382号,890501
开心公寓,6,9758,-0.061731,120.954895,31.354361,熊庄路,883751
金洲阳光,18,8274,-0.030443,120.945645,30.546548,华丰路，近百尺北路,1010359
明珠花园,1,9399,-0.037943,120.959591,31.403359,花园路761号,883889
巴比伦国际广场(商住楼),20,15247,0.016344,120.959108,31.366679,人民南路998号,946585
中山新村,3,11577,-0.099257,120.956975,31.384319,中山北路,884379
大运府邸,41,11166,-0.059851,120.957746,30.787590,云寺东路,890346
滨海未来城(人才小区),42,8818,0.035059,120.952811,30.547694,华丰路，近长安路,941363
新公馆花园,1,12666,,120.951783,31.384555,震川西路,884196
亭林山庄,1,19905,0.080384,120.952031,31.391434,马鞍山东路189号,884109
丁香花园,10,8878,0.012442,120.941928,30.858361,施家北路378号,941370
上海星城花苑,49,8355,-0.206397,120.943267,31.290604,新吴街288号,884004
赵厍花园,5,15517,,120.940230,31.380273,明星路,884355
金洲海尚,758,11222,-0.005943,120.941722,30.548217,百尺北路，近华丰路,1010358
郁金香花苑,1,70312,0.347799,120.946490,31.402094,花园路1555号,884318
杜桥景园,2,10550,0.055000,120.953568,31.428226,永丰余路,884602
澞和苑,2,12921,0.049014,120.954707,31.378168,朝阳西路,884305
太阳岛高尔夫别墅,2,32272,0.397843,120.950027,31.257293,碧云路195号,884080
象屿珑庭,9,13647,0.028444,120.955043,31.364766,中华园路1555号,884168
名城花园,71,8449,0.152913,120.951388,31.281697,商秧路,883883
嘉兴苑,29,12252,0.043557,120.958786,31.425531,北门路1209号,883651
海上印象花园,1,9208,0.110145,120.942945,31.294426,京东路555号,883511
象屿珑庭(二期),22,13662,0.077407,120.955062,31.364081,珑庭路,989806
东方丽都,1,6133,-0.230993,120.954940,32.137715,东环路，近三总路,918460
泰和苑,2,14044,0.201780,120.956330,31.379331,朝阳支路63号,884082
古荡佳苑,119,8364,-0.000257,120.945976,30.544962,华丰路,890472
西桥新村,1,11156,0.024256,120.957158,31.381562,朝阳西路,884142
鹏轩,109,8350,0.140366,120.955459,31.355770,小渡河路,883923
南桥温馨家园,2,6670,0.000720,120.946248,30.875243,外环东路,502616
南街小区,1,12443,0.106044,120.958497,31.383959,南街,883901
象屿珑公馆,63,12878,-0.011528,120.954893,31.362353,九华山路,884167
翡翠公馆,1179,12426,0.006435,120.944333,30.875380,申友路1号,908960
永丰大厦,1,7906,-0.154348,120.952061,31.410151,萧林路1043号,946523
景瑞望府,1,9035,-0.015875,120.952369,31.932467,惠泽路18号,917681
友谊苑,2,13186,-0.148777,120.955710,31.471907,陆苑路,884299
四海家园,2,7036,-0.085865,120.949359,31.935878,复兴路,917688
北城新境,3,10556,-0.011319,120.955218,31.454996,迎宾中路,883307
凤凰名邸,40,9482,-0.003007,120.951314,30.586988,盐佳路,1010371
水韵金城,13,11328,0.144378,120.940995,30.882028,木业大道643号,556488
水木晶华,16,10000,,120.956033,30.839593,晋阳东路859号,890414
汇杰雅苑,1,10625,,120.959559,31.368344,衡山路,883623
昆城景苑,56,16056,0.070692,120.959798,31.372163,衡山路1500号,883770
保利壹品,5,8530,0.070960,120.944935,30.535052,海丰西路283号,1010350
水秀江南,2,12910,0.077539,120.950034,31.415366,水秀路1207号,884674
桃花源,1,26262,0.171403,120.957789,31.401073,娄苑路818号,884086
中港白金大厦,415,9898,-0.010195,120.963976,31.933455,长虹路6号,995630
紫照花园,3,9522,-0.047740,120.969171,31.403530,同心路,884402
东方新村,15,12148,0.059242,120.968231,31.378809,朝阳西路,883411
菁英汇,2,13852,-0.068152,120.972942,31.354978,创业路588号,883728
西苑新村,4,16893,0.081395,120.976821,31.385175,珠江路,884145
世茂蝶湖湾(二期),75,8576,0.008253,120.973599,31.345364,新南中路288号,989818
锦绣佳苑,10,10353,-0.058732,120.970562,30.917252,洪福路，近锦绣大道,1040368
海盐金色江湾,767,11877,0.006086,120.961207,30.546897,新桥北路,1010370
柏庐天下,84,8781,0.003990,120.962613,31.356300,普陀山路,883292
万豪佳园,2,8532,0.054958,120.973252,31.613411,支塘集贤路,794389
江南新村,1,15555,-0.194959,120.970817,31.386385,柏庐中路278号,883676
皓康小时代,12,9613,-0.139065,120.961811,31.436819,昆北路,883522
嘉汇城市广场,162,11454,0.187574,120.963072,30.841260,惠民大道,801496
春漪园,2,10000,-0.001199,120.976175,31.374464,珠江南路,883369
中景名苑,1,9108,0.067116,120.978218,30.840654,惠民大道359,890452
盛世钱塘,4,8996,-0.021749,120.966085,30.544082,城东路,890489
汇景公寓,6,13186,0.014230,120.969399,31.366054,衡山路,883624
四季华城,120,14280,0.268354,120.964945,31.364694,中华园路836号,884071
中华园,87,8715,0.000896,120.975454,31.360056,衡山路,884370
柏盛园,9,12594,0.018709,120.971707,31.370873,柏庐南路,883294
长泰淀湖观园,64,15068,0.011458,120.973982,31.172827,锦耀路333号,998762
东方经典花苑,5,7646,0.119688,120.965034,30.913943,汇源路,594604
淀滨新村,101,12740,-0.012545,120.973268,31.071199,岑中路96弄,652346
昆山柏盛园,6,12773,0.066198,120.971974,31.371522,柏庐路,883773
新城域,83,8974,0.029232,120.970059,31.339016,长江南路88号,884191
祥生悦澜湾,743,12134,-0.012187,120.966466,30.536712,城东路,994851
万和家园,10,13349,0.031850,120.966441,31.912501,广贤路,917725
万科初见,59,9606,-0.023585,120.970358,31.467624,长江北路999号,884428
康怡园,20,11920,0.123727,120.977213,31.377236,朝阳中路465号,883762
新城金樾,472,10070,0.004629,120.979782,30.681138,九场公路，近S202,1023925
跃进新村,5,14821,0.063886,120.966516,31.374740,跃进路,884332
长江绿岛,47,8749,-0.101433,120.960075,31.472790,长江北路,884351
富贵花园,2,9229,0.046067,120.967400,31.406246,紫竹路,883467
上海公馆,8,14657,0.387059,120.976955,31.369594,珠江南路33号,884001
时代御湖,57,14174,0.015896,120.973309,31.194803,锦淀路189号,884038
衡山城,54,11290,-0.019854,120.961430,31.365346,中华园路1518号,883545
阳光昆城,36,10833,-0.046466,120.962421,31.406910,紫竹路500号,884249
百可世家,1,10759,0.329129,120.960203,30.525096,海滨东路,1010348
新城柏丽湾,29,10403,-0.028576,120.961945,31.342168,小澞河路,884184
雍景湾东苑,2,11713,-0.051539,120.974205,31.373929,柏庐南路1111号,884289
碧桂园云谷,11,9623,0.170897,120.963523,31.938144,通盛大道，近宏兴路,1016079
枫景苑B区,3,8779,0.006062,120.962014,31.354442,雁荡山路,883446
碧桂园中央公园,406,10408,-0.010364,120.973605,30.549029,盐北路，近滨海大道,1032296
吉田国际广场,2,19211,0.038863,120.968596,31.358068,创业路666号,883632
朗峰裕花园,2,12886,-0.085451,120.975054,31.369554,庆丰西路573号,883792
海盐金色海岸,14,10957,-0.066824,120.967859,30.537590,新桥北路281号,890507
雍景湾南苑,6,14205,0.011619,120.971222,31.374079,柏庐路,884290
海棠花园,2,17783,0.043437,120.966763,31.959648,通盛大道313号,917639
大德玲珑湾,48,9984,0.001018,120.964679,31.410027,萧林路699号,883372
朝阳新村,126,14273,-0.006788,120.963697,31.376115,合兴西路,883350
宝领新村,96,8766,0.011673,120.967200,31.366864,衡山路,883302
二0九弄,1,12861,-0.037775,120.960016,31.404977,北门路209弄,883310
优优滨海,65,10179,-0.027296,120.967627,30.546657,盐北路，近滨海大道,890515
恒天花园里,95,13076,0.171580,120.968853,30.847843,泰山路81号,727136
中星城际广场鼎苑,4,12042,0.001884,120.962030,31.361504,九华山路60号,884381
合兴苑,1,9118,0.046025,120.977852,31.371721,合兴路343号,883530
明珠苑,1,10453,0.018983,120.964878,30.540130,海兴东路21-2号,1010360
枫景苑A区,35,9788,0.053509,120.966585,31.353207,柏庐南路,883445
澳洲阳光,5,9738,-0.136793,120.971192,31.399978,柏庐北路,883274
天华佳园,29,12562,0.001451,120.966205,31.373110,合丰路,884097
金山大厦,1,16129,-0.001609,120.965225,31.382775,南城河岸3号,884415
新港湾,1,15306,-0.149639,120.971975,31.407964,柏庐北路,884195
亭林路194号小区,3,18514,0.136011,120.960931,31.392881,亭林路194号,884543
恒大御景,175,9976,0.006386,120.967946,30.544005,海兴东路,890481
江南春堤牡丹苑,16,8783,-0.024869,120.965097,31.312484,俱巷路913号,883669
滨海一号,6,9632,-0.012553,120.965231,30.525788,城东路490号,890505
海韵花园,1,6955,-0.002881,120.968647,31.956330,通盛大道311号,917640
澳洲花园,36,9669,0.020507,120.965784,30.916477,新景南路,890335
花园新村,1,9090,-0.079773,120.967805,31.996259,花园路,918634
博悦城,127,8712,0.307375,120.969667,31.362492,中华园路,989846
怡馨苑,4,22075,-0.009274,120.961685,31.389591,亭林路,884264
九方城天悦,3,13530,-0.038596,120.963451,31.412843,紫竹路，近友缘路,883738
城南印象,139,8450,-0.012907,120.967388,31.365931,衡山路,884540
江南春堤二期,5,8552,0.026176,120.964615,31.319390,振新东路898号,883667
丽水湾(西区),3,13171,-0.021740,120.962395,31.243903,商鞅湖路,883806
金色海岸,306,10796,-0.003985,120.967895,30.537530,海丰路，近海滨大道,890518
加州阳光城,38,8353,-0.025746,120.971799,30.913332,洪福东路666号,527415
海景苑,9,8951,0.138420,120.965404,30.533612,城东路,890475
新城香溢紫郡(商住楼),2,10769,-0.129989,120.971796,31.337417,青淞路，近长江南路,884709
水岸花苑,1,8664,0.386240,120.970002,31.612950,支川路98弄,885112
青春里,6,22698,0.000163,120.961745,31.387899,前进西路218号,883952
新城香溢紫郡(北区),1,10170,-0.009085,120.972311,31.337617,青淞路,884190
新城香溢紫郡(南区),10,10954,-0.043253,120.972085,31.335900,青淞路，近长江南路,946584
月城湾新村,12,21342,-0.072065,120.969674,31.385820,震川路,884329
中兴兰溪荟,4,7081,0.085500,120.967066,31.941026,景微路，近宏兴大道,1016076
金洲海景,151,10552,0.007736,120.969418,30.548988,盐北路，近滨海大道,940422
新城天地,12,15084,-0.006340,120.976082,31.377858,柏庐路,884189
开元悦都,95,9117,-0.014723,120.976414,30.680646,曹丰路,993644
丽水湾(东区),5,12138,0.154398,120.964356,31.243084,商鞅湖路,989826
枫景苑C区,66,8768,-0.008290,120.960143,31.354543,雁荡山路,883447
阳光城翡丽海岸,352,10869,-0.001575,120.973138,30.545631,滨海大道，近华丰路,1018748
竹园四季花城,3,11952,0.088741,120.964497,31.399577,紫竹路,884396
盛荣花园,37,10020,0.081809,120.968765,31.415729,紫竹路,884030
海盐金色海岸,26,10760,-0.015882,120.967900,30.537590,海丰东路,890506
金泰花苑,11,10615,-0.009919,120.971478,31.616012,集贤路18号,885344
嘉尚年华,69,10978,-0.043882,120.972134,30.851012,东升路129号,890460
万豪佳园(别墅),1,8334,-0.030149,120.973989,31.612781,支塘集贤路,885303
江南春堤三期,2,7672,-0.065961,120.966810,31.323659,周巷路,883670
江南春堤玫瑰苑,50,7292,-0.041456,120.963603,31.314504,俱巷路894号,883668
世茂蝶湖湾,72,9961,-0.030073,120.969312,31.347002,新南中路288号,884042
长泰淀湖观园(别墅),52,24336,-0.020993,120.974260,31.175128,锦耀路333号,884353
德信泊林公馆,6,9793,0.010994,120.966158,30.533547,城东路,890468
江南春天,6,10849,-0.065780,120.964427,31.415275,紫竹路689号,883672
滨江丽景,39,10857,0.049261,120.976049,31.399132,永芳路,883327
江南春堤一期,5,7376,0.050940,120.964451,31.318917,振新东路,883671
新港湾(别墅),1,17595,-0.181238,120.973194,31.408142,柏庐北路,884526
利得国际,5,8947,-0.033065,120.978930,31.355029,长江南路666号,884707
嘉丽花苑,58,7136,0.093892,120.964335,30.884368,里泽大道210号,890371
巴黎海琴公馆,74,8317,0.087675,120.967084,30.530635,枣园东路,890502
景江花苑,4,6193,-0.256875,120.965601,30.914956,新景南路192号,617044
宝领家园,3,11929,0.014495,120.967652,31.367216,宝领路51号,884676
滨江花园,3,11522,-0.091894,120.978670,31.406441,汉林路,883325
万科海上传奇,287,16826,-0.015197,120.967917,31.187395,周同公路，近锦东路,993646
日月星城,12,8278,-0.068703,120.985950,31.368201,长江南路1138号,883982
金色港湾,5,11682,0.028363,120.995688,31.395472,桃花江路181号,883701
凤凰城,2,11903,0.232007,120.983663,31.420095,长江北路288号,883452
巴比伦花园,12,11992,-0.004916,120.987330,31.412614,长江北路289号,883276
江南明珠苑,5,13513,0.039481,120.982022,31.411384,长江北路198号,883675
青晨涵璧湾,52,28873,0.322028,120.984835,31.061093,练西公路3585弄,818517
莲花小区,113,11070,-0.014453,120.994401,31.054442,练西路2755弄,306889
中楠双水湾花园,87,10388,0.000424,120.996377,31.399586,昆太路458号,883951
国际华城,245,12723,0.002829,120.984394,31.092741,沪青平公路7502号,862559
上郡花园,11,8074,-0.108835,120.997197,31.272704,少卿西路，近宏洋路,926377
中楠都汇广场,2,22222,0.320145,120.986664,31.409264,萧林东路,884377
金塘园,5,25454,,120.986567,31.414867,金浦路,883706
鑫茂东苑,52,10055,0.052790,120.988372,31.476689,鑫茂路360号,884669
华敏世家花园,1,12696,0.002701,120.991774,31.388780,前进中路,883600
宝成铂金国际大厦,1,17261,-0.065244,120.984141,31.421708,长江北路，近富士康路,884444
君悦豪庭,8,11578,-0.032043,120.985014,31.381082,长江中路168号,884622
君临天下花园,3,10195,-0.004880,120.991011,31.412776,白塘路555号,883747
合生国际花园(别墅),24,25508,-0.014907,120.994772,31.466339,迎周路99号,884607
杉欣花园,76,10145,-0.041616,120.989612,31.393192,同丰西路,883997
新城丽园,5,10000,-0.003289,120.989286,31.365254,庆丰路,884188
翡翠名都(商住楼),5,10000,-0.062266,120.985320,31.369811,合兴路，近长江南路,946537
昆山万达广场,3,11115,-0.022586,120.997549,31.418372,青阳北路238号,884419
名人华城,10,8675,0.110509,120.996014,31.278103,宏洋路,883888
澳宇花园,1,14375,0.109696,120.982041,31.417750,长江北路,883273
昆山玉兰公馆,243,23162,0.011452,120.980419,31.359020,长江中路,946535
鑫茂花园,1,11620,0.022490,120.980793,31.473599,万安路,884212
宁静花园,2,13442,-0.022367,120.987460,31.398335,昆太路568号,883908
云澜湾七里别墅,298,13598,-0.040948,120.984242,30.819913,大云云澜路888号,890444
翡翠名都,5,9961,-0.002803,120.984953,31.369489,长江南路,883435
保昆公寓,1,9146,-0.320202,120.984023,31.386203,黄河北路81号,883304
南苑新村,4,9856,0.005796,120.981408,31.385503,震川中路，近珠江路,883906
花都艺墅(别墅),1,22605,0.019480,120.988796,31.421150,长江北路335号,884610
富力湾(别墅),80,15203,0.017280,120.997577,31.175380,万园路88号,883473
弥敦城,8,9836,-0.038420,120.982544,31.360004,衡山路，近长江路,883880
华青公寓,4,18000,,120.985990,31.394955,樾城路5号,883596
青春驿站,4,20000,,120.981237,31.423427,富士康路,883955
富力湾,135,12626,-0.020070,120.999553,31.170884,万园路88号,999689
合生颐廷(别墅),1,21237,0.087308,120.993656,31.465726,迎周路88号,884608
金茂云庭,1,10234,0.068994,120.984063,31.367186,合兴路,883697
御景苑,4,16578,-0.038376,120.988454,31.385041,黑龙江北路8号,884320
蓝海LaVíe,2,17793,-0.070002,120.985091,31.382013,长江中路,883790
泊仕公寓,2,8855,-0.095187,120.990510,31.395418,杉欣路,883332
新都银座,6,9908,0.017624,120.986409,31.380427,长江南路1233号,946531
凯悦花园,17,15857,0.350000,120.990416,31.391808,黑龙江北路169号,883755
合生国际花园,2,17387,0.374615,120.994570,31.467101,迎周路99号,883526
御澜湾,14,32392,0.097322,120.999171,31.397594,桃花江路199号,884510
景秀丽都,3,10739,0.038244,120.986450,31.365465,长江南路,883734
昆山花园,59,11161,0.058354,120.982304,31.405876,长江北路118号,883774
春晖锦苑,55,8984,0.007005,120.994015,31.402646,春晖路,883364
东方丽池,2,9806,-0.030484,120.984942,31.366453,庆丰西路298号,883407
港佳公园里,61,10541,0.018999,120.983092,31.393633,同丰西路,883484
大德世家,1,16311,0.075537,120.997580,31.415870,金浦路388号,883373
美馨嘉园,1,11967,-0.031165,120.984002,31.391694,同丰路2号,883877
绿洲家园,9,11709,0.303646,120.987132,31.380308,长江中路179号,883858
外滩印象花园,1,10607,-0.001609,120.997556,31.361393,庆丰东路555号,884125
绿中海,72,31986,-0.000295,120.993856,31.369663,朝阳中路77号,883857
湖畔家园,1,9898,-0.016826,120.988201,30.711110,城西路,892328
玖珑湾,4,14911,0.003172,120.980465,31.374186,车站路388号,883984
锦上御府,80,8052,0.026332,120.998408,31.276820,宏洋路,883715
中楠锦绣嘉园,7,10400,0.006104,120.998493,31.401800,昆太路,884378
阳光世纪花园,46,10384,0.002544,120.987280,31.401060,长江北路99号,884250
清水湾别墅,5,22742,0.124409,120.983330,31.195556,锦淀公路88号,884698
丽景花园,5,12884,0.369563,120.990092,31.390020,前进中路,883803
光大花园,1,10350,-0.126797,120.994012,31.410645,金浦路435号,883496
淀湖芳华里,46,11540,-0.001933,120.994195,31.193320,新乐路2002号,883389
纳帕尔湾山庄,27,12928,0.019919,120.996508,31.194851,新乐路1666号,883898
嘉裕广场,7,8710,-0.281011,120.991276,31.404928,春晖路,883654
永泰花苑,1,12021,-0.038376,120.981959,31.373703,车站路399号,884527
淀山湖壹号,229,14633,-0.009292,121.019264,31.150120,环湖大道,883396
摩玛自由城,12,7599,0.324124,121.012541,31.347360,金阳西路,883896
恒大名都,145,10603,-0.054224,121.016252,30.684385,梅园路,892324
云湖御墅,90,18207,-0.062425,121.004590,31.183058,万园路188号,884339
颐景园,1,28476,-0.001151,121.000797,31.413438,金浦路,884268
秦峰公寓,1,11750,0.057987,121.016288,31.278317,圣祥中路,883944
碧桂园海湾一号,1592,9357,0.013759,121.006138,30.595579,姚家路，近西场路,1030695
丽景花园,2,8051,0.023935,121.010645,31.936687,平通中路,918621
新泾路333弄小区,3,9525,-0.049156,121.018799,30.894670,新泾路333弄,1027012
金苑小区,8,7196,-0.040480,121.008552,30.712461,城西路,892342
昆山小上海公馆,27,10000,0.006137,121.017126,31.263965,炎中路，近景唐北路,884695
淀湖鹿鸣九里,49,15665,-0.039429,121.002524,31.163435,万园路66号,883391
建枫新村,109,16137,-0.098948,121.019582,30.891651,建枫新村1-4号,819379
金山嘉园,28,10862,-0.040906,121.002675,31.461911,青阳北路99号,883704
大唐华庄,1,7783,0.051270,121.013474,31.275422,泰峰路14号,883381
千灯老街,7,9604,-0.057979,121.009351,31.271734,尚书路,884529
清波公寓,2,7885,-0.221679,121.002859,30.710565,城西路451号,892367
大自然花园,4,22226,0.172851,121.000285,31.188894,新乐路999号,883387
春阳易居,1,13365,0.283189,121.002091,31.405615,春晖路,883368
平湖中荟城,2,9954,-0.007577,121.013236,30.700754,育才路705号,892416
宜家花园,27,7728,-0.051503,121.010310,31.347368,金阳路,884266
景枫嘉苑,4,10796,0.007315,121.001296,31.360625,庆丰西路,883731
培江园,1,9478,0.109687,121.010328,31.253588,南浦东路,883913
御翠湾(B区),4,7774,0.025891,121.000504,31.274055,南湾路,946559
南通金科廊桥水岸,18,8113,-0.038276,121.016670,31.845688,乐成路，近苏通路,952777
千灯尚景苑,33,8696,-0.082577,121.018052,31.268934,尚书路，近恒升路,946525
融创海越府(别墅),1,15428,,121.017869,30.728284,平成路，近新兴二路,1042302
善景园,1,8409,-0.154534,121.019591,31.251551,景塘路,883998
忆江南花园,1,12796,0.031935,121.000635,31.270106,故居路,884271
熙岸铭郡,2,10485,0.115716,121.015631,31.259319,景塘北路,884148
景江花园,14,10595,0.073283,121.001420,31.385792,青阳中路18号,883733
碧桂园世纪城,77,13404,0.082015,121.018275,31.249228,黄浦江路，近淞南西路,884430
滨海花苑,72,10410,-0.015350,121.002422,30.604963,东海大道，近西场路,940421
中南花园,2,8397,-0.009861,121.006784,30.727956,永兴路,990597
东海花苑(南区),1,7489,-0.001040,121.008660,30.599475,海港大道,890470
新浦花园,1,9973,-0.266496,121.003654,31.405581,春辉路,884198
东海花苑(北区),19,8713,-0.003687,121.005242,30.601619,东海大道,890469
吉祥小区,1,7119,-0.222370,121.010801,30.687507,梅兰路297号,892333
平湖赞城,12,9289,-0.071813,121.010603,30.704478,城南西路166号,892404
宏兴东区,1,9666,,121.015755,30.718767,兴平路245号,1042299
龙邑小区,9,10196,0.225481,121.008649,31.345165,春阳路,883827
锦城春天,5,8783,-0.001677,121.015698,30.701882,环城西路51号,892343
融创海越府,72,11155,,121.017251,30.728017,平成路，近新兴二路,1042301
青春雅居二期,6,8431,-0.049165,121.001552,31.343113,珠竹路,883953
东淀湖庄园,9,13683,-0.048484,121.006131,31.150372,湖滨路99号,883403
樱花苑,3,12027,-0.038376,121.001411,31.392026,青阳中路220号,884668
中地花园,25,9904,-0.006804,121.018307,31.273765,少卿中路80号,884366
黄浦城市花园,1,10388,-0.000520,121.015787,31.392445,同丰东路777号,883618
青春雅居一期,3,11248,-0.114337,121.001328,31.343849,珠竹路,883954
恒丰时代广场,3,8195,-0.052889,121.016280,31.263438,恒升路262号,884487
枫景家园,309,11515,0.009326,121.016492,30.890733,南大街25弄,8276
淀湖桃源,46,14097,0.015012,121.000576,31.152572,望金路，近环湖大道,883392
东恒翠园,1,11292,0.254750,121.015457,31.264721,炎中路,883415
宝卿花园,173,8587,0.026395,121.006887,31.277131,南湾路,883303
保利西塘越,49,10005,-0.042618,121.006653,30.597526,姚家路,890462
黄浦家园,28,8684,0.012350,121.017191,31.406888,金龙路,883619
滨江丽都桥语,11,8211,0.023545,121.010322,31.846640,乐成路88号,917720
都会华庭,8,10920,0.056399,121.016881,31.278128,圣祥中路,883431
卿峰丽景,2,10130,-0.299090,121.001714,31.277931,少卿西路2号,883962
芙蓉一村,12,9728,-0.028438,121.015219,30.898896,朱枫公路9295弄,366151
江湾国际中心,11,7977,-0.024786,121.002568,31.848217,江成路1090号,952778
银泰花园,1,10000,0.129433,121.017339,31.275215,少卿中路,884282
碧水云天,20,11133,-0.043012,121.009253,30.705667,城南西路,892277
御翠湾(A区),6,8560,0.112206,121.000635,31.272768,新苑路,884319
帝景天成,77,10163,0.008634,121.011204,31.390164,前进东路898号,946512
阳光嘉苑,4,8420,-0.026408,121.018516,30.722117,福臻路,892391
月亮湾,20,9423,0.063349,121.010419,30.705329,如意路,892401
绅园,22,11987,0.015493,121.004093,31.152640,湖滨路188号,884018
华纺易墅上海湾,122,16163,-0.037081,121.002749,31.149313,湖滨路117号,998761
华纺易墅上海湾(别墅),49,16563,-0.032821,121.004422,31.150699,湖滨路117号,883594
