小区,房屋数量,count,均价变动,lng,lat,地址,ID
万科金色梦想,7,11333,,120.690482,30.791467,成秀路355号,890263
胥江一号别墅(别墅),9,13725,,120.493069,31.241010,胥欣路221号,887902
嘉和丽园,7,11824,-0.006240,120.625742,31.384743,春申湖中路592号,888837
荣盛阳光名邸,2,35507,,120.642937,31.370070,阳澄湖中路128号,888873
中交美庐城,13,7375,,120.568137,32.420988,海阳北路，近惠民路,926272
柳桥长安华府,3,10561,,120.456736,30.448205,修川路630,925374
宝带一村,1,14018,,120.647454,31.272766,宝带东路,887437
香溢花园,3,37978,,120.642723,31.244259,东吴南路88号,887646
锦盛苑,4,10406,,120.652442,30.886753,中心大道1689号,887301
万城明月公馆,32,10978,,120.669092,30.522085,广顺路，近联合路,917184
得力浅水湾,1,8235,,120.098930,30.858659,港南路200号,938957
正荣华府,1,17037,,120.539317,31.270947,金枫路699号,887922
中交璟庭,1,11538,,120.622607,31.147016,秋枫街，近高新路,886862
新世纪花苑,1,9803,,120.116371,30.874309,环城东路47号,939179
公园天下,2,42222,,120.603630,31.285809,桐泾南路28号,886010
泰南路2号小区,1,15122,-0.054623,120.615737,31.298140,泰南路2号,886048
新枫公馆,2,3330,,120.518929,31.295665,观音路369号,887892
绿景苏州公馆,17,11075,-0.014066,120.601576,31.220431,塔韵路199号,1002470
天翔花园,1,33070,,120.673873,31.322001,苏绣路，近星桂街,888422
置信公寓,3,7058,,120.680564,30.763697,洪高路1507号,1012475
城市水岸,1,14945,,120.666975,31.297083,文萃路399号,888311
宝石花园,62,9041,0.001024,120.329400,30.780567,维多利大道,939216
盈都牡丹城,2,7500,,120.678911,30.540839,洛隆路282号,891812
招商依云水岸(别墅),102,15647,0.002756,120.664875,31.375523,阳澄湖东路98号,888906
树诚望湖壹号,2,12500,,120.357805,30.432396,米兰路，近锦绣路,952793
如皋万都广场,2,10750,-0.022727,120.560679,32.391634,益寿路502号,1010385
江海新村,5,5818,-0.091079,120.434499,31.964680,中兴南路,889360
嘉宝花园一期,1,25416,,120.646847,31.275758,迎春路174号,887501
佳源罗马都市,20,11084,-0.001599,120.549718,30.637551,复兴北路128号,892544
盈都君悦,7,14374,0.000174,120.396764,30.360175,启潮路48号,892029
华安豪庭,112,4857,-0.006545,120.695720,32.460427,红旗东路,995408
永金公寓,1,13000,,120.629900,31.358798,齐陆路10-3号,888928
西苑公寓,1,8620,,120.678772,30.523563,联合路323号,891565
文曲路5号小区,2,17100,,120.654864,31.270500,文曲路5号,887600
金磨华庭,1,4421,,120.579745,32.288813,育贤南路，近如港公路,926277
西门北村,7,12566,0.006266,120.544705,31.871761,龙须弄，近梁丰路,889530
金都花苑,4,7500,,120.442986,31.944232,晨丰公路，近勤政路,889370
绿洲华庭,3,11336,-0.001673,120.639312,30.908196,舜湖西路，近宝龙桥路,887313
海悦府,195,11960,,120.462865,30.444866,修川路,892096
万科金色里程,2,33333,,120.550195,31.372493,藕巷街6号,885363
紫金花园,38,10161,0.001799,120.560297,30.643815,茅盾东路5-38号,993046
望河花园,1,9247,,120.693734,30.524965,联塘路,891535
中铁诺德誉园,1,15319,,120.479562,31.387808,华金路88号,886729
紫金国际,3,9875,,120.429689,31.952317,黄泗浦西路1号,889637
仁文公寓,1,22857,,120.659825,31.309064,东环路930号,888409
红旗新村,2,16310,-0.063343,120.613326,31.306832,三香路40号,885938
东振花园,1,15178,,120.664218,31.297678,东振路85号,888331
御景豪庭,34,8510,-0.003221,120.539980,31.016826,商业街315号,887133
龙山庄园,1,10344,,119.910137,31.029515,龙山大道,939538
旭辉郎香郡,25,16091,,120.694385,30.757483,育英路，近秀园路,926311
太湖花园,8,10923,-0.001668,120.108034,30.901814,太湖路699号,939142
融创太湖印,19,8426,,120.119784,30.949183,震泽路,994850
蓝湖湾,22,12980,-0.001481,120.537879,31.855617,暨阳湖大道,889409
德鸿练溪上郡,47,6623,0.005847,120.420436,30.720260,迎宾路289号,939222
旺角维多利亚花园,1,12400,,119.911700,31.025707,花菇山路,939560
紫薇花苑,2,12663,-0.004266,120.459710,31.430415,御亭路,889024
西山一品商务中心,3,6168,-0.026436,120.691835,30.534672,工人路218号,892152
白领公寓,1,12384,-0.060285,120.554828,31.284946,枫瑞路178号,886556
涵月楼花园,5,22293,-0.001903,120.409367,31.092111,雨花路,888094
姑苏金茂府,2,25000,,120.595284,31.313455,金门路,885501
香榭假日山庄,1,24615,,120.524727,31.279587,金山路,887889
东茂商业广场,82,10810,,120.647267,30.909754,舜湖西路，近西环路,887365
金星花苑一区,1,23622,,120.561958,31.435225,中市路,889050
钱江君庭(北区),5,11857,,120.567984,30.408870,中新路79号,914291
当代万国府ΜΟΜΛ,2,27368,,120.625190,31.339094,苏站路,915259
紫竹园,2,11000,,120.572151,32.385457,健康南路45号,918436
1号公馆,59,8333,,120.589161,30.632833,圆明路403号,992977
碧桂园,188,12691,-0.001789,120.468703,31.379205,华通路299号,886669
苏苑二村,1,14814,,120.648014,31.279700,吴中东路66号,887582
中山小区,2,8181,,120.551601,30.647001,中山西路，近北门大街,993045
中南世纪城,2,12170,,120.646623,31.135135,中山南路，近长板路,887080
伟业迎春丽家,1,12421,-0.040163,120.660151,31.218679,清阳路,886822
利铭花园,59,7239,0.001591,120.268921,30.725610,莫墙线,995195
公园新村,1,10915,,120.557396,31.878069,公园路，近城北路,889279
仓街28号小区,2,14000,,120.644244,31.317454,仓街28号,885868
碧桂园翡翠湾,36,9440,0.003908,120.081540,30.844649,田园路，近二环西路,1030268
恒达星湖湾,8,11250,,120.668504,31.157607,运东大道,887010
东湖新村,1,16666,,120.635108,31.232106,盛城路,887451
玉兰新村,1,35179,0.033210,120.641550,31.297141,南园北路25号,886330
中良新塍花园,6,6666,,120.616915,30.795233,兴镇路,780835
攀华国际广场,3,8888,,120.576089,31.844886,东南大道,889454
如皋碧桂园,72,5941,-0.007102,120.569095,32.414074,海阳北路,918381
绿洲华庭(别墅),1,35820,,120.640103,30.907438,舜湖西路,887359
龙源新河湾,1,4580,,120.558790,32.366996,花市路，近解放西路,1010391
万汇广场,34,9209,0.007026,120.083165,30.869895,红旗路1188号,939160
汇丰新村,13,6244,-0.000840,120.546360,30.626085,校场西路,892465
西塘小筑,64,25857,-0.006035,120.630167,31.282214,西塘北巷12号,887630
江锦云庐,5,7447,0.002389,119.900943,30.998919,紫金路,1006348
春馨园D区,1,24632,0.125263,120.567058,31.334883,春馨园路，近鹿山路,885354
百合花园,36,8965,,120.563107,30.645698,中山东路,892429
吉祥一区,1,13000,,119.974532,30.542174,吉祥街,939378
新南浔孔雀城,770,10459,0.000335,120.425475,30.843790,联谊路,995198
大运城,1,16006,0.043348,120.541454,31.262816,中山东路88号,887970
苏州城市生活广场,1,10869,,120.614273,31.348970,平泷路，近花莲路,885448
锦港花园,1,10595,0.032675,120.477147,30.995554,繁荣路,887191
恒润新新家园,2,18000,,120.577805,31.323525,新庄西路,885459
御龙湾(别墅),4,23457,0.039807,120.123571,30.879322,龙湾路208号,990892
大自然城市花园,9,10112,,119.925174,31.011068,解放东路129号,939461
南门新村,4,12317,0.007834,120.632773,31.298202,竹辉路，近人民路,886207
赞成学士府,5,10112,,120.133449,30.882939,二环东路,939201
民乐小区,4,28877,,120.002881,30.545069,武源街,939399
融创81栋长岛,2,16666,,120.562909,31.423537,春秋路5号,889062
幸福新村,2,7559,-0.005721,120.573222,30.633008,幸福路，近振福路,993037
光福锦泽苑,1,19757,0.036038,120.398108,31.305591,塔山路6号,887983
立新漾滨春天,1,11238,,120.652205,30.911962,中心大道2699号,887307
豪天花苑,195,6381,-0.000861,120.591509,32.110665,长江东路,918311
南浩街5号小区,1,22356,0.041048,120.615357,31.308463,南浩街5号,885962
万丽广场,926,11222,-0.000468,120.690858,30.764750,秀园路698号,991005
宝马花园,17,8163,,120.442023,30.527477,工农路999号,892543
平齐花苑,1,17142,,120.630746,31.333741,平齐路,885654
宏坝B区,3,8904,0.042804,120.585543,32.394269,宁海东路,918319
阳光绿城,1,8320,,120.434297,31.950463,金厦路,889576
帝景花园,1,8818,,120.657013,31.163903,流虹路138号,886877
伟业银座,6,9083,-0.003046,120.668298,31.167906,云梨路,887032
湖畔御园,23,10269,-0.001628,120.643820,31.774193,西凤路,801523
陡门花苑,1,5303,,120.645472,30.756307,新农路,890187
德尔金色摩纺,6,12878,,120.647708,30.903486,市场路1号,887353
青成名苑,13,8046,-0.003529,120.393387,30.584109,青石路16号,1034807
金色华府,11,10000,,119.925769,31.026080,长城路，近中央大道,1012330
西门南村,5,14757,0.010788,120.543685,31.870031,西门路，近盘龙路,889231
康桥丽都(别墅),1,45454,,120.634586,31.375154,嘉元路663号,888925
嘉兴日报宿舍,1,10909,,120.699936,30.763519,中山西路265号,890215
伊顿公馆,40,9495,-0.000632,120.428605,31.956734,中圩路，近中港南路,943754
新都汇,1,10800,,119.933771,31.016721,县前东街,939575
信达香格里,3,11445,,120.692695,30.761446,秀园路398号,890276
湖畔佳苑,42,40000,,120.590856,31.262451,学府路189号,886652
旭辉朗沁花园,4,32787,-0.000389,120.524928,31.351166,星丰路，近星宇路,886714
恬园,11,13483,,120.312883,31.130880,金庭路170号,888120
御湖天誉,17,9577,-0.008387,120.125044,30.947209,安居路66号,939195
明华月亮湾花园,3,8770,-0.025014,120.433033,30.863374,嘉业南路318号,939274
锦瑞苑,9,8823,,120.445176,30.885081,便民路449号,939255
东湖金悦(别墅),74,10212,,119.990993,30.990111,滨江大道,946358
水岸华庭,2,12361,,120.535895,30.635933,和远路，近和悦路,993027
东二路小区,1,33450,0.043152,120.634937,31.296595,东二路,886116
宏和珈都,95,4585,0.000164,120.267702,32.670016,文化路，近白古线,1020805
友谊新村,2,8620,,120.108875,30.875928,苕溪西路300号,939190
绿地家园,5,7333,,120.676050,30.688721,绿园路,890239
金海大厦,3,10000,,120.587120,30.626387,校场东路1572号,993007
西小区,1,8500,,120.686699,31.169109,云梨路,887018
梅花新村,5,32468,-0.001430,120.637143,31.344447,官渎路,885411
中央花园,1,14666,,120.629583,30.673005,兴旺路19号,926331
盛世华庭(别墅),5,7128,0.057410,120.548470,32.389520,中山西路168号,918439
唐韵花苑,117,9481,-0.000053,120.623420,30.795529,兴镇路，近虹桥路,991003
狮山当代MOMA,20,19705,-0.001659,120.538871,31.283342,竹园路，金枫路,886640
锦溪江南美墅(别墅),2,10416,,120.024239,30.671625,建设路1号,939058
海港新城,1,10285,,120.580139,32.110314,疏港公路,918308
高桥阳光城,12,11020,,120.574273,30.547356,乌镇大道，近高铁大道,998685
佳和玫瑰园,1,6000,,120.282879,30.834109,潘塘路,939239
海上湾(别墅),11,24206,,120.163453,30.873685,蜀山路1788号,938997
丽景苑,10,34642,0.003476,120.638735,31.314705,干将东路636号,885861
金润玺景苑,4,10273,,120.637360,32.403794,中山东路，近如泰运河大桥,1030932
桃园新村,3,4871,,120.606102,32.305125,园景路,918402
新城吾悦广场,110,15246,0.004613,120.595896,30.634163,振兴东路439号,993033
绿地太湖城,9,26219,0.042318,120.605416,31.132782,东太湖大道8899号,886853
中南新村,2,9851,0.030116,120.438877,31.955253,中南路,889633
中兴花园,3,19439,-0.002207,119.977802,30.549196,中兴北路126号,939448
东郊花园,7,13501,0.000093,120.646509,32.406481,贾公路1号-60号,918287
华庭现代城,2,8750,,120.698095,30.516210,海昌路,890671
晶都花苑,1,9101,,120.617873,30.679494,凯旋路1255-1259号,892540
银杏苑,5,32142,0.115216,120.591122,31.313241,金门路919号,885605
太湖如意湾,1,7892,-0.056598,120.419529,30.967654,环湖路1555号,887199
太湖明珠南泊湾,43,10144,,120.411374,30.962085,环湖路,887198
五峰山枫林山居(别墅),2,17129,,119.585216,30.602462,306省道,989734
嘉园,5,90157,,120.643532,31.302637,南石皮弄7号,886158
招商小石城香樟园,1,13473,,120.620820,31.222845,梧桐街，近吴港南路,887643
龙湖苑,1,7555,,120.188990,30.717432,东栅路,939268
康馨花园,1,64453,,120.602623,31.282574,解放西路147号,886023
星光耀花园,31,11882,,120.552755,31.361465,虎池路1588号,885364
秀洲小区,7,7837,,120.695683,30.755869,秀园路128号,890289
花样年太湖天城,29,9729,,120.423700,31.222382,环太湖大道128号,505193
木中小区,1,8333,,120.653458,31.175088,江兴西路191号,886941
正荣悦岚山,1,9813,,120.482621,31.389657,真山路,886728
海上湾,12,13207,0.196137,120.163551,30.873112,蜀山路1788号,938998
宏博金海岸,2,6363,,120.505874,32.553297,迎宾路116号,917894
海宁江南世家,4,9770,,120.699938,30.499938,海昌大道,892083
春江花苑,13,8571,,120.630413,30.496143,庆东路，近硖斜路,925378
康桥名园,5,10112,,120.453944,30.448584,开元路,890957
文苑小区,6,8333,,120.121842,30.869363,外环东路,939167
金科廊桥水岸,10,13175,0.014398,120.643321,31.127697,思贤路，近鲈乡南路,802377
国际公寓,8,8076,,120.630826,30.908955,西二环路,887292
智富城MIMON,28,6037,,120.695384,30.765529,秀清路626号,890325
紫薇花园,11,9139,,120.680328,30.521911,文宗路8号,892014
南环东路3号小区,3,27272,,120.655683,31.290033,南环东路3号,886378
织里中心花园,1,6666,,120.276418,30.870517,康泰路,939206
锦绣家园,15,6626,,120.584717,32.109432,纬三路18号,918352
新城金郡1期,14,28346,-0.007632,120.630045,31.225695,邵昂路66号,887645
江风海韵,11,6000,,120.577505,32.107194,长江东路,918341
虹桥商厦小区,1,5791,-0.013416,120.618267,30.805383,兴镇路386号,926324
向阳新村,4,9960,0.001332,120.553259,31.871107,梁丰路，近河东路,889546
佳兆业君汇上品花园,4,21414,0.123603,120.590238,31.388877,兴业路，近苏埭路,888969
锦绣江南,7,13972,-0.000340,120.608934,31.075803,同心西路88号,887128
阳光水榭花园(50-94幢),1,14400,,120.633309,31.255132,东吴南路，近石湖西路,887657
时代广厦,16,8888,,120.693782,30.528707,海昌路192号,891426
开元名都,17,10975,,120.676821,30.498522,江南大道2388号,892110
招商依云华苑,1,13186,,120.603646,31.395123,广济北路，近安元路,889003
书香名苑,3,9189,-0.001087,120.686535,31.542661,新阳大道65号,885109
海安7星首府,8,6134,-0.006157,120.500605,32.540343,黄海大道东19号,926348
中梁秀湖壹号院,11,12190,-0.034722,120.685475,30.780036,秀园路,890333
海宏花园,1,5625,,120.686776,30.535860,文苑路,890541
西门南村,1,8411,,120.544422,31.870541,长安中路,889531
湖东花苑,1,9888,,120.556738,31.850232,馨苑路,889326
中央公园城(二期),2,9323,,120.680716,30.899405,杨扇路，近目澜路 ,887351
碧桂园翡翠湾,20,9881,-0.003981,120.558458,31.854055,暨阳湖大道，近河西南路,889642
塘湾新村,1,11702,,120.634947,31.262226,东吴南路,887593
禧悦,215,23109,-0.003267,120.570238,31.297512,滨河路999号,886612
康桥名城,3,9216,-0.001463,120.680393,30.517897,文宗南路18号,890941
招商雍华府,86,31604,0.001648,120.535459,31.276886,金枫南路8号,887920
新柳溪花园,1,9493,,120.647710,31.185371,柳溪路,886840
格林悦城花园,1,9604,-0.004483,120.683525,31.189091,淞兴路2号,988071
丽景佳苑,2,7439,,120.457880,32.540237,永安北路,917915
溪山美墅,1,7751,,119.986081,30.531109,云岫南路459号,939428
华申苑,1,3623,,120.503778,31.997782,德申路206号,889339
横泾花园,1,12500,,120.556225,31.816984,金港大道，近西塘公路,889312
梦享城,314,11063,,120.083228,30.870870,红旗路，近二环西路,1033222
世纪花苑,17,7427,0.000539,120.557504,30.648721,庆丰北路183号,798204
绿城御园(别墅),1,36666,,120.080533,30.905083,青铜路1739号,939082
金色港湾,36,11717,0.002310,120.455406,30.454675,修川路,798198
西郊花苑(别墅),1,35324,0.132869,120.482943,31.241913,孙武路642号,887956
恒熙湖庭,2,18823,,120.685565,31.288445,通达路1988号,888703
红树湾花园,1,17728,,120.641846,31.228888,兴吴路1283号,886799
锦华苑,1,53125,0.022057,120.571722,31.301520,滨河路,886581
南方大厦,68,8058,-0.002383,120.568514,30.634042,永兴路2号,993022
中南世纪城(别墅),2,13502,0.012694,120.648475,31.134923,中山南路,887086
万城理想公馆,35,10603,0.002032,120.667362,30.531750,硖仲路，近双联路,917054
金茂花苑,1,7078,,120.367150,30.639654,河山大街132-138号,926330
姑苏院子,15,34143,0.001775,120.592866,31.322892,西园路66号,885620
豪杰翡翠湾,5,11701,,120.646887,30.790762,嘉铜公路,795480
锦昌苑,1,32647,-0.001499,120.570398,31.300361,狮山路100号,886580
通和家园,1,14457,,120.124067,30.879191,龙湾路196号,946357
路劲香港时光,2,22727,,120.551346,31.279613,汾湖路,886588
中栋名都,1,8455,,120.696121,30.529087,水月亭西路,891945
瑞丰大厦,1,6551,,120.569165,30.636486,润丰步行街东68号,993026
金领华都,1,9375,,120.678767,30.539898,洛隆路523号,890816
吴江新城吾悦广场,2,23200,,120.624082,31.144927,开平路2188号,886864
佳源都市,90,9822,-0.000331,120.080131,30.850406,佳园路,939033
合景领峰,8,15168,,120.534404,31.279879,金枫路268号,887755
金科世界城,15,6153,,120.553923,32.381147,宁海西路168号,926280
金水苑,4,5172,,120.594241,32.105796,新城经二路,918349
悦湖美郡,3,9569,,120.541850,30.925854,镇南路958号,800130
欧洲花园,1,23999,0.366000,120.672112,31.297077,通园路668号,888396
天顺花苑,2,5800,,120.577823,32.107881,长江路，近通江路,926268
新城市花园,8,8374,-0.001609,120.674372,30.540978,洛隆路,891638
东方时代广场,1,10429,-0.007824,120.676351,31.472838,珍珠湖路，澄阳路,924925
旭辉朗香郡,7,13076,,120.527604,31.351563,星宇路,886716
招商雍和苑,8,28489,0.110476,120.427992,31.345302,科发路,886763
祥云花园,2,9213,,119.708568,30.627744,玉馨路,939704
汇金广场,3,7473,,120.592943,32.111819,长江东路,918328
凤凰二村,3,6351,,120.099150,30.883850,青铜路,938978
苏州义乌国际商贸城,5,10638,0.000282,120.619620,31.339117,苏站路,885393
富康花苑,3,5967,,120.274997,30.861513,富康东路,938984
港澳桂苑,1,13777,,120.638501,31.250467,天灵路111号,887467
保利观湖国际,1,32291,,120.688244,31.255761,尹鸿路,887380
海安海洲水韵天城,2,6451,,120.449801,32.550623,人民西路92号,926352
金色港湾,34,8307,,119.906528,31.014295,道园路,939512
森松花园,1,5909,,120.589633,32.096776,华江大道,918387
滨江丽景,2,7881,,120.390475,30.866905,适园西路999号,939220
中央公园城(别墅),1,7040,,120.680204,30.897895,东方大街2号,887362
新南浔孔雀城(别墅),67,10169,,120.425926,30.844729,联谊路,995199
新亚旭景园,1,9398,,120.683304,30.913962,红安路58号,887340
旭辉朗香郡,16,15564,0.030011,120.694416,30.757351,秀园路,791966
得力御龙湾,26,8245,-0.001453,119.905726,31.042248,画溪大道2689号,939463
融创太湖印(别墅),6,8928,0.008044,120.120611,30.947999,震泽路,994849
优优学府,46,12608,0.005904,120.174538,30.854018,草荡漾路，近小山路,1033219
名城花苑,16,9080,-0.012238,120.454213,30.536459,青阳东路,797225
景瑞望府,1,13102,,119.899424,31.030097,龙山大道888号,939522
幸福家园,1,6000,,120.600489,32.178692,迎宾路,918574
西城时代,2,9186,,119.877205,31.012848,滨海路,939564
观景府,18,9090,,120.435301,30.853436,嘉风路,939232
金庭花园北区,1,7203,,120.318469,31.139365,东园公路115号,888109
如意新村,2,5049,,120.669123,30.915137,如意路,887320
博雅苑,1,24257,,120.612016,31.273033,宝带西路858号,886411
永兴小区,3,15955,,120.601224,30.658630,恒兴路,892525
镇南新村,4,9684,0.011040,120.514514,30.917500,镇南路1270号,1037886
东湖金悦,25,10631,,120.592460,30.634900,振兴东路329号,992988
瑞富广场公寓,2,7721,,120.631571,31.298082,人民路438号,886245
合景峰汇一期,1,22641,,120.611207,31.370158,人民路,888958
合悦江南,25,10869,,120.572686,30.545333,悦容路,892450
东大街如意佳园,33,7954,,120.472706,32.558567,凤山北路，近河滨东路,917957
健康新村,1,4500,0.000056,120.602530,31.930917,昆仑山路，近华山路,889358
皇家领誉,1,11891,,120.633694,30.911346,舜湖西路1300号,887298
南山雅居,95,11127,0.000315,119.876074,31.099139,长水线,1025093
滨江龙湖湾,6,7760,0.060578,120.560987,31.973520,府前路，近锦江路,889216
象贤花园,2,5652,,120.687605,30.767146,洪高路1119号,890270
曙光新村,6,26666,,120.634338,31.320975,临顿路,885772
金龙花园,2,48571,,120.573762,31.295321,滨河路188号,886577
欧洲花园,1,15080,0.043489,119.925363,31.017357,长洲路，县前东街,1012329
新城吾悦广场,78,14398,-0.004046,120.549377,31.843691,金港大道，近南二环路,889655
鑫苑国际城市花园南区(虎丘区),2,17643,0.008171,120.568911,31.322939,华山路8号,886535
丽景佳苑,5,7627,,120.450692,30.450845,景华路220号,952804
姑苏区万达广场,3,15000,,120.621754,31.348985,人民路3188号,885436
书院二村,5,8850,,120.597882,31.927809,书院路，近合兴路,889489
海宁洛塘公馆,117,11363,,120.629617,30.495679,硖斜路，近白狞港,1032298
星城铭座,16,10000,,120.493428,31.245856,孙武路602号,887900
名骏豪庭,25,7966,0.004603,120.625111,30.798132,虹桥路,762087
绿都姑苏雅集,16,39505,-0.000645,120.632247,31.295494,人民路，近东二路,1024528
中奥美泉宫,9,17855,0.003386,120.076589,30.920657,弁山大道1818号,939207
金都花苑二期,1,8089,,120.448675,31.944117,中兴南路，近晨丰公路,889703
峰尚公寓,2,20341,0.008440,120.572032,31.298456,狮山路75号,886562
和睦苑,1,5421,,119.975237,30.538093,和睦巷,939370
竹镜茶语,2,10196,,119.875503,31.098995,长达线,939610
天诚公寓,1,8095,,120.697352,30.522235,海昌南路,891511
书香名苑,2,7792,,120.614361,30.494917,云川路,952814
三元新村,3,30701,,120.583281,31.311355,金门路,885572
曲新花苑,1,5251,0.011703,120.337193,32.500607,曲新路13号,926350
世纪新城,3,14338,-0.051561,120.546318,31.887964,恒河路，近大包巷弄,889484
花苑二村,3,23170,,120.520949,31.267870,花苑西路,887762
太湖纯水岸,6,15731,0.002150,120.431176,31.229758,伍相路1号,887998
莱茵河畔,27,8988,,119.920406,31.044107,锦绣路，近合溪新港路,1006347
绿城诚园,2,10875,,119.729526,30.627191,安吉大道,939679
金域蓝湾,1,14705,,120.526538,31.297522,金山路，近湘江路,887782
金域世家,42,11355,0.000220,120.664962,30.532158,硖仲路499号,1018750
景润苑,1,7030,,120.374074,30.446150,石桥路,890895
鼎昌名邸,83,4415,,120.416544,32.311134,人民路64号,926278
金海丽水湾,7,8510,-0.054444,120.452041,32.556914,河滨西路88号,917905
天地源太湖香颐花园,1,15411,,120.621754,31.193988,吴郡路，近君益街,888080
恒都香缇溪岸,8,13084,,119.668150,30.602097,浒溪南路,939641
合景峰汇二期,4,17500,,120.609995,31.370039,人民路,888949
钱江君庭(南区),3,17840,-0.064963,120.568361,30.406853,翁金线，近三里港路,914290
汇丰苑,1,11365,0.384716,119.975193,30.547721,千秋东街,939375
维多利亚花苑,1,21507,0.029154,119.914566,31.026784,龙山大道179号,939562
奥体新城,2,6746,,120.607834,32.379582,惠政路,918271
建成丽园,6,5434,,120.578104,32.281848,如港公路,1010377
南洋公馆,3,5625,,120.291574,30.614928,南洋路,939343
崇福凤凰城(别墅),1,11271,-0.011965,120.428376,30.532474,崇民大道，近崇永线,992984
观音弄小区,1,34084,0.112745,120.639771,31.309263,十梓街,886137
暨阳湖壹号,3,16117,-0.004908,120.542370,31.855644,暨阳湖大道,889352
紫金南苑,2,11730,0.016662,119.905667,30.999503,紫金路,939612
阳光花城,22,10455,-0.017340,120.620127,30.679631,凯旋路1398号,892521
一品苑,36,7386,,120.562969,31.873234,东环路，近暨阳中路,889581
蓝金苑,2,4000,,120.652258,30.425961,广场路，近镇中路,892123
莱茵河畔(别墅),58,10271,-0.004965,119.920190,31.046924,锦绣路，近合溪新港路,1006346
汇高百悦府,4,10000,,120.697337,30.497450,江南大道，近海昌南路,952801
万华金御湾,15,7317,,119.941685,31.026258,中央大道,939558
滨湖苑,1,5384,,120.191256,30.722448,里桥路,939219
融创石湖桃花源,1,19727,,120.608872,31.261439,友新高架，近新郭港,886663
锦丰新村,1,5714,,120.650382,31.964685,金鹿路，近锦中路,889391
利时广场,1,7500,,119.927283,31.025652,中央大道，近长州路,1012328
春江花苑,76,3933,0.000445,120.584407,32.111654,纬八路,918279
香墅湾,31,11894,0.022128,120.418683,30.862450,年丰路379号,939302
汇景名苑,2,9384,,120.640742,30.909460,舜湖西路,887299
秀湖香颂湾(商住楼),28,10000,,120.697037,30.788941,秀洲大道1369号,1022023
花苑新村,35,11652,0.006131,120.521679,31.265741,花苑街,887764
海德公寓,5,5000,,120.563980,30.627280,梧丰路511号,992994
秀水瑞苑,1,11627,,120.624995,30.801293,蓬莱路,794262
合景峰汇三期,2,18867,,120.611531,31.371300,聚贤路,888954
嘉业阳光城,11,11882,,120.105115,30.888772,凤凰路288号,939037
奥林运河湾,1,9340,,120.671396,31.188575,淞兴路,887005
雅阁花园,6,43319,0.005478,120.567112,31.297068,狮山路185号,886625
幸福新村,2,8527,0.133373,120.560750,32.386110,益寿路,918416
吴越岭秀,1,11879,,120.636494,31.177060,江兴西路788号,886827
漕湖花园(五区),1,18968,0.037026,120.627883,31.471652,五星路，近卫渭路,889089
信业ICC,4,16315,,120.106134,30.870853,红旗路，近南街,990888
长广金水苑,18,3960,-0.000946,119.713780,31.080395,s301,939601
金都花苑一期,7,4054,,120.438598,31.945704,晨丰公路，近勤政路,889704
龙庭花园,10,11538,,120.596130,30.991766,双龙路,887243
太湖华府,3,13300,,120.325249,31.140629,大桥路,888116
绿城安吉桃花源,11,10291,-0.004546,119.638616,30.582754,梅灵线,939678
锦溪江南美墅,2,9130,,120.023943,30.671711,建设路1号,939059
紫云居,1,9333,,120.448065,30.469016,修川路991号,952813
新塍佳源中心广场,1,11255,-0.007933,120.622725,30.800661,虹桥路581号,1012474
捷达名轩,1,8354,0.003032,120.668350,31.164050,庞金路,887014
豪得别墅,1,9049,-0.018146,120.644179,31.770722,凤恬路68号,889294
弘博名人世家,1,5102,,120.456507,32.581354,城丹凤路216号,926345
吴江上海城,1,13521,-0.048487,120.641152,31.182029,仲英大道1088号,886824
承安新都会,31,10869,,120.091853,30.850348,二环南路，近夹山路口,1030279
太湖缘,1,30973,,120.464073,31.133017,腾飞路399号,560931
港城新村,1,7419,,120.582246,31.882369,江帆路，近张杨公路,889275
铂金公馆,9,12000,,119.667402,30.610807,独松观路468号,989736
美都铭座,10,9139,,119.924405,31.003582,明珠路61号,939542
万科新都会,3,17910,,120.415426,31.350758,武夷山路,886756
运河苑,120,10046,0.001770,120.452832,30.457092,青年路96号,952811
锦绣家园,45,12250,,120.646561,30.985421,学才路29号,887217
盛泽国贸中心,18,9357,-0.000134,120.637848,30.903818,市场西路599号,1022391
月亮湾(南区),24,12959,,120.645769,31.272182,迎春路，近文曲路 ,887709
金盛花苑小区,5,11071,,120.497495,32.539268,黄海大道,917906
明珠花园,12,7500,,119.924021,31.000952,海兴路,939544
万科新都会(别墅),1,18343,,120.414594,31.351222,武夷山路,886770
吉祥苑,2,11711,0.135606,119.975500,30.541111,府东弄,939379
芙蓉新村,25,25970,-0.000096,120.626604,31.402850,芙蓉街33号,888814
嘉禾绿洲,2,12746,0.311047,120.699899,30.759256,秀清路188号,890211
时代花园,2,42331,0.029557,120.562137,31.312824,何山路,886526
国贸仁皇,1,8876,,120.084163,30.911713,青太路1455号,938994
凤凰公寓,4,9640,0.000727,120.569908,30.633805,振兴东路，近人民路,992989
香港花园,2,30852,0.012304,120.519065,31.266774,花苑街，近香港街,887885
锦绣苑,3,8510,,120.571067,32.395336,锦绣街,918353
东山会,1,33734,,120.414168,31.095947,雨花路8号,888089
世茂九溪墅(别墅),1,13987,,120.530863,31.852732,港城大道，近暨阳湖大道,889647
金茂国际,18,9407,0.009632,120.556051,32.388758,中山西路1号,918348
碧桂园天誉,3,8928,,120.620769,30.906425,市场西路，近广州路,887281
绿地香颂别墅,26,24615,,120.605876,31.134289,学院路6699号,886854
水绘曦园,1,6324,,120.572901,32.401277,海阳路,918398
太湖国际(别墅),1,15336,,120.406880,30.951933,元春路1448号,887209
达欣祥河湾,2,6363,,120.395959,32.517447,宁海线，近烟沪线,938362
金都花苑,7,8888,,120.373693,30.442504,天顺路177号,890745
苏州吴中万达广场,39,10756,0.009242,120.614096,31.259948,友新路，近石湖西路,887689
赞成名仕府,68,9090,,120.105725,30.922756,安吉路,939200
凤凰花苑,2,5036,0.015937,120.635371,31.770144,凤恬路，近凤北路,889260
东渡海派青城(别墅),4,27544,,120.691920,31.435863,聚金路,889149
向阳一村,6,7777,,120.640857,31.957668,锦中路，近锦南路,889547
秀水苑,1,38973,0.042595,120.557631,31.291811,玉山路145号,886624
红星花苑,139,4482,-0.000836,120.597151,32.119829,经五路,918317
合景峰汇国际天汇,1,15716,0.001577,120.613019,31.369989,阳澄湖西路,888950
上河原墅,7,17530,-0.002929,120.645626,31.255180,石湖东路,887558
中天锦绣诚品,46,11020,,120.685595,30.545193,隆兴路89号,1026580
加州阳光,1,9382,0.004900,120.580075,30.624038,世纪大道428号,892466
桐庆小区,1,7692,,120.560869,30.619155,人民路,892512
绿色家园,3,21063,,120.084744,30.891305,山前路118号,939084
朗诗未来家,1,23852,,120.534672,31.254277,金枫南路1008号,887800
湖滨华城吉祥苑,1,10000,,120.631543,31.126974,松陵路，近庞杨路,887051
巴黎春天,50,10999,0.003444,120.081127,30.867829,红旗路,938929
时代广场,2,8444,,120.557745,30.637733,庆丰中路8-16号,926334
经都名庭,1,8571,,120.679840,30.473628,红旗西路19号,798532
海宁百合新城(东区),2,11235,,120.694141,30.505745,文苑南路,890543
御江南(别墅),3,11494,,120.499082,30.739438,青镇路300号,993040
佳源优优秀湖,10,11310,-0.000442,120.686930,30.780103,东升西路，近秀园路,926329
镜湖花园,26,9090,,120.678194,30.920933,如意路418号,887304
碧桂园凤凰府,1,7833,-0.027561,119.722508,30.626597,安吉大道,1037312
山湖花园弘雅苑,1,11875,,120.693091,31.154010,庞东路，近湖心东路,887020
拙政别墅,10,60294,0.001628,120.637162,31.332225,百家巷99号,607022
锦绣花园,2,10000,0.028621,120.696009,30.519301,南苑路431,890868
爱法山水国际,16,6250,,120.460022,32.520510,黄海大道西1号,925932
新奇世界上影安吉(别墅),1,11224,,119.621288,30.694038,详真路,1037316
太湖黄金水岸(别墅),3,14678,,120.472146,31.227294,环太湖大道,888027
三星苑,5,32478,,120.660115,31.325390,现代大道270号,888412
城南印象生活广场(商住楼),5,23809,,120.637222,31.249973,东吴南路98号,887690
立新苏杭之星,3,10786,,120.630790,30.913796,西二环路，近秋泽路,887306
瑞景国际,1,9846,,120.652944,31.129513,中山南路，近庞杨路,887071
巴黎都市(南区),21,8529,,120.583677,30.652028,逾桥东路,892428
公园一号,83,8607,,120.391560,30.862361,人瑞西路1588号,939241
太湖上景花园,30,26666,,120.437455,31.228273,梅舍路3号,888118
朗诗国泰城,19,39795,,120.572146,31.873526,华昌路,889410
财富之星,4,7179,,120.442264,30.468367,环镇北路311号,952788
华盛嘉苑,1,8181,,120.682178,30.516218,清波路,890650
香枫印象,1,6725,,120.516522,31.294921,渔洋街78号,887884
盛大开元,2,8426,,120.570114,30.624814,人民路,892503
太阳岛花苑,8,8834,,120.542924,30.916300,双泽路600号,887266
三千邑,1,11290,,120.673633,31.183751,江陵东路689号,887039
金凤凰温泉逸墅,26,8259,0.000848,120.638151,31.791465,金谷路1号,804644
秀湖香颂湾,122,9620,-0.000182,120.698154,30.788423,秀洲大道,890280
和平花苑小区,1,14772,,120.458843,31.925631,解放路,889302
东渡海派青城,16,29166,,120.691273,31.437637,聚金路,889131
融创苏州壹号院,4,33055,-0.008333,120.622243,31.191287,金碧街，近永旺路,888087
广厦公寓,1,19780,,120.647382,31.262276,迎春南路,887472
正大家园,1,10500,,120.652587,31.173598,中山北路113号,886992
文星新村,17,3114,-0.002163,120.465290,31.917626,文星南路,889526
长岛花园,3,46341,,120.651412,31.302176,莫邪路347号,886403
涵园,8,57082,,120.298926,31.085687,石公路9号,888106
碧桂园时代城,9,8470,,120.613870,30.904349,绸都大道，近市场路,1022393
苏州桃花源,4,37014,-0.013841,120.694287,31.297106,高和路,888730
大树家园,6,8298,-0.011790,120.545109,30.652601,逾桥西路,892441
南园新村,5,23913,,120.626688,31.297076,新市路,886220
健康西村,1,8500,,120.570260,32.388758,健康西路,918340
西塘南巷8号院,12,20714,,120.631651,31.279150,西塘南巷,887629
太湖纯水岸二期,2,8682,0.002656,120.419584,31.232902,伍相路1号,887999
金城花园,10,10468,,120.529304,31.882523,暨阳西路68号,889368
隆溪玫瑰园,3,6944,,120.681253,30.540542,洛隆路252号,798200
紫云东郡(别墅),9,12500,,119.723317,30.630884,后寨路777号,939714
景华园,1,10329,,120.450720,30.451851,景华路178-3号,890883
华都豪庭,1,11263,,120.366182,30.575355,中洲路65号,892456
龙盛右岸名邸,1,10875,,120.696675,30.757525,秀园路119号,890235
缇香镜湖湾,9,11125,0.003133,120.536846,31.841373,港城大道,805458
宜欣花园,7,4000,,120.411181,32.312285,绘园路，近缘龙路,1030930
东兴苑,1,17889,0.029879,120.565109,31.832192,新泾东路9号,889252
崇福凤凰城,3,9578,,120.428205,30.533301,崇民大道，近崇永线,992985
公园一号(别墅),1,21052,,120.392117,30.861474,人瑞西路1588号,939240
中南世纪城,1,8428,,120.597100,32.376987,惠政路,918434
保利悦玺,1,15473,,120.692394,31.252055,环湖路,887383
S半岛清水湾花园(别墅),2,15124,0.002868,120.629578,31.245872,澄湖西路111号,887691
恒基水漾花城(1-22幢),1,17045,,120.615949,31.381456,御窑路，近春申湖西路,888961
金山浜花园A区,1,12000,,120.526908,31.293165,金山路，近渔洋街,887777
紫金公寓,16,9026,0.037352,119.906972,31.009044,解放西路,939611
花苑新村,20,7500,,120.555450,32.389232,桃源路,918322
珠江新城,5,11627,,120.547097,31.260594,珠江南路1083号,908958
银润蓝城天使小镇,2,15915,,119.753349,30.629334,天使大道,1037314
海宁碧桂园,72,8333,,120.346568,30.430613,人民大道,892069
枫丹壹号,2,17463,0.032991,120.627485,31.144051,冬梅街，近开平路,886863
中海御湖熙岸(别墅),4,59444,0.003126,120.690420,31.304078,金鸡湖大道,888475
嘉业阳光城,28,13529,,120.575867,31.327667,西环路,885460
解放新村,41,25040,-0.002152,120.614310,31.290757,解放东路,886015
新都国际,3,8900,-0.003694,120.578504,32.386412,福寿路,918412
紫竹山庄,1,9475,,119.715292,30.638172,胜利东路,939715
卡森花苑,4,8990,,120.684202,30.528416,梅园路228号,890908
恒基旭辉城,2,27220,0.002172,120.522303,31.364691,鸿福路，近文昌路,886672
水景丽舍,2,21505,,120.651499,31.311460,莫邪路788号,886382
亲亲家园,5,9756,,120.573150,30.626242,校场东路,892494
万科金域缇香,2,9785,0.013306,120.697690,30.790282,成秀路88号,890265
碧桂园滨湖城,14,11392,,120.345077,30.431458,人民大道,925376
巴黎春天,108,9741,-0.006198,120.610562,30.674969,永安路,798203
华府锦苑,2,9111,,119.913095,31.043604,忻湖路157号,939488
朗诗绿洲(别墅),2,58426,,120.423396,31.351380,富春江路,886767
东风新村,2,4633,0.002325,120.557435,32.396452,益寿路480号,918284
优优湘洲,39,9111,,120.364676,30.582019,公园路128号,996025
金都佳苑,3,12696,,120.697613,30.761723,秀清路368号,890222
正荣悦棠湾,51,9813,,120.651922,30.893640,中心大道，近南环路,1022394
御墅园,3,4230,,120.571647,32.353347,益寿南路186号,918430
中天观庭,27,6790,0.000700,120.395605,31.954593,镇山路，近长江西路,889640
合景峰汇八期,6,16344,-0.000336,120.617093,31.371640,人民路,888948
东城华府,10,7407,,119.989281,30.958728,广福路,939466
体育新村,1,7750,,120.555547,31.886304,长安中路，近恒河路,889504
旭辉百合宫馆,6,33555,,120.524136,31.350823,星丰路,886715
中昊檀宫(别墅),3,14601,,120.567083,31.857140,南苑东路,889674
南郊小区,2,8076,,120.699877,30.513200,海昌南路328号,891193
南城花园,1,8541,,120.547338,31.857071,南苑西路39号,889438
城中花园,27,42155,-0.001569,120.625075,31.311324,西美巷,886092
西塘北巷3号小区,11,15937,,120.632055,31.281459,西塘北巷3号,887543
嘉海尚府,6,9078,0.014783,120.669695,30.532161,双学路7号,1026579
东湖金悦,125,8590,-0.002091,119.991154,30.989926,滨江大道,946359
名仕花园,1,18936,,120.599889,31.303703,三香路,885958
万科碧桂园,34,13316,-0.001275,120.652027,31.226373,兴中路,886817
星洲国际花园,1,9038,0.111822,120.075841,30.869346,西塞山路188号,939186
冰厂街6号小区,1,22222,,120.608695,31.331851,冰厂街6号,885486
新华新村,1,3794,-0.050313,120.649494,31.973723,永新路，近锦花路,889560
华丽家族太湖汇景,9,16720,-0.000359,120.445060,31.230049,梅舍路，近蒯祥路,887988
琴海居,1,10674,,120.427130,30.380833,港湾路,891338
都市华庭,2,5822,,120.566025,32.386636,大司马路,918293
巴黎春天,28,10312,-0.003816,120.694954,31.434105,元春路8号,889129
巨赢锦绣苑,1,6741,,120.407077,30.869426,风顺路399号,939263
华都龙山庄园,9,9831,,119.693192,30.617930,环翠路68号,939647
太湖之星,4,14779,0.007396,120.364620,31.199195,长沙路,888011
新星小区,1,8163,,120.610955,30.684068,桐星大道,892519
凤凰花苑,2,8269,0.075013,120.485491,32.537074,宁海南路181号,917874
太湖小区,18,12000,,120.634897,31.157843,笠泽路871号,886962
锦盛花苑,9,5310,-0.001035,120.692752,32.566616,勤政路，近S221,926344
首创悦府,4,8666,,120.079442,30.907906,三环北路,939135
鸿翔洛溪嘉苑,11,10421,,120.617735,30.494619,706县道,890588
恒润太湖壹号,1,17635,,120.435330,31.225818,梅舍路1号,887985
汎港润园,18,8617,,120.080147,30.864770,二环西路355号,938972
万达华府,51,14372,-0.000435,120.611175,31.260957,友新路,887596
敏华聚珑阁,28,10572,0.001682,120.668874,31.154678,运东大道，近湖心西路,988075
河坊人家,1,8363,,120.549909,30.653024,逾桥中路,892453
绿岛雅苑,1,7142,,120.555787,30.654190,庆丰北路,892485
绿城百合园,1,15230,,119.909390,31.010923,县前西街189号,939540
江南润园,5,10128,-0.004130,120.637618,30.798878,润园路168号,890220
阳光水岸,8,12096,,120.131710,30.866528,湖东路,939188
天河理想城,40,9160,-0.006238,120.084654,30.847662,田园东路77号,939146
万丽花园,1,18571,,120.624297,31.298975,东大街177号,886292
虹桥小区,8,31588,0.040259,120.594514,31.315162,金门路778号,885518
灏景天下,1,19047,,120.550846,31.286756,汾湖路199号,886566
钻石公馆,4,22777,,120.632229,30.672841,齐宏路288号,892536
朗诗绿色街区,1,43050,,120.536482,31.257577,金枫路，近中环西线,887798
凤凰城,6,5113,,120.409135,32.309431,绘园路489号,926274
望江水岸,1,6204,-0.004293,120.569147,31.969899,滨江路，近港城大道,889521
红星国际生活广场(北区),19,30000,,120.558226,31.267213,长江路，近长塔路,887760
绿城玉兰花园,7,10000,,119.947039,31.014583,县前东街1088号,939541
茗仕雅墅,1,9695,,119.700947,30.617163,环翠西路,939682
旭辉御府,5,17978,,120.553522,31.322685,长江路,791965
御景苑,9,10526,,120.461676,30.440101,长河路128号,891841
光明中央公园,15,8636,,120.427510,30.862387,万顺中路111号,1002499
锦绣豪庭,15,9213,,120.452468,30.459439,崇长线，近迎宾路,952803
白鹭湾,1,8235,,119.929311,31.040046,希望大道,939450
文卫新村,6,17158,-0.038121,120.647011,31.278208,吴中东路81号,887601
绿城花园,5,19230,,120.658065,31.320089,飘一路17号,888394
富力湖州壹号,15,9922,,120.153125,30.858282,湖东路,994846
云川名都,2,10804,,120.616798,30.496363,云川路,891856
鸿悦府邸,4,5615,,120.541941,32.146568,石庄路88号,995411
碧水云天,2,12457,-0.004913,120.557221,30.653088,庆丰北路399号,892435
合景峰汇十二期,1,14342,0.034794,120.615091,31.370255,人民路，近阳澄湖西路,889005
聚宝华府,5,7335,0.007624,120.623509,30.679230,凯旋路,993050
河畔花园,14,11114,-0.006081,120.552097,30.643995,茅盾西路215号,892454
嘉宝花园一期(别墅),1,25416,,120.647862,31.275341,迎春路174号,887704
石榴园,7,8333,,119.905898,31.030862,画溪大道,939537
公园道1号,73,11462,0.000415,120.699142,30.499960,江南大道，近海昌南路,892056
乌镇悦景庄,10,13978,,120.529072,30.740567,子夜东路1508号,993030
长安佳源中心广场,12,9574,,120.447860,30.444181,长安路，近健康路,952812
卓锦兰香,3,12142,,120.668161,31.159751,运东大道399号,887038
南洋景苑,92,5850,0.005500,120.620185,30.807291,兴育路288号,890247
锦绣家园,6,12250,,119.709934,30.633693,昌硕东路734号,939659
梧桐花园,13,44971,,120.648150,31.335193,东环路1858号,885890
万科城,7,12500,,120.516212,31.247161,姑苏西路139号,887864
乘航新村,2,5714,,120.586399,31.848904,镇中路，乘航西路,889232
盈都江悦城,9,10201,0.003369,120.405081,30.345972,春潮路,892180
怡景苑2区(别墅),1,10000,,120.630853,31.621371,王家浜路,885305
嘉业商住楼,9,11904,,120.431158,30.875647,嘉业路,939243
海兴小区,9,8750,,119.909188,31.000942,海兴路,939481
橡逸湾,2,11764,,120.631120,30.910591,舜湖西路，近西二环路,887333
百桥花园,1,10909,,120.522932,31.858736,国泰南路,889209
新城十里锦绣,209,8706,0.000460,120.565926,30.889144,太平路,1037883
保利山庄,1,10850,,119.736734,31.128418,s301,939452
太湖城仕公寓,198,14019,0.002341,120.398422,31.224379,环湖大道68号,887997
内马路9号院,1,17000,,120.642115,31.290968,内马路9号,886225
升华璞墅,2,6015,,119.658689,30.580168,白丰线,939692
新世界庄园,6,16959,0.000501,119.914817,31.006574,河滨路127号,939579
星月翡翠半岛,3,9775,,120.629745,30.900346,西二环路,887343
文景苑,4,14363,,120.697023,30.527824,人民路143号,891550
柏悦公馆,1,12222,,120.553089,31.318928,华山路,886482
翠湖苑,3,7075,,120.586082,32.401343,中山东路，近万寿路,926282
大河浜3号小区,1,25000,,120.651230,31.304461,大河浜3号,886347
东吴绿郡花园一期,2,54897,,120.644397,31.253430,枫津路30号,887513
花园城,2,25928,,120.568410,31.864409,沙洲东路,889336
菊海雅苑,7,8823,,120.462253,30.619259,环城南路1088号,892541
绿城龙王溪小镇,25,17528,-0.000542,119.603879,30.602415,苕源路1号,939680
桃菀新村,2,9500,,120.669686,30.901023,绿阳路,887330
太湖黄金水岸,18,11053,0.007336,120.457616,31.228719,环太湖大道,658770
罗马风情城(别墅),2,10425,0.028968,119.708971,30.615200,凤凰路,939675
蓉塘花苑,1,3333,,120.601513,32.535182,惠民北路9号,1020787
金色水岸,1,11136,,120.102057,30.891435,二环北路,939053
久强幸福湾,4,6436,,120.637305,32.396047,双群东路，近中山东路,1010393
慕容城,17,9000,,120.674460,30.542790,富兴路23号,798199
星城时代商业广场,2,11777,,120.650619,30.910812,舜湖西路,887342
东大街海天国际,1,7500,,120.474342,32.553834,东大街2号,917869
凤凰新城,11,4512,0.007143,120.364974,32.649469,墩头路,926351
首开太湖一号,1,12505,,120.608595,31.145687,高新路2999号,886856
方海大楼,4,5055,-0.003646,120.694400,30.530382,水月亭西路142号,890537
朗诗人民路8号,1,56122,,120.633985,31.287134,人民路，近南环路,886175
塞纳阳光,1,10000,,120.639095,30.871554,南三环路,887321
保利雅苑,6,24000,,120.572718,31.294940,玉山路38号,886559
北海花苑,1,4555,,120.572676,31.821442,镇中东路51号,889212
锦绣江南(别墅),6,9455,,120.607770,31.074976,同心西路88号,887137
温馨家园,1,5957,,120.437675,30.533398,北沙滩5号,892513
康来登花园,4,15000,,120.503318,30.736927,青镇路,996024
缔艺家园,4,7538,,120.671071,30.520725,联合路525号,925380
长江城市花园,9,8536,,120.562025,31.865005,沙洲东路20号,889613
悠隐南山,2,24573,,119.767439,30.630332,禹溪路680号,1040367
红星国际生活广场(商住楼),20,14285,,120.560102,31.266363,长江路，近苏福路,887976
新世纪花园,1,17044,0.036785,119.909131,31.022898,金陵北路207号,939578
大成郡,11,14044,,120.535364,31.263886,金枫路980号,887733
范祠弄8号小区,1,17100,,120.625561,31.319946,范祠弄8号,885706
锦悦苑,1,35714,,120.608503,31.220791,南溪江路255号,887789
东苑新村,1,11545,0.042035,119.980064,30.541838,曲园南路,939364
锦都名邸,56,8389,-0.005512,120.642550,31.965967,永新路，近锦绣路,889390
直港新村,2,8481,,120.401720,30.861171,人瑞路，近南浔大道,995197
新康花园金碧苑,4,15576,,120.601255,31.288296,桐泾南路181号,886061
中山名府,1,8000,,120.542293,30.644914,中山西路861号,892532
佳兆业广场,1,25874,,120.565646,31.285132,塔园路,886571
润园,1,28163,,120.638936,31.331256,百家巷32号,885879
华丽家族太上湖上景花园一区,56,23858,0.004801,120.444845,31.226874,环太湖大道138号,887989
新苑村,1,11923,,120.628898,31.270332,长兴街94号,887652
普禧观澜,62,17529,0.000585,120.565101,31.427270,春秋路，近春华路,889060
苏园,3,15186,,120.520606,31.275323,向阳河路18号,887849
宏泰新时代,1,10987,-0.000318,120.555787,31.868863,杨舍东街26号,889314
振兴小区,7,14819,0.025500,120.542794,30.634122,振兴西路140号,892530
未来城,44,14615,,120.575752,31.869550,暨阳东路493号,889523
南港悦府,17,8956,0.001202,120.479255,31.003404,沿湖东路48号,800129
汇金新城,1,9555,,120.688939,31.543464,新阳大道,884896
梅园公寓,1,6000,,120.684299,30.528931,长埭路,891102
海城名家,1,7407,,120.704787,30.517770,海洲东路101号,890540
上城蝶园,1,9000,,120.709597,30.502170,江南大道,891396
钱江小区,9,7078,0.000247,120.707302,30.514914,钱江东路,891294
凤凰新村,2,7990,,120.707925,31.439441,兴太路,889155
中栋金色家园,1,10674,,120.702896,30.505193,新苑路,798074
洪兴国际广场,42,8613,0.001541,120.703622,30.769045,洪兴路，近聚贤路,991002
恒隆商业广场,12,10513,-0.000380,120.703964,30.784778,东升西路1229号,911217
阳光城翡丽湾花园南区,1,16216,,120.701389,31.251628,游湖路，近踏湖路 ,887408
万城春晓,1,8988,,120.706322,30.526710,赵家漾路45号,952807
盛世豪庭,4,11695,-0.002346,120.703576,30.764772,聚贤路68号,890253
阳光新城,6,7217,0.004069,120.704980,30.515565,福州路59-10号,891797
桐溪景苑,12,8768,0.005591,120.703630,30.488475,丰收路,801890
香溢公寓(北区),5,8000,,120.706282,30.543241,桃园路76号,891608
东苑小区,2,15107,0.121030,120.707126,30.523656,塘南东路,890535
金泰城,112,15384,,120.701085,30.505176,新苑路,1015057
浅水湾小区,1,8108,,120.704845,30.513982,育才路,891308
颐和花苑,1,8823,,120.701471,31.812412,永进东路15号,889587
万盛家园,2,7073,,120.703077,30.751711,文昌路2333号,890008
嘉盛龙庭,3,7500,,120.705880,30.772105,聚贤路,890213
弘阳上湖,1,16907,,120.706901,31.251910,尹山湖东路，近郭新东路,887392
格林小镇,5,10692,-0.055060,120.701616,31.535902,227省道,884824
阳光天地,6,24000,,120.701535,31.251875,环湖路,887409
摩尔公馆,64,8104,-0.002523,120.707374,30.769575,洪兴西路，近殷秀路,890322
新月公寓,17,7142,,120.707218,30.753640,文昌路2081号,905028
昌乐小区,1,12000,,120.700604,31.540191,昌乐路,884740
正荣国领别墅,10,46603,-0.011675,120.708424,31.258310,东方大道,887420
隆兴嘉苑,5,7777,,120.701795,30.544956,由拳路,891015
浙联金座,66,8494,-0.005066,120.705234,30.769164,洪兴路2203号,890324
建兴国际,1,37162,0.107683,120.704094,31.352741,鱼泾路,888775
香榭水岸,1,8763,0.039068,120.705445,30.766754,新平路88号,890269
锦泽苑,5,28448,0.003882,120.700711,31.349410,汇隆街8号,888777
名都绿洲,8,9420,,120.704901,30.765537,聚贤路,890243
农房斯坦福德小镇(别墅),65,8024,-0.000716,120.715336,31.925390,乐富路99号,889670
佳源优优华府,372,11439,0.000569,120.716681,30.722345,嘉杭路，近开禧路,927358
大树花园(西区),9,8000,,120.717151,30.767225,新秀路256号,890182
亚厦风和苑,1,8333,,120.714359,30.761969,新洲路68号,890290
金贸中心,2,8157,,120.719289,30.541469,石泾路15-17号,1026578
江南摩尔,88,7608,,120.715731,30.768868,高层(12-30层),926316
创都国际名城,9,10812,0.005814,120.715938,30.641450,梅北路666号,890171
中熙梅里江南,19,9982,0.010681,120.718333,30.641942,梅北路，近梅秀路,1012469
华新花园,1,9262,-0.029140,120.719039,30.765692,吴越路158号,890206
大树花园(北区),52,12205,0.001210,120.718791,30.768959,吴越路378号,890181
中梁壹号院,35,9232,0.015649,120.710100,30.500543,江南大道，近农丰路,952796
地中海一号公馆,7,7142,,120.714872,30.549517,横山路,890527
九龙仓国宾1号(别墅),2,46938,,120.713935,31.297141,石莲街9号,888504
中山花园,6,9468,-0.018020,120.719598,30.763871,吴越路88号,890315
新海佳苑,1,8888,,120.713599,30.505998,农丰路，近江南大道,925381
万科吴越,48,12452,-0.013371,120.718305,30.772683,吴越路536号,991000
景佳花苑,7,8069,-0.005852,120.718898,30.877761,虹桥路,926327
东欣佳苑,4,9375,,120.717336,30.519662,海州东路590号,890533
紫金公园府,69,10834,0.005126,120.714381,30.641805,梅秀路，近梅北路,1045787
吉翔澜山,8,10471,0.006222,120.711153,30.547281,碧海路,925385
中海双湾花园,1,14238,,120.714310,31.248953,依湖路,887423
东郊新村,1,7352,,120.713662,30.553140,碧云北路,890532
农房斯坦福德小镇,8,7045,,120.716047,31.926953,乐富路99号,889451
梁林帆影庄,2,8333,,120.715450,30.755936,文昌路1669号,889906
中梁壹号院(别墅),12,11752,-0.000999,120.710171,30.499392,江南大道，近农丰路,952795
大树花园(东区),8,7291,,120.718930,30.767443,蓬莱路61号,890180
华府景苑,1,11149,,120.719207,30.524059,塘南中路777号,890634
青青家园,1,13687,,120.718334,31.350662,珠泾路6号,888783
春晓源(东区),5,8974,,120.716675,30.773446,洪波路1840号,890174
永泰广场,1,10000,,120.716508,30.764019,亚厦路181号,890305
嘉业阳光城,24,11090,0.003348,120.711928,30.767435,新洲路388号,1012468
海宁月亮湾,1,7352,,120.719484,30.528934,碧云南路，近水月亭东路,952789
四季香榭,1,7750,-0.010596,120.710974,30.518658,海州东路,892138
润泽嘉园,12,5714,,120.716704,32.367919,丁新中路,926267
立达汇园公寓,115,8841,-0.000706,120.728672,30.769415,常秀街443号,1012471
十里风荷,172,13528,-0.001255,120.721685,30.537312,碧云北路，近施带路,1026582
御锦湾,10,7500,,120.720946,30.630594,汇丰路,890309
世纪嘉园,2,9302,,120.729770,30.764057,中山西路658号-672号,890255
泰富世界城,162,9144,0.002384,120.725378,30.755086,文昌路1299号,927349
新文化广场,1,6979,0.116640,120.729586,30.754864,香槟街232号,1006361
运河大公馆,293,11910,,120.720794,30.880747,闻川路，近虹桥路,1037256
丁香花园,5,13568,0.026420,120.726982,30.781867,东升西路229号,890183
禾源新都,15,6146,-0.003970,120.729810,30.711582,开禧路,889813
佳园小区,12,7542,-0.000431,120.720177,30.773250,洪殷路516号,890209
四季观邸,1,12156,,120.720673,30.754873,文昌路1431号,1006354
旭辉御府,12,16248,0.027021,120.727252,30.748847,桐乡大道,890067
东方都市,14,13129,-0.001673,120.724109,30.514979,碧云南路,798254
财富广场,5,7721,,120.722781,30.765516,中山西路527号,927357
诚恒世嘉,17,8909,0.000309,120.725149,30.890554,北虹东路129号,797046
金水湾,10,31559,-0.006352,120.724323,31.305712,金鸡湖大道,888526
亲亲家园,28,8136,0.000553,120.728126,30.730857,骏力路211号,889949
嘉兴龙鼎万达广场,273,11111,,120.724729,30.758614,龙凤路,890151
金色华庭,16,8541,,120.727854,30.632714,兴乐路344号,926313
龙鼎国际公馆,112,8678,-0.004103,120.724604,30.758360,龙凤路，近龙舟路,927322
环球国际,95,9400,,120.724935,30.756730,文昌路1209号,944516
昌盛花园(东区),2,7471,,120.724567,30.789015,常秀街,890165
海派秀城,187,9426,0.000690,120.723013,30.773818,洪殷路420号,890327
长虹春天,414,10166,-0.001007,120.729280,30.878145,运河东路，近虹桥路,912652
皇马公寓,24,9499,0.001951,120.725547,30.773114,常秀街,798238
中南闻荷府,495,11235,,120.727367,30.880202,滨河东路,991006
中梁吴越首府,7,10459,,120.729248,30.749459,桐乡大道，近九九大街,927345
白金公馆,21,8181,-0.007340,120.721116,30.502610,碧云南路，近城南大道,892042
恒丰景苑,3,8066,-0.011822,120.728933,30.629517,花园路,890199
阳光城愉景湾,7,41935,,120.723373,31.252114,东方大道，近星湖街,887425
龙泽园,8,12999,-0.045595,120.721008,30.872776,闻川路,795318
中润嘉兴中心,153,6244,-0.004821,120.728086,30.756284,文昌路,927320
紫金凰庭,1,8787,,120.728329,30.787425,同德路135号,890318
晴湾佳苑,2,12432,,120.722802,30.755420,文昌路1299号,798052
新锐公馆,51,8302,-0.009455,120.728574,30.732003,骏力路137号,944518
梅里春天,16,10133,-0.004299,120.728901,30.634682,花园路，近常乐路,926328
新村小区,1,6800,,120.729816,31.160443,小川东路,887116
元一柏庄(一期),6,9687,0.010879,120.720725,30.757734,昌盛南路,890102
金都景苑,57,8085,-0.001204,120.724713,30.764066,中山西路958号,798057
中南闻荷府(别墅),68,10421,0.001105,120.727296,30.879490,滨河东路,991007
新中国际,303,10960,0.001256,120.721019,30.787405,郎中桥路,795304
龙凤公寓,4,8088,0.031238,120.724533,30.766687,洪仁路,890233
洪兴花园,19,9062,-0.017722,120.724383,30.768989,常安街208号,890204
昌盛花园(西区),3,7471,,120.722335,30.789969,昌盛中路,890164
现代广场,3,6402,-0.004548,120.722493,30.758884,昌盛南路1625号,1024179
丽丰新天地,4,9129,0.001344,120.727432,30.758444,龙凤路169号,1024174
常乐苑,3,5263,,120.727546,30.635233,常乐路,890166
海尚壹品,1,50188,,120.722857,31.334635,九华路,888505
巨匠义圣名苑,4,9756,,120.734058,30.743555,中环西路,889893
锦绣江南,29,9485,0.007702,120.731495,30.875485,运河东路1001号,656386
耀城广场,1,15789,,120.736189,30.764976,中山东路,890078
云都大厦,6,10000,,120.739392,30.770845,越秀北路306号,890334
大陆世嘉公寓,3,6666,,120.739097,30.763203,吉杨西路,889743
豪仕登大厦,279,11005,-0.000749,120.733562,30.762848,吉杨路639号,1024169
盛大晶座,6,8749,0.050012,120.735315,30.782583,东升东路2429号,890251
凯旋公寓,1,6915,0.055564,120.733526,30.768750,友谊街44号,890228
银河湾,11,10214,,120.731386,30.728127,银河路,890087
万科悦中环,280,9971,0.000979,120.731320,30.772947,中环西路，近洪殷路,890330
万科中环公园,782,11939,0.000335,120.738163,30.789835,中环北路，近城北路,1022024
越秀银座商务中心,3,4600,,120.739452,30.768348,越秀北路154号,927340
万达华府,55,14882,-0.013179,120.739334,31.690779,富民西路，近珠海路,885328
碧桂园领誉,1,11902,,120.735801,31.616536,苏常公路,884723
嘉兴人才公寓,134,8535,-0.000234,120.735389,30.740864,创新路220号,889865
瑞鑫大厦,6,5454,,120.737850,30.767126,凯旋路88号,1022022
建明公寓,2,6250,,120.736116,30.773287,天河街77号,890218
世纪广场,4,7843,,120.734551,30.765702,中山东路1601号,889975
耀城广场,1,14666,,120.736941,30.763879,中山东路1520号,927313
SOHO宜家,7,7316,-0.006653,120.731428,30.754403,中环西路342号,927341
盛大花园,9,9434,-0.002775,120.736408,30.780869,百墅路437号,890250
南秀花园,21,7308,-0.000171,120.739080,30.745466,越秀南路,889942
万达广场,196,17528,-0.000527,120.738647,31.689116,珠海路8号,885334
爱丁堡(别墅),5,36046,,120.733455,31.489335,湘太路98号,889182
金穗月亮湾,7,8264,-0.008220,120.733320,30.740503,城南路1655号,889882
中行公寓,3,8000,,120.734581,30.767717,凯旋路,890312
天乐苑,1,16789,-0.018258,120.732974,30.726786,银河路172号,889991
银泰花苑,8,5714,,120.733685,30.769709,洪兴路,890303
伊顿花园(别墅),7,24166,,120.736549,31.313862,南施街1号,888652
天城花园(东区),19,5777,0.002516,120.736508,30.774842,天河街168号,890258
杉杉in象,110,11498,-0.011095,120.732647,30.780637,中环西路，近东升东路,890329
友谊公寓,1,12857,,120.734054,30.767014,凯旋路312号,890306
佳源优优城南,10,12517,0.011475,120.735666,30.735902,创新路，近城南路,927346
北禾春天,432,8639,0.000550,120.731266,30.794309,城北路1574号,890332
巴黎印象,7,8192,-0.016625,120.731661,30.631475,花园路351号,926318
嘉兴市公安局宿舍,1,7267,-0.054851,120.739411,30.754860,越秀南路520弄,889866
隆腾广场,3,6400,,120.738913,30.743023,紫竹路18号,1006362
月亮湾(别墅),1,12985,,120.731047,31.263116,康力大道588号,887183
绿洲别墅,1,20000,,120.734701,31.299690,金鸡湖大道,888568
越秀花园,39,8823,,120.736602,30.762111,吉杨路488号,890108
盛大晶座(商住楼),55,7022,0.023317,120.736723,30.781757,东升东路2429号,991004
聚成广场,2,9000,,120.740833,30.740087,城南路，近由拳路,927355
乐澄花园,17,11369,,120.741046,31.499896,城中路91号,889162
城南花园,100,8249,-0.000515,120.749117,30.757658,城南路237号,889732
名典公寓,8,10227,-0.007352,120.741301,30.765561,中山东路1276号,889930
时代阳光小区,1,6739,,120.748583,30.795721,禾兴北路946号,890254
中楠穆溪左岸(东区),1,14457,,120.749956,30.799768,禾兴北路1135号,890314
龙鑫公寓,1,7142,,120.748490,30.779078,东升东路1676号,889909
同乐社区,1,7049,,120.749877,30.775865,同乐路433号,890004
长新公寓,3,7812,,120.749033,30.730787,翠柳路,890119
蔚蓝澳洲中心,30,9561,0.000445,120.746328,30.740649,紫竹路,991785
放鹤洲花园(北区),2,12083,,120.747682,30.749446,望鹤路36号,889772
瀛洲花园,1,10771,-0.023325,120.745258,30.750814,城南路657,890092
香港兴业御缇湾,3,9911,,120.745724,30.733576,翠柳路,890038
赞成清华府邸,17,10000,,120.743782,30.744358,城南路1038号,890115
南都中心,230,9038,-0.001381,120.742264,30.745174,城南路，近中环南路,1006356
嘉悦大厦,108,10000,,120.740188,30.765507,中山东路1292号,991788
万科海上传奇,183,15876,0.004985,120.741272,30.743001,城南路1155号,798055
星雅汇,17,9462,0.000767,120.747291,30.745041,清华路245号,927352
云景雅轩,2,10743,,120.743074,30.791999,同心路，近禾平街,1037257
绿地新里铂克公馆,8,38118,,120.744709,31.699242,深圳路,885000
越秀里小区,1,10000,,120.740390,30.762323,吉杨路280号,890109
天天嘉苑(北区),2,9565,,120.748083,30.750987,怡南路162号,889994
长新公寓,4,8666,0.008613,120.749262,30.734535,长桥路,890121
滨江花苑(一期),1,8064,,120.746505,32.054422,龙江路，近长江北路,918441
中环广场,7,8695,,120.741428,30.748205,中环南路，越秀路,1006359
龙之梦悦庭,126,9583,,120.745286,30.747210,中环南路1969号,1006355
怡南花园,6,7750,,120.748357,30.752509,城南路516号,890085
花园社区,2,7960,-0.004315,120.743164,30.777860,东升路,889824
天城园林居,18,10833,-0.055328,120.744782,30.754834,文昌路148号,889989
嘉城南都苑,6,10250,,120.742488,30.745082,城南路,889860
望鹤苑,1,8571,,120.747374,30.747447,中环南路,890012
中央花园,11,15058,,120.743802,30.765360,明月路50号,890133
桃源小区,1,13500,,120.744348,31.661512,桃源涧南弄,885122
远洋绿洲,5,9857,,120.746415,30.761900,吉水路272号,890104
锦绣苑,24,7738,0.000582,120.740056,30.774081,越秀北路483号,889884
大树金港湾,9,8578,0.005627,120.745204,30.738607,由拳路499号,889745
海上新园,4,10631,,120.740988,30.743883,城南路,889805
城南花园文苑里,1,8085,,120.748165,30.756203,城南路351号,889733
新秀苑,7,5380,-0.002226,120.742256,30.778181,东升东路,905027
云水谣,1,17476,-0.015215,120.746996,31.155860,松厍路88号,887097
朗诗国际街区,2,57459,,120.748758,31.311159,津梁街8号,888541
阳海景怡(中区),1,8333,,120.746112,30.802280,云海路69号,890297
万达花苑,2,13921,,120.744462,31.629315,招商南路200号,885134
紫元尚园,4,9557,-0.000601,120.742693,30.741221,城南路,890141
老年公寓,21,6988,0.031135,120.741913,30.780210,东升中路,889902
放鹤洲花园,6,13333,,120.749209,30.748426,放鹤洲路562号,889771
吉安公寓,1,8000,,120.744783,30.765056,吉安路15号,889834
望湖公馆,6,10000,,120.746050,30.737358,由拳路,890014
放鹤洲花园(南区),1,17115,,120.747323,30.748178,望鹤路99号,889773
西丽社区,1,7720,,120.746518,30.765469,西园弄65号,890034
放鹤洲花园(一期),3,12000,,120.749968,30.754493,放鹤洲路159号,889770
长新公寓(北区),23,7651,-0.000653,120.747789,30.738915,由拳路,890120
紫金豪园,1,21959,0.318384,120.748393,31.678400,南沙路,885271
华发雅苑,1,8870,,120.758894,30.732695,珠庵路219号,889826
金桥假日丽厦,1,8571,,120.752438,30.785130,禾兴北路331号,1006357
东菱梅湾花园,14,12005,-0.005488,120.751714,30.756870,城南路158号,889760
月河公寓(南区),9,7062,0.001028,120.753214,30.777075,同乐路,890105
花语湖,1,10588,,120.752570,30.797040,禾兴北路,890205
泰安新村,4,25451,0.002067,120.759609,31.657272,泰安街,885120
郎诗未来街区,6,22650,,120.756045,31.376547,青澄路9号,888251
三元公寓,1,15452,-0.059880,120.751188,30.785176,三元路915号,889964
紫溪花园,13,11035,0.045401,120.754983,30.792344,中环北路846号,890319
江海名都,3,6923,,120.751310,32.099276,育才路,918446
禾城世纪花园,2,7317,,120.751041,30.795733,禾兴北路,890195
府南花园东(二区),1,8611,,120.759058,30.735031,新气象路1130号,889786
宇隆嘉苑,11,8863,,120.758484,30.830590,奥星路278号,438527
杨柳湾公寓,1,8000,,120.750428,30.763662,安乐路189号,890076
月河公寓(北区),4,6617,,120.753124,30.777469,同乐路272号,890106
绿溪玫瑰园(北区),13,9569,0.006071,120.757561,30.743072,会展路98号,889923
纺织大厦,10,3560,,120.751604,30.767146,中山路148,1024178
四季香公寓,2,7095,,120.754930,30.770366,民生路25号,889981
银建公寓,1,9075,0.035250,120.759322,30.764801,府南街37号,890090
南杨新村,7,7384,,120.752688,30.764198,斜西街,889943
金鼎广场,2,12567,,120.759564,30.771516,建国南路400号,1006366
旭辉广场,10,14864,0.001533,120.753237,30.766893,中山东路666号,927347
西马桥社区,3,7258,,120.750336,30.788530,禾兴北路522号,890035
中为苑,1,2989,,120.750051,30.771706,洪堰路,890129
绿溪玫瑰园(南区),3,8589,,120.757525,30.742125,会展路105号,889922
新东方商厦,1,9000,,120.755730,30.771434,禾兴南路833号,927339
石雪公寓(南区),6,7446,,120.759463,30.716735,石隆路103号,889969
紫欣公寓,4,20735,0.112552,120.757905,30.763029,杨柳湾路23号,890138
朗诗未来街区一二期,3,18306,,120.755663,31.376193,青澄路，近科智路,888255
石雪公寓(西区),7,8959,0.014120,120.759140,30.718629,南泉路,889968
中山名都,2,9489,,120.752605,30.769118,中山东路639号,890128
大地公寓,5,7216,-0.009845,120.755515,30.761781,砖桥街45号,889741
百福公寓,2,7894,,120.750817,30.764401,安乐路152号,800914
半岛公寓,3,8333,,120.750630,30.774584,城北路58号,889722
蓝天嘉苑,6,7879,0.002896,120.756639,30.738430,新气象路929号,889901
丽江苑,1,21125,0.391591,120.755750,31.676388,长江路286号,884976
府南花园(三区),21,10731,,120.756587,30.731325,新气象路,889787
九信公寓,4,10000,,120.755975,30.760420,禾兴南路，近环城南路,1024172
托斯卡纳(二期),99,10505,,120.767398,30.833190,奥星路87号,926315
青龙公寓,3,18429,0.029236,120.767248,30.775831,青龙街,889950
天星如意湾,19,8552,,120.762725,30.814281,天星西路505号,793893
海纳公馆(东区),8,9887,0.032314,120.767314,30.812794,天星西路188号,890194
望湖公寓,21,8495,-0.000911,120.763770,30.766396,大年堂前135号,890015
秀水人家,5,9285,,120.766418,30.775922,青龙街42号,890062
金禾商住楼,1,7800,,120.762617,30.774231,秀州路505号,927311
台昇国际广场悦府,254,10675,0.000820,120.761220,30.729118,花园路,792519
康达公寓,8,8711,,120.763626,30.767935,秀州路,889897
果园新村,1,11926,,120.768755,32.043603,果园路,917736
东方新家园,1,6304,,120.769504,30.789084,锦绣路,890185
秀州公寓,3,8787,,120.762844,30.775114,环城北路509号,890064
马厍花苑,4,5600,,120.769216,30.829516,马库路,890240
春波景苑,3,7083,,120.769236,30.775753,大新路193号,363888
大华城市花园,24,10002,-0.000075,120.760840,30.741471,会展路257号,889742
中兴公寓,2,6750,,120.760437,30.773069,劳动路288,890130
台昇璞悦汇,74,11489,-0.011444,120.761230,30.728998,长水路,992975
格兰春天,55,8088,-0.010944,120.766714,30.814461,天星西路255号,890193
祥生玖熙花苑,280,11323,0.000751,120.763161,30.716403,新气象路,890153
新雅公寓,1,6557,,120.766175,30.769058,中山东路39号,1006364
嘉禾北京城,3,9545,,120.761365,30.780216,北京路37号,889862
彩虹公寓,3,7516,0.017050,120.767685,30.776128,青龙街95号,889725
弘信观湖,17,8632,0.003662,120.762504,30.831289,奥星路191号,610586
优优花园,10,10543,-0.000545,120.764606,30.726095,长水路,890093
南郊花苑(北区),6,9272,,120.761722,30.725000,马塘路278号,889939
嘉城景帆苑,8,7598,-0.021064,120.760224,30.782745,新丝路21号,889853
丽苑小区(北区),8,6636,0.004693,120.765352,30.818423,正原北路,890230
香格丽花园(别墅),1,21352,,120.766064,31.660657,枫林路17号,885304
骏园,2,9693,,120.764299,30.721477,花园路,889896
秋泾公寓,2,7136,0.006488,120.767331,30.784496,大东路43号,797728
水岸丽都,24,10971,0.000274,120.762617,30.812969,东方路,797902
金地艺境,416,11348,,120.761123,30.822724,东方路，近正阳西路,990999
优优花园,13,10083,-0.010695,120.764600,30.725782,花园路，近东升路,927332
福达公寓,1,6551,,120.762981,30.766255,环城南路,889784
府南花园(一区),4,7865,,120.760369,30.738011,新气象路946号,889789
怡苑豪宅,50,8333,,120.766058,30.773638,解放路69号,890086
南郊花苑(南区),1,8165,-0.043239,120.761764,30.724233,马塘路275号,889938
恒大绿洲,103,8749,0.000486,120.763610,30.822442,正原北路,890198
长泰花苑,3,14743,,120.773952,31.676397,泰山路18号,885252
枫杨坊,3,6153,,120.779983,30.764849,天竹路71号,889777
石榴坊,4,8148,,120.779360,30.760274,农翔路,927324
湖滨花园,31,13215,0.084147,120.771875,30.766736,纺工路25号,889822
新湖绿都,59,7880,,120.774235,30.766418,纺工路84号,890050
佳源都市(西区),12,10598,-0.007886,120.778519,30.784961,城东路,889847
南溪花园,82,8548,,120.775393,30.763175,纺工路262号,889940
文苑小区,65,8269,0.075013,120.779076,30.743105,纺工路,890031
城东公寓,13,8214,0.004095,120.771038,30.773008,城东路373号,889730
湖滨花园,1,11428,,120.773022,30.769976,人民东路132号,890149
中南世纪城(别墅),24,17879,-0.003261,120.776976,31.661712,泰山南路,885307
南湖星辰湾,1,7040,,120.772713,30.789101,锦绣路199号,798058
赞成紫景雅苑,1,9164,,120.770150,30.779333,东方路438号,890117
烟湖苑,1,8108,,120.772514,30.746516,海盐塘路558号,890069
凌波苑,18,7831,,120.774213,30.783640,凌塘路319号,889907
佳源都市(三四期),5,11412,0.001118,120.777200,30.786582,佳园路，近凌塘路,927321
东方新家园(南区),4,17910,-0.000181,120.771292,30.786207,东方路,890184
水仙坊,2,7384,,120.778220,30.758173,南溪西路,927323
绢纺三村,10,7058,,120.775698,30.760211,纺工路462号,889895
迦南美地广场,19,8704,0.004095,120.770591,30.716350,槜李路,1006358
名湖人家,1,10000,,120.772759,30.754920,海盐塘路,889931
和风丽园,110,7372,-0.000847,120.774577,30.797100,和风路474号,890196
皇冠花苑,7,8426,,120.773082,30.754569,菱香路34号,889832
文星花园海棠苑,3,12727,,120.775471,30.749476,纺工路959号,890025
新虹桥花苑,7,7432,0.011019,120.770545,30.775827,城东路,905025
烟雨社区,2,8139,,120.772724,30.750422,海盐塘路328号,890071
东豪名都,3,14632,0.033059,120.770362,30.781853,东方路572号,889756
文星花园汇龙苑,5,8627,,120.779803,30.748212,凌公塘路773号,890026
荣盛香韵花苑,187,13483,,120.770778,30.780674,凌塘路,992976
华美小区,1,9640,0.330791,120.775086,30.779204,城东路792号,889827
铁树坊,6,7692,,120.778541,30.761887,景湖路，近天枫路,927335
赞成学仕苑,46,10534,-0.000711,120.778020,30.747518,纺工路1166号,890116
中南世纪城,21,19429,0.001830,120.777834,31.665070,泰山南路,885263
翰林府第,61,10354,-0.002433,120.775606,30.747650,纺工路1235号,798054
南湖小区,227,8252,0.000364,120.773893,30.754450,菱香路40号,889937
虹凌阁,2,8333,,120.774553,30.784871,凌塘北路,889819
爱尚公馆,229,9574,,120.776996,30.792913,中环北路，近塘汇路,890326
平安家园,5,16295,0.029406,120.775429,30.790405,塘汇路,890248
锦荷佳苑,2,12500,,120.783843,31.649423,富康路，近香山南路,884944
桂苑,1,8113,,120.784431,30.760168,南溪西路1412号,889804
九里苑,1,16000,,120.787104,31.674701,九里大街23号,884954
禾东公寓(北区),16,8725,-0.008523,120.782644,30.783914,周安路162号,889809
嘉辉Loft公馆,224,8564,0.001462,120.789773,30.774693,湘溪路76号,927331
禾东公寓(南区),135,8241,0.002433,120.782999,30.782549,周安路161号,889808
富安臻园,1,11000,,120.786298,30.756941,南溪路,889792
都市文涛苑,9,11029,,120.784197,30.742899,中环南路136号,889765
徐王公寓,4,10000,,120.783329,30.780757,徐王街59号,890065
万家花园,87,9441,-0.003825,120.783221,30.757686,望湖路108号,890006
百隆花园,1,10078,-0.027805,120.786414,30.766253,中环东路,889718
百盛花园,2,12948,0.002225,120.785866,30.751850,百盛路,889721
绿城柳岸禾风,24,13068,,120.786651,30.796141,塘汇路，近茶园路,1012476
冶金新村,3,3150,,120.782155,30.763892,中环东路,927329
桂林坊,1,8823,,120.781191,30.765743,枫杨路,889803
文贤苑(西区),1,7926,,120.782865,30.732165,富强路467号,890023
文贤苑(东区),2,7500,,120.785353,30.732060,富强路468号,890024
尚东名邸,88,8695,,120.782558,30.789134,中环北路,657418
创业公寓,267,10674,0.000750,120.784988,30.775423,创业路,889734
香缇御峰,1,11944,,120.783457,30.719572,纺工路,890040
百盛花园,9,14000,,120.786143,31.636398,富阳路,884715
香缇世家,2,10525,0.002381,120.783527,30.719379,纺工路,890039
天华苑,1,9659,,120.785867,30.758995,南溪西路1450号,889990
嘉辉南湖美寓,53,9627,-0.000441,120.787286,30.775387,中环东路,890150
明珠花园,7,7151,-0.058856,120.789202,31.055971,西鹤路91号,887164
万达公寓,25,11610,0.055454,120.780500,31.648506,新世纪大道，近富康路,885133
荣盛富盛名邸(别墅),1,12107,,120.784029,30.735022,由拳路，近富润路,1024170
大树英格澜,447,10092,-0.001015,120.788779,30.708394,纺工路,778364
云洲苑,2,15384,,120.782315,30.751763,农翔路556号,890112
世茂尚景蓝湾,20,10285,,120.788409,30.711942,五环洞路88号,440697
三景花园,6,11454,0.002824,120.786279,30.763907,泾水路216号,889960
荣盛富盛名邸,99,9954,-0.002255,120.782647,30.734973,由拳路，近富润路,1024171
石堰苑(南区),3,10606,,120.787147,30.714691,纺工路,889973
巴黎都市,99,11715,0.002353,120.784979,30.745990,凌公塘路,649803
华盛广场新邻域,1,8125,,120.788576,30.732081,乌桥路，近普民路,927353
新禾家苑,4,5675,,120.787451,30.801179,和风路1156号,658728
佳源优优中环,419,11562,0.000346,120.786945,30.776975,中环东路，近长安路,1024177
世茂尚景翠苑,2,9153,,120.788818,30.710830,五环洞路,889976
嘉辉南湖美寓,7,8333,,120.787290,30.775335,湘溪路76号,890154
中安银领国际,15,9954,-0.030958,120.786728,30.782059,中环东路,1045786
蔚蓝澳洲花园,14,8617,-0.004908,120.789596,30.748576,凌公塘路1233号,890017
农翔苑,11,9879,,120.784275,30.753900,望湖路127号,797422
天竹坊,131,7290,0.000686,120.780315,30.763122,天竹路,889999
奥园黄金海岸,47,11144,-0.007547,120.789423,30.792567,永政路98号,794708
龙山景苑,3,7407,,120.785526,30.423539,龙山路，近龙晓路,952792
国际中港城,126,9400,,120.799201,30.744628,广益路555号,890148
御溪花园,11,12465,0.000984,120.796026,30.752872,双溪路1163号,890100
中成新世纪公寓,26,7278,0.001169,120.799125,30.746614,中港路79号,890126
久久小区,149,8061,0.003236,120.795205,30.734400,双溪路,889891
紫竹名苑,24,11185,0.002936,120.791061,30.759633,景宜路183号,890142
举秀苑,2,11029,,120.794819,30.730736,文贤路837,889892
荣盛百合花园,17,11641,0.002951,120.794158,30.793711,城东路,1012466
富康苑,1,13663,-0.049297,120.792413,31.634344,香榭路18号,884816
桃李春风景苑,36,8994,-0.000222,120.798747,30.345156,钱塘江路,1005437
中南公寓,66,8216,0.004769,120.791906,30.736512,由拳路2717号,890127
茶香坊(东区),5,8548,0.002845,120.798530,30.793854,章园路559号,890162
森兰公寓,1,22857,,120.799366,31.607571,东南大道28号,885069
茶香坊(北区),8,8574,0.005630,120.797806,30.795018,章园路,890161
格林小镇,8,12959,0.002999,120.794128,30.745506,格林路199号,889797
同方燕语林苑,1,11375,,120.793496,30.758879,南溪西路2208号,890001
泰富商业广场,2,8629,0.039574,120.790177,30.757771,南溪西路2035号,1006365
金山苑,1,16000,,120.790599,31.642340,香椿路,884925
嘉城绿都春兰苑,2,9676,,120.790841,30.773085,湘溪路,805600
信达东郡,1,10631,,120.792363,30.756810,景宜路,905030
水榭花都,33,10298,,120.790543,30.746045,景宜路963号,889980
嘉城绿都芙蓉苑,3,8983,-0.054342,120.793338,30.781226,宜城路,889854
怡和园,1,9518,,120.790902,30.755863,景宜路425号,890081
怡江苑,42,7000,,120.799250,30.679440,镇北大街112号,890082
云东公寓,54,8888,,120.798955,30.733580,由拳路，近双溪路,952907
金山苑一区,4,13928,,120.790704,31.642429,金山路，近富泰路,884931
金鼎花园,1,11111,,120.793149,31.095495,金鼎东路,887153
紫金艺境,89,10664,-0.003923,120.791935,30.734955,乌桥路100号,890156
承安南湖壹品,2,14285,,120.790614,30.731981,文贤路，近普民路,927344
嘉城绿都紫薇苑,6,8360,0.031208,120.791771,30.774656,湘溪路,889859
广宜文苑,5,9239,0.001735,120.790789,30.744291,景宜路1055号,889802
经房浅水湾,5,7727,,120.792058,30.799334,鸣羊路,720987
康桥花园,8,13068,,120.792450,30.748486,景宜路838号,889898
秀景苑,3,9066,-0.002805,120.798466,30.670390,贤埭街,890059
汇金广场,3,7254,,120.793289,30.743940,广益路247,927315
力宝翡翠花园,2,8277,0.000363,120.793597,30.753939,望湖路585号,889905
皇都花苑,17,11214,-0.000891,120.793868,30.757285,南溪西路2219号,889831
滨江嘉苑,3,8109,-0.014822,120.792841,30.343300,新民路，近硖尖公路,952787
华玉佳苑,28,8200,,120.797802,30.789472,鸣羊路,890207
赞成丽景苑,52,9742,0.003606,120.792932,30.765657,双溪路453号,890114
金陵花园,1,14000,,120.800569,31.365569,金陵西路,888204
嘉兴世界贸易中心,3,7692,,120.802746,30.743694,广益路，近云东路,927337
万好家居,4,6060,,120.808635,30.743838,庆丰路，近广益路,1006360
金凤城,20,8589,0.005414,120.805059,30.339178,凤凰路38号,952790
万达华府,933,12103,-0.001506,120.808393,30.740711,广益路,798053
金凤城,47,9797,0.016523,120.804814,30.339630,凤凰路38号,917182
青年公社,9,12727,,120.809407,31.329555,青丘街,888673
翠湖壹号,1,12179,,120.808680,30.753608,庆丰路896号,889739
金凤城(别墅),6,10582,,120.805030,30.337892,凤凰路38号,917183
紫澜别墅,4,10771,0.060629,120.803065,30.748316,中港路,802035
仁和锦居,2,7133,0.024268,120.805644,32.094208,集秀路68号,917743
双溪花园,49,8524,-0.001757,120.800387,30.760102,南溪西路2536号,889978
郁金香岸,1,16818,,120.803766,30.753714,云东路,890096
万达公馆,661,11316,-0.001896,120.803298,30.742026,广益路,1006353
丽江半岛,106,13571,,120.805594,30.737857,云东路，近塘桥路,890152
铂金府邸,47,12745,0.000334,120.809590,30.745707,中港路619号,797985
雨润天阁,2,7647,,120.805877,30.757969,庆丰路665号,798239
新贤园小区,9,8089,,120.807775,30.669947,五星路,890051
庆丰苑,3,12941,,120.809066,30.759346,南溪东路96号,889958
宝格丽公馆,268,11928,-0.000042,120.805966,30.740052,庆丰路,794506
美迪家园,28,7653,,120.804225,30.673728,民新路18号,617272
景湖花园,30,9329,0.004793,120.803560,30.760243,云东路62号,889890
苹果假日,4,7578,-0.001614,120.807585,30.743202,庆丰路，近广益路,927328
龙翔大厦,75,8260,-0.013642,120.805699,30.744361,庆丰路1407号,927351
南德大院,3,16973,-0.010234,120.808252,30.756262,南溪路，近庆丰路,927354
信达翰林兰庭,4,12000,,120.811254,30.755926,南江路,890052
中南公馆,24,8496,0.001267,120.810493,30.744351,九曲路，近南江路,927343
信源亲水湾,13,10047,-0.025082,120.816962,30.745701,广益路,798232
三泰家园,2,7209,,120.814595,30.682576,余北大街,889963
天凝金水湾,105,10453,0.003287,120.819726,30.898785,兴贤东路,556918
海阳广场,2,10000,,120.813113,31.748172,迎宾路,884835
仁和苑,3,10000,,120.815146,30.682031,余北大街,889959
金地都会艺境,680,11801,0.001443,120.814447,30.676806,新昌路，近幸福路,944520
金都夏宫,1,12134,,120.813294,30.754643,南溪路,889875
佳源东方都市(别墅),3,11412,,120.821185,30.737343,亚欧路,927326
御上江南景园,6,10724,0.007113,120.825418,30.741064,亚欧路656号,890097
中洲花溪地,69,11111,,120.829028,30.736753,由拳路,952158
佳源东方都市,76,11284,0.004272,120.822712,30.738920,亚欧路,927327
亚太花苑,10,8041,,120.820765,30.750167,凌公塘路2758号,890068
永兴花苑,1,11071,,120.826948,32.041938,利民路,917837
鑫控吴越学府,59,10709,0.002692,120.825326,30.735292,由拳路,989586
上置香岛庄园,12,8818,,120.822815,30.815683,灵湖路,889966
信达格兰上郡,16,17279,,120.823948,30.730240,亚欧路，近三环东路,927334
天欣花苑,10,6424,-0.003606,120.820319,30.900832,兴贤东路,799974
绿景名邸,2,10298,,120.827014,30.749708,凌公塘路3082号,927350
九城嘉佳家,32,9318,,120.822169,30.746977,亚欧路,794314
永和佳苑,1,7258,,120.828014,32.046512,永杨路,917835
华章御树湾,1,10714,,120.829547,30.747963,智慧路,889829
紫金豪庄(别墅),3,10529,-0.022240,120.821930,30.709518,民丰路,515443
七星花园,2,12875,0.026447,120.829406,30.816761,兴星路,889948
绿地新都会,16,28361,,120.826719,30.745029,亚美路,889919
佳源英伦都市,130,9190,0.000517,120.821434,30.746947,新风路,939499
黎明苑,2,9550,,120.821126,30.715118,东余线,889903
嘉兴总部商务花园,94,7051,-0.004483,120.824534,30.745164,广益路,889867
公园佳苑,2,13563,,120.828103,32.071462,新华路,917753
东方悦宫,163,9834,-0.001041,120.824780,30.686004,余北大街，近东余线,952903
湘都公寓松音坊,2,7555,,120.827646,30.761838,三环东路,890043
广益大厦,140,10000,,120.824420,30.745707,亚欧路465号,912651
盛和永兴花苑,1,11397,,120.827431,32.042453,黄海路,917815
宏润花园,52,10645,0.002165,120.821682,30.741504,亚欧路,889818
江南新家园,138,6650,0.009678,120.826554,30.824094,湘家荡大道,889873
上置香岛澜湾,8,7554,-0.017813,120.827978,30.812676,灵湖路1号,801631
东方天玺大厦,1,10869,,120.825835,30.743277,仁和路359号,927348
南通赛格时代广场,3,8666,,120.836707,32.046778,深南路,917849
梅湘园,2,10258,0.002835,120.830407,30.803162,灵湖东路857号,1024165
大树绿苑(北区),16,8208,0.017888,120.835743,30.823223,兴民路,889747
碧水云天,41,10854,-0.000460,120.834656,31.024821,新友路,941272
好第坊,49,8526,0.218000,120.831449,30.743293,中环南路,767010
尚品公馆,34,8856,0.005022,120.838711,30.578030,大洋东路8号,793572
湘湘恬园,86,9722,,120.834385,30.820291,兴民路,952906
荣盛观湖景园,35,7898,0.000507,120.833662,30.823423,兴民路,991787
明珠花苑,10,9779,0.061632,120.833485,32.356111,三三四省道,918228
万达华府,79,13009,-0.003886,120.839077,32.041499,江海大道336号,917824
湘湘恬园(别墅),2,9394,0.006644,120.834857,30.818896,兴民路,952905
金色家园,10,7576,0.061957,120.830424,30.853878,南星桥路，近麟溪路,941366
大树绿苑(南区),6,9146,,120.836255,30.822079,潭星路147号,889746
湘湖长岛御墅,11,10578,0.003534,120.832104,30.815603,七星路770号,799068
水乡景苑,19,7930,0.000252,120.848822,30.913576,洪兴路,890456
长江一品,1,14000,,120.845519,32.064898,长泰路,917844
凝欣花苑,12,9401,0.035435,120.843494,30.914691,西周路8号,404633
龙隐水庄,1,9879,0.056577,120.847106,31.138150,大学路66号,883828
南龙房开,11,6555,,120.849630,30.898276,兴洪路,378211
湖滨半岛公馆,1,9210,0.220386,120.849949,31.128492,大桥路68号 ,884472
幸福新居,1,8066,0.011220,120.842462,32.093053,福利路,917778
新城香溢紫郡,8,9213,,120.849325,32.073347,通宁大道，近永兴大道,917762
阳光花园,1,36199,,120.840395,31.639055,银河路818号,885206
金玉满唐,1,16666,,120.856845,31.552025,中环路,884939
明珠花苑,2,8586,,120.856803,31.030501,临沪东路259号,887165
百合苑,128,7897,-0.000095,120.859037,31.377600,君子亭路140号,883284
紫金花园,275,10919,,120.859477,30.536435,招宝路300号,940420
中山花园小区,21,6976,,120.851010,31.030375,芦莘大道471号,887179
中港城皇家公寓,2,10937,0.009646,120.851776,32.046690,濠西路290号,917845
常熟玲珑花园(别墅),1,10905,,120.851783,31.561755,金唐路128号,885348
万象北园,1,8980,-0.100781,120.857236,32.025021,万象路,917335
瑾润九仰周庄,2,14285,,120.853942,31.124636,全福路,883724
天香花苑,18,13715,0.001936,120.857107,30.751663,天明路478号,889996
阳澄苏园,1,14333,,120.857441,31.471291,学院路,884246
中港城世家一期,3,9333,,120.853199,32.047048,濠西路,917856
丰泽园,1,16162,,120.854209,31.436080,湖滨南路680号,883440
东方大厦,1,11904,,120.853864,32.009708,青年西路109号,917274
杨林小区,2,13333,,120.859634,31.455630,巴城湖滨路,884259
颐和花园,2,8744,,120.855910,32.027512,孩儿巷北路，近万象北路,917346
怡园新村,3,9090,,120.857261,32.050587,通宁大道,917833
嘉乐城,6,13563,,120.858299,31.040458,城司路， 近洋砂路,627853
阳光花园,1,10707,,120.852626,32.029139,孩儿巷北路69号,917343
华府庄园,1,12465,,120.859970,31.393648,马鞍山路1999号,883595
吴江虹桥花园,1,12276,,120.857561,31.043414,洋砂路,887173
新建路新村,2,16279,,120.858341,32.013853,新建路,917340
凤华丽都(北区),1,14186,,120.859411,30.666403,凤启路378号,889778
绿城玫瑰园(别墅),37,73858,,120.853176,31.440633,湖滨路3888号,884626
湖畔首府,637,9746,-0.000820,120.853830,30.536653,滨河路，近南王线,1010375
兰花园,1,14154,,120.857140,31.123472,全功路202号,884684
绿城玫瑰园(昆山市),7,20000,,120.850477,31.442726,湖滨路3888号,883839
桃花园,1,11566,-0.006656,120.852695,31.122609,全功路274号,884085
瑞丰花园,1,10819,,120.851279,32.028132,食品路,917319
昆山华美达湖滨别墅,1,16153,,120.853166,31.417089,湖滨南路,883775
平湖塘花苑,45,8144,-0.002266,120.856508,30.747226,天宁路,889946
幸福锦园,1,7954,,120.855657,32.091586,福利路，近福达路,917774
水韵花苑,141,8611,0.004110,120.859871,31.131918,云亭路,884065
民欣花苑,1,7216,,120.859115,30.538669,招宝路，近学才路,890512
绿洲国际商务城,3,12123,,120.866388,32.061094,长华路158号,917806
周庄万盛园,3,9113,,120.865228,31.115954,全福路138号,884388
万科金域蓝湾,15,13297,,120.869286,32.055436,永怡路558号,917827
云谷周庄,5,9360,,120.869422,31.153519,大桥路,884337
锦江苑,2,14166,,120.865595,32.034008,钟秀中路,917386
明丰环湖花园(别墅),1,14090,,120.864245,31.042316,城司路666号,417641
碧桂园湖悦天境花园,390,17557,0.000413,120.863794,31.037428,清河路,941269
水月周庄(别墅),33,14857,,120.865385,31.130888,全旺路88号,884641
银河柳岸,1,8593,,120.864668,31.718110,将军路58号,885217
银杏苑(北区),5,6419,,120.860939,31.377949,君子亭路，近下塘街,946579
顾家花苑,267,6249,0.022791,120.864196,30.754266,中华大道,889800
景丽茗苑,2,8988,,120.861300,30.540342,招宝路,890511
金桥名苑,1,7692,,120.863346,30.746797,广益路,889879
桃源东湾,12,9645,0.003616,120.861509,30.671209,凤篂路548号,889985
平湖瑞园,1,15053,,120.860762,31.246098,湖滨路188号,888167
凤华丽都(南区),4,9285,,120.860040,30.665083,新康路,889779
万科未来之城,53,14582,-0.000634,120.869609,31.339062,晨丰路288号,1032529
凤南新村,11,5725,-0.016956,120.866883,30.659701,凤南路,889782
光明新村,8,9732,-0.008077,120.867345,32.006905,虹桥路,917281
大众湖滨雅园,11,15730,,120.864543,31.032656,浦港南路568号,887144
水月周庄,78,12634,0.004452,120.866824,31.131208,全旺路88号,884064
梦想家园,3,10000,,120.866038,31.034196,浦港路，近江苏路,887250
友谊嘉御龙庭,1,10545,,120.869856,32.054476,永怡路555号,917840
桃源林语,26,9677,,120.865377,30.670500,大桥路,628030
绿城春风十里,789,12411,0.005937,120.866473,30.670492,大桥路,795305
锦绣佳苑,204,11432,0.003115,120.860563,30.539723,招宝路,1010372
桂花园,2,11486,,120.860419,31.122488,全功路,883500
金科东方水榭,1,11904,,120.873321,31.262356,柯福路1号,888198
阳澄尚东,2,8412,,120.871098,31.376688,君子亭东路,884245
晶水楼台,1,7500,,120.874479,31.055969,联南路,556624
太阳湖大花园,58,16665,-0.000330,120.875842,31.086002,张园东路88号,13044
友谊家园,4,35081,0.003576,120.879683,32.036663,濠东路228号,917398
春晓苑,10,9000,,120.870895,31.713460,寺泾路,884784
江海名苑,1,30942,0.032105,120.875340,32.021335,环城东路,917456
碧桂园凤凰岛,4,12806,,120.873310,31.246014,湖滨路68号,888124
月亮湾,70,12666,,120.874323,31.055519,康力大道588号,792708
碧桂园十里江南,251,15878,0.002605,120.874211,31.094671,张园东路1450号,887140
天邻湖景,6,14906,,120.878957,31.239350,甫澄南路18号,888177
弘阳甪源,2,18095,,120.872363,31.284931,甪直大道，近甫澄北路,1005434
御景澜庭,1,13138,,120.871583,32.059051,友谊路，近永和路,917841
天润尚院,60,13770,0.000182,120.874324,31.126558,周商公路1号,884102
荷塘月色景苑,155,10084,0.001191,120.887327,30.950897,西汉大道,605852
南方大厦,16,7820,,120.885968,32.038840,工农路108号,917388
神州通城西印象,1,10666,,120.888915,31.438529,景新路,884516
新城翡翠湾,11,15111,,120.885875,31.392568,古城路668号,884185
锦安花园,1,10232,,120.885016,31.999429,城山路,917232
小城春秋,272,10982,-0.000228,120.881798,30.766100,嘉善大道113号,890047
西塘新天地,46,13500,,120.887624,30.942249,南苑路,623405
天安花园(别墅),1,37500,,120.888837,31.993214,洪江路88号,917262
碧水佳园,2,10209,0.008271,120.889240,31.449526,祖冲之路,883323
天馨花苑,2,38064,,120.885658,32.024213,平安路,917504
和兴花苑,1,16935,,120.886359,32.023065,平安路8号,917447
柏林春天,1,20203,0.125641,120.889581,31.388351,前进西路,883288
果岭上的日子,1,6250,,120.890063,31.388479,前进西路,884539
绿城玉兰公寓,1,22000,,120.891288,31.983169,世纪大道99号,917604
莱茵河畔,13,14625,0.012531,120.897185,31.990235,沿河路1号,917233
望江新村,36,7769,0.004655,120.891890,31.278860,震阳路126号,884130
五一新村,2,13994,-0.066552,120.896408,31.995932,洪江路，近启印路,917245
汇宏新村,2,11904,,120.897443,31.281847,汇宏路,883622
天都花苑(南区),2,12000,,120.897858,31.991688,沿河路，近工农南路,917240
金龙花苑,16,25000,,120.891081,32.025286,板桥路,917460
海佳名邸,80,9599,-0.000521,120.896546,31.387934,前进西路,883509
滨江花园,1,8088,,120.890592,31.967383,紫琅南路18号,917622
恒隆商业广场,1,9206,-0.010267,120.908700,30.946854,祥符路，近南苑路,941373
水乡学府,1,8000,,120.901101,30.897172,镇北路,890457
中南世纪城北区,1,16550,,120.905591,31.979221,桃园路,917613
水晶湖畔,9,13279,,120.906704,31.091494,张元东路2号,465974
龙熹园(A区),2,8000,,120.900347,30.894630,窑砖北路79号,890451
禾众商业广场,29,10222,,120.901916,30.835526,城西大道,890453
塞纳蓝湾,247,12105,,120.905387,30.823632,世纪大道,652309
清风华院(别墅),4,26470,,120.902968,31.403944,登云路88号,884636
百合春天,47,11287,0.001397,120.903200,30.827770,阳光西路1283号,611837
亚福江南春晓,34,9977,0.014902,120.902329,30.890640,窑兴路,635024
书香门邸,13,11111,,120.905626,30.827555,阳光西路,648227
紫桂花园,15,8764,,120.903396,30.890058,叶新路61号,890447
海盐碧桂园,838,10193,0.000343,120.917234,30.522669,出海路1000号,890516
绿地新都会,12,23296,0.001548,120.915186,32.027745,人民路718号,917583
锦和苑(西区),2,10599,0.002127,120.912115,30.832483,子胥路600号,890385
光耀城,2733,14147,-0.000247,120.917339,30.864417,善西公路,1043140
锦园新村,6,12297,0.012827,120.910405,31.179377,长寿路,883722
御景湾,17,11049,0.001859,120.917205,30.830329,体育南路,890440
临江景苑,11,12168,-0.001682,120.916631,30.821231,体育南路1558号,890393
水榭蓝湾,53,9791,-0.011609,120.919513,31.181217,长寿东路,884061
时代悦府,9,15530,,120.912402,31.384236,体育场路,884465
东鼎名人府邸,750,12191,,120.912548,30.887146,善西公路,780044
北大金城,187,10155,0.000838,120.919038,30.861928,体育北路533号,439978
山水壹号,3,17336,-0.003134,120.918850,31.941103,常青路9号,917648
物美大厦,15,8333,,120.918569,30.841091,晋阳西路558号,941374
润家广场,108,9989,0.004500,120.916018,30.518114,联翔路,1010373
南通壹城九间堂山居,1,18055,,120.916429,31.950402,工农南路18号,917625
兰亭御园,14,14992,0.006208,120.914852,31.413793,林荫路777号,884469
汇丰家园,19,11049,0.001859,120.910586,30.820948,白水塘路,890366
魏武宸章,1254,12825,0.005685,120.916706,30.865659,善西公路,1043139
金大元御珑宫廷,20,61581,0.000244,120.919393,31.415422,博雅路，近萧林西路,884483
孔雀城澜院,60,13384,0.000224,120.915852,30.814112,白马线,890455
御溪雅苑,8,17021,,120.919095,31.177596,环湖北路168号,884467
倚林佳园,9,10813,,120.919873,31.179927,锦虬路,884270
银河景苑,15,8705,0.004558,120.919002,30.844099,体育南路298号,890432
和风雅颂(别墅),1,14715,,120.915230,31.408047,博士路99,884562
江南印象,191,11070,-0.007108,120.910211,30.946785,南苑路288号,610553
四季江南,21,9990,0.000375,120.918684,30.822539,体育南路1583号,798193
顺城锦湖湾,21,9558,,120.915482,31.177596,长寿路,884066
嘉河花苑,1,9866,,120.925936,30.844046,亭桥南路,890368
馨逸家园,57,9022,-0.004002,120.928929,31.285143,江浦南路,884207
江南乐章,3,11805,,120.922791,30.838540,亭桥南路438号,890377
清水湾(别墅),7,18136,-0.006954,120.928420,31.404910,花园路2813号,884637
景河苑,13,21581,0.033276,120.921531,32.022648,国胜路,917581
蓝天家园,1,12000,,120.920354,30.835976,体育南路855号,890390
鑫河湾,6,20967,,120.926215,31.181492,长寿东路,884210
商华新村,34,11818,,120.929428,31.122566,商榻商周路28弄,559269
新城海上风华,140,10714,,120.926520,30.827400,世纪大道，近车站南路,952781
罗马假日,1,11333,,120.927624,31.406966,花园路，近虹祺路,883838
双龙景苑,141,7131,0.000561,120.926607,30.707550,平林路,889977
中大未来城,5,21123,,120.921576,31.388959,共青路,884364
万丰公寓,2,7800,,120.928586,30.714300,万丰路,890005
风景英伦,1,14772,,120.924809,31.410669,萧林中路,883443
亭桥阳光名邸,3,35647,-0.193422,120.924255,30.844538,钱家汇27号,890420
御翠花苑,16,10588,,120.926549,30.705304,平林路969-971号,500443
龙鼎御园雅仕苑,4,13396,,120.920473,30.843641,瓶山街,890397
万联花园,442,13621,0.000349,120.928326,30.824385,世纪大道,890421
星宇花园,1,7407,,120.925386,31.954198,源兴路567号,917658
淀山湖别墅,88,25074,0.000549,120.924067,31.071855,金商公路1348弄,877245
东方润园,99,14445,-0.001037,120.928365,30.707788,平林路928号,889755
金都上品,10,12677,-0.013865,120.922407,30.822638,亭桥南路,890384
明珠小区,9,9511,0.026827,120.923277,30.827242,亭桥南路,890401
嘉园城市心境,9,12339,-0.004317,120.927113,30.838843,车站南路576号,890375
永福花园,8,9176,,120.922842,30.841239,晋阳西路,890437
上海威尼斯花园,94,17738,0.000254,120.927180,31.072862,沪青平公路8600号,8734
常和景苑,1,10484,0.031991,120.924752,30.521733,曲秀路,890463
万丰苑小区,2,9264,,120.922097,31.369583,中华园西路,884127
优山美地花园(别墅),4,17500,,120.921942,31.944042,星湖大道1888号,917667
嘉樾府,22,13602,0.002229,120.927050,30.854156,环北西路182号,1043138
常绿景苑,3,11609,,120.924286,30.515735,河南西路298号,890465
天居华庭,7,16464,0.005128,120.921105,31.385571,前进西路,884098
晶都华庭,3,8500,,120.927552,30.850936,亭桥北路51号,1043133
上城春天里,4,8947,,120.922953,30.518983,曲秀路336号,1010362
花亭小区,1,8955,,120.923855,30.849966,花园路,890365
滨江花苑,20,8928,,120.923927,30.846426,中山西路228号,890341
常秀景苑,1,9568,-0.019773,120.928774,30.520512,中兴路368号,1010351
天地华城,17,15928,0.001540,120.924757,31.388292,前进西路1188号,884094
恒利国贸广场,2,6462,0.008072,120.926560,30.846064,中山西路118号,941375
滨湖绿洲,29,10769,,120.926045,30.819710,白水塘路,890340
恒盛豪庭,1,11565,0.138624,120.923128,32.020664,东晖东侧路,917578
枫丹御园,10,12728,0.006186,120.928903,31.177136,环湖北路118号,883444
瑞香花园,117,10315,0.001529,120.928218,30.854368,瑞香路16-18号,890407
润土嘉和,43,9570,-0.000366,120.927525,30.853665,环北西路115号,790520
中南世纪新城,1,11538,,120.920737,31.991142,观新路，世伦路,917608
格林春天,47,11315,,120.928175,30.852383,车站北路118号,890362
首创青旅岛尚,15,12318,,120.921143,31.162634,同周公路，近溪锦商公路,884049
凤凰花苑,21,6716,,120.929017,30.624229,嘉盐路,614808
开元广场,4,8837,,120.922324,30.834429,人民大道1023号,941372
嘉都名苑,5,9453,-0.004816,120.922116,30.850030,花园路55号,798192
中南世纪花城一期,1,16980,,120.927071,31.986506,世纪大道，近盘香路,917615
硕士花园,22,7750,0.010958,120.920613,30.848041,魏塘体育路,890416
和兴家园东区,1,9500,,120.928867,30.855597,船厂路2,1043137
优山美地花园,4,15903,-0.003181,120.922271,31.945773,星湖大道1888号,917661
华德力公园壹号,31,11000,,120.935274,31.278722,翰林路，近通湖路,883592
乔克国贸中心,101,10458,0.001340,120.932108,30.826874,嘉善大道518号,941368
幽澜苑,1,9101,,120.930985,30.844675,罗星路64-66号,890438
中信花园,8,10000,,120.930827,30.852600,车站北路,798066
龙柏花苑,22,24991,0.000110,120.933623,30.843572,谈公南路,890395
盈湖花园,145,8312,-0.000721,120.939845,30.828816,农商路333号,890435
世博名邸,7,10400,,120.934770,30.833378,嘉善大道,890412
景辰大厦,2,11206,,120.931777,30.824494,嘉善大道666号,941369
中兴花苑,5,6041,-0.015643,120.936435,31.925488,厦门路,917705
铂金广场,61,9000,,120.933081,30.821509,环城南路，近嘉善大道,941378
明鑫凯迪城,4,15230,,120.939931,31.385595,虹桥路118号,883753
金溪五村,27,14562,-0.024876,120.931755,31.040830,培育路125弄,818155
东方名嘉(南区),4,10299,0.002141,120.938944,30.836028,施家南路668号,890354
张浦裕花园,53,9566,0.005518,120.935724,31.284597,锦上路,884348
金桥公寓,4,11568,0.040217,120.935705,31.931497,金桥路8号,917679
解放一村,1,10500,,120.934533,30.849764,斜家桥路,890381
南华苑,1,12307,-0.023679,120.935631,31.399694,鹿城路,883900
丰泽湾花园别墅,44,17467,0.005961,120.938791,31.127482,锦商公路4781弄,8732
顺城名湾,68,9776,-0.016028,120.939273,31.280946,翰林路,884067
置地公馆,74,7142,,120.934595,30.830520,阳光路，近嘉善大道,890459
东方名嘉(东区),1,10186,-0.000760,120.939419,30.839014,晋阳东路,890353
金汇智博,1,7303,,120.934809,30.514000,百尺南路，近环城南路,890509
嘉华春晓,81,11725,-0.000298,120.939936,30.824398,农商路163号,890369
金华新村,79,18411,0.001414,120.931841,31.120776,宝银路21弄,818553
银泰花园,4,6466,-0.023373,120.939321,30.864744,谈公北路777号,890434
东方名嘉(西区),22,10943,0.001052,120.934785,30.837153,嘉善大道,890352
万联城,157,10234,-0.000391,120.933918,30.824594,嘉善大道688号,890458
昆城博奥苑,1,11666,,120.935677,31.376833,江浦路,883768
东方名邸,16,7884,,120.935080,30.855117,谈公北路274号,890351
华庭公寓,2,8400,,120.931769,30.853703,环北东路,1043134
楠林水岸,184,11388,0.002685,120.931882,31.073242,沪青平公路8499弄,8562
富康花苑,3,10273,,120.935130,30.836051,人民大道758号,890361
嘉善置地广场,343,7512,-0.000466,120.932625,30.840969,嘉善大道399号,890454
罗星公寓,1,12772,-0.044189,120.938936,30.843486,罗星路,890399
长泰花园,36,11421,-0.000438,120.936223,31.744674,扬子江大道7号,885251
玉兰新村玫瑰里,1,14117,,120.933092,30.844792,罗星路,890439
纳帕溪醍,17,23961,0.000564,120.931842,31.149217,锦商路66号,884551
银河新都,23,21948,0.000034,120.939134,31.285124,银河路,884277
碧悦湾,119,9259,0.016410,120.939673,31.300015,振新西路999号,883324
商榻老街小区,126,8119,0.000801,120.934063,31.127372,商榻北路278号,652550
景辰家园,8,10533,,120.931292,30.823742,嘉善大道,890388
淀滨宝岛别墅,17,17094,,120.930578,31.118617,宝银路175号,817491
新景花园,5,6117,,120.936771,32.280264,解放路,918254
学仕嘉园,2,11842,,120.939564,30.842746,罗星路539号,890427
嘉景公寓,3,9848,,120.935733,30.840254,晋阳东路179号,890370
海图公寓,31,13848,,120.931694,31.119237,宝银路139弄,8603
金溪三村,59,11237,0.009024,120.930354,31.042053,金溪三村,818152
金水湾花园,6,6128,0.006736,120.933238,32.357631,交通东路7号,918264
金域蓝湾,3,14705,,120.933610,30.515432,百尺南路,890486
商盛秋居(南区),5,8823,,120.936098,30.863089,谈公北路,890410
崇文府第,5,10918,0.003377,120.938103,30.829121,阳光东路383号,890344
开源公寓,1,10223,,120.937012,30.862502,谈公北路,890389
日月星辰,29,10189,-0.134377,120.932076,30.850654,解放东路76号,890406
金汇智博广场,2,10000,,120.934809,30.514062,百尺南路,890510
世博帝宝花园,25,13600,,120.934077,30.828770,嘉善大道,730498
富民新村,3,10714,,120.937565,31.926210,厦门路,917707
龙柏花苑(北区),16,32104,-0.194662,120.933598,30.843436,罗星路,890394
丰泽湾,1,16966,,120.934548,31.148236,锦商路,883439
舜江碧水豪园(南区),1,10227,,120.936694,31.292733,京东路688号,884068
嘉德花苑,1,10526,,120.949191,30.873575,汾湖路150号,890367
大公小区,2,10408,,120.946090,31.365873,中华园路,883375
星海花园,2,14090,,120.943334,31.390403,马鞍山东路287号,884216
金洲阳光,23,8540,0.007670,120.945645,30.546548,华丰路，近百尺北路,1010359
金洲海尚,813,11235,,120.941722,30.548217,百尺北路，近华丰路,1010358
虹桥大厦,1,11714,,120.941702,31.387234,前进西路1098号,946505
桃园小区,3,15182,0.027338,120.949667,31.236482,桃园路，近洛阳西路,884512
上海星城花苑,70,8373,0.001974,120.943267,31.290604,新吴街288号,884004
嘉辰花苑,38,10273,,120.947039,30.855605,施家北路,798191
明珠花园,1,7500,,120.948701,31.924050,上海路,917682
风泽泗洲,3,10650,0.027148,120.948145,30.838499,晋阳东路589号,890360
东方曼哈顿,3,34978,,120.948037,31.386979,白马泾路,884417
中茂花苑,2,8311,0.097517,120.948395,30.523118,勤俭路,798197
盛巷小区,2,12222,,120.947111,31.303579,港浦中路,884032
绿城花苑,1,6575,,120.947103,30.523231,勤俭北路250-6号,890487
保利壹品,5,7640,,120.944935,30.535052,海丰西路283号,1010350
郁金香花苑,3,68002,-0.011189,120.946490,31.402094,花园路1555号,884318
南塘琴园,6,7632,0.000393,120.943930,30.519677,朝阳西路94号,890488
古荡佳苑,127,7941,0.000535,120.945976,30.544962,华丰路,890472
合景天峻,384,11562,0.000324,120.943759,30.547666,百尺北路，近华丰路,1018747
翡翠公馆,1105,12360,,120.944333,30.875380,申友路1号,908960
丁香花园,9,8642,0.007109,120.941928,30.858361,施家北路378号,941370
河滨小区,1,7905,-0.069941,120.943460,30.512632,勤俭南路58号,1010356
四海家园,1,6902,,120.949359,31.935878,复兴路,917688
城市花园,8,6451,,120.944815,30.521849,朝阳西路151号,1010352
阳光家园,4,9543,-0.005859,120.940306,30.523809,百尺北路3号,890513
淀山湖上海岛庄园,26,21846,0.016708,120.945960,31.155139,锦商公路,883395
赵厍花园,5,15517,,120.940230,31.380273,明星路,884355
嘉善博文府邸,47,12477,0.004589,120.945316,30.844108,环城东路288号,941376
苏家浜小区,1,8269,-0.003525,120.948513,30.828372,阳光东路458号,890417
海上印象花园,9,7861,0.001912,120.942945,31.294426,京东路555号,883511
天鸿名都,1,8550,0.064819,120.942055,30.534014,百尺北路155号,890492
富新园,1,5555,,120.943500,31.922248,振兴路91号,917675
水韵金城,16,11394,0.000022,120.940995,30.882028,木业大道643号,556488
南桥温馨家园,6,8697,0.292732,120.946248,30.875243,外环东路,502616
湖光里小区,2,14492,-0.071291,120.958835,31.250298,天盛路68号,883563
名城花园东区,3,6994,0.007200,120.952418,31.285802,商秧路，近海虹路,989820
金都花园,3,9230,,120.959240,31.411565,北门路,883689
太阳岛高尔夫别墅,3,32272,,120.950027,31.257293,碧云路195号,884080
友谊苑,1,10200,,120.955710,31.471907,陆苑路,884299
丁香花园,2,9230,,120.956501,31.408972,北门路386号,883399
昆山国际模具城,8,8000,,120.952842,31.462115,北门路，近玉杨路,946552
M旭辉城,189,15384,,120.959234,30.913100,姚庄大道，近兴学路,1023389
双洋湖水秀庭院,41,13751,0.032531,120.958657,31.250267,天盛路68号,884054
金汇奥园,2,8720,,120.958877,30.536952,新桥北路,890517
润江花园,37,8622,0.007832,120.951643,30.787413,云寺西路139号,890408
新城家园,3,21356,0.027583,120.959701,31.406076,北门路,884186
象屿两岸贸易中心,4,16180,-0.012692,120.954026,31.363366,创业路，近珑庭路,926374
景秀苑,11,9501,0.001977,120.950314,31.413388,水秀路,883735
象屿珑庭,6,13777,0.007477,120.955043,31.364766,中华园路1555号,884168
水秀江南,2,11344,0.002519,120.950034,31.415366,水秀路1207号,884674
东方丽都,1,5027,-0.104994,120.954940,32.137715,东环路，近三总路,918460
杜桥景园,1,11136,,120.953568,31.428226,永丰余路,884602
紫荆花园,2,11193,0.019028,120.959701,31.408315,北门路329号,884399
金汇奥园,15,10205,-0.015483,120.958892,30.536915,海丰路，近新桥北路,890508
大众湖滨花园东区(别墅),101,14761,,120.958678,30.826827,之江路,890347
新桥花苑,2,15384,,120.956100,30.519064,新桥南路81号,890498
小城春秋,52,11821,-0.000042,120.955794,30.831816,福泉山路，近之江路,941364
京浦花园,1,7325,,120.954027,31.297836,亲和路,883725
北城新境,3,10295,-0.005914,120.955218,31.454996,迎宾中路,883307
名城花园,33,8333,,120.951388,31.281697,商秧路,883883
象屿珑庭(二期),9,15381,0.019199,120.955062,31.364081,珑庭路,989806
中山新村,2,13181,,120.956975,31.384319,中山北路,884379
水木晶华,21,10094,,120.956033,30.839593,晋阳东路859号,890414
锦楠苑,2,10273,,120.959580,30.788573,云寺西路,795254
滨海未来城(人才小区),31,9265,-0.002073,120.952811,30.547694,华丰路，近长安路,941363
尚城国际花园,1,15184,-0.065297,120.954838,31.429482,北门路1388号,884008
富康花园,1,12112,,120.953962,31.418400,环庆路,883472
景瑞十八号,1,9677,,120.952983,31.932474,新开北路,917680
象屿珑公馆,62,14024,-0.001637,120.954893,31.362353,九华山路,884167
鹏轩,87,7851,-0.001240,120.955459,31.355770,小渡河路,883923
中都华庭,9,9508,,120.956360,30.785029,康兴西路，近云溪北路,952782
大运府邸,18,10506,0.012431,120.957746,30.787590,云寺东路,890346
阳光逸品,2,12941,,120.953021,31.432174,永丰余路1579号,884255
金科集美嘉悦,45,14881,0.026948,120.959629,30.914493,兴学路，近姚庄大道,1040369
玉虹新村,1,12647,,120.959071,31.381266,朝阳路,884308
嘉兴苑,17,12318,0.001138,120.958786,31.425531,北门路1209号,883651
南庭嘉园,1,15681,,120.955274,31.370491,衡山路,883903
昆城景苑,49,16575,0.005307,120.959798,31.372163,衡山路1500号,883770
凤凰名邸,162,9090,,120.951314,30.586988,盐佳路,1010371
桃源新村,3,10348,,120.959706,31.385348,中山路,884090
仁宝新天地,37,10055,0.013582,120.957675,31.369061,衡山路1399号,883979
泰和苑,2,14318,,120.956330,31.379331,朝阳支路63号,884082
海逸豪园,1,8478,,120.950704,30.548205,长安北路558号,1030694
春晓苑,6,10000,,120.957695,30.824000,之江路,635121
巴比伦国际广场,79,13871,0.007865,120.958761,31.367202,人民南路998号,883275
月亮湾,56,9527,0.024683,120.958779,31.236010,淞沪中路171号,884452
芳满庭,3,18684,0.028273,120.952762,30.545689,长安路，近华丰路,1010354
永丰大厦,1,7906,,120.952061,31.410151,萧林路1043号,946523
汇杰雅苑,1,11910,,120.959559,31.368344,衡山路,883623
世茂新界,8,8109,0.041014,120.956452,31.925999,新河东路,917686
中达美林(三期),1,10911,0.006503,120.958934,30.552420,丰潭路,796261
名都花园,2,9764,,120.950298,31.409604,水秀路643号,883884
大树星岛花园,6,13523,-0.001477,120.955279,30.821788,之江路1号,890345
胜利新村,1,14250,0.335919,120.953235,31.426650,北门路,884023
明珠花园,4,9295,0.000673,120.959591,31.403359,花园路761号,883889
巴比伦国际广场(商住楼),16,15000,,120.959108,31.366679,人民南路998号,946585
水云庄园,9,9508,,120.951710,30.546043,长安北路488号,890491
南街小区,1,13636,,120.958497,31.383959,南街,883901
常发香城名园,33,11676,0.003308,120.957181,31.367486,中华园路1558号,883344
嘉汇城市广场,153,11065,0.009120,120.963072,30.841260,惠民大道,801496
长江绿岛,25,9364,0.006097,120.960075,31.472790,长江北路,884351
亭林路194号小区,1,18032,,120.960931,31.392881,亭林路194号,884543
海风苑,1,8272,,120.964077,30.526394,城东路,890473
枫景苑B区,8,8719,-0.002003,120.962014,31.354442,雁荡山路,883446
世茂蝶湖湾(别墅),5,10037,0.024051,120.968956,31.345991,新南中路288号,884660
江南春堤二期,31,7260,0.000689,120.964615,31.319390,振新东路898号,883667
江南春天,3,10738,,120.964427,31.415275,紫竹路689号,883672
东方新村,2,14062,0.002495,120.968231,31.378809,朝阳西路,883411
盛世钱塘,12,9184,0.014974,120.966085,30.544082,城东路,890489
青春里,2,24208,0.004033,120.961745,31.387899,前进西路218号,883952
恒大御景,153,9686,0.005554,120.967946,30.544005,海兴东路,890481
海盐金色海岸,19,10721,,120.967900,30.537590,海丰东路,890506
柏庐天下,105,9125,-0.001204,120.962613,31.356300,普陀山路,883292
富贵花园,1,9887,,120.967400,31.406246,紫竹路,883467
汇景公寓,6,13147,-0.000323,120.969399,31.366054,衡山路,883624
优优滨海,59,9968,-0.002052,120.967627,30.546657,盐北路，近滨海大道,890515
江南春堤玫瑰苑,28,9098,0.000165,120.963603,31.314504,俱巷路894号,883668
紫照花园,6,8636,,120.969171,31.403530,同心路,884402
天华佳园,18,12680,0.001263,120.966205,31.373110,合丰路,884097
九方城天悦,1,13571,,120.963451,31.412843,紫竹路，近友缘路,883738
朝阳新村,59,14908,0.003703,120.963697,31.376115,合兴西路,883350
丽水湾(东区),6,12894,,120.964356,31.243084,商鞅湖路,989826
博悦城,49,10637,-0.005493,120.969667,31.362492,中华园路,989846
阳光昆城,29,11655,0.010009,120.962421,31.406910,紫竹路500号,884249
上城艺墅,11,15000,,120.965314,30.523639,盐平塘东路，近闻琴路,1010364
盐平秋月,3,6836,,120.965864,30.553247,盐北路,1010374
杏园,2,23598,0.301542,120.966647,31.398634,昆太路,884224
大德玲珑湾,14,10220,0.002403,120.964679,31.410027,萧林路699号,883372
置地广场,4,14861,0.003173,120.963823,31.379611,人民南路,884360
枫景苑A区,55,9560,-0.001514,120.966585,31.353207,柏庐南路,883445
四季华城,86,14667,0.002906,120.964945,31.364694,中华园路836号,884071
吉田国际广场,2,17804,-0.085670,120.968596,31.358068,创业路666号,883632
海盐金色江湾,1237,11460,,120.961207,30.546897,新桥北路,1010370
江南春堤牡丹苑,6,9159,0.004662,120.965097,31.312484,俱巷路913号,883669
景江花苑,7,8656,,120.965601,30.914956,新景南路192号,617044
丽水湾(西区),2,13368,0.009668,120.962395,31.243903,商鞅湖路,883806
月城湾新村,5,16153,,120.969674,31.385820,震川路,884329
嘉丽花苑,24,7998,-0.008185,120.964335,30.884368,里泽大道210号,890371
德信泊林公馆,2,8767,-0.009602,120.966158,30.533547,城东路,890468
澳洲花园,32,11158,0.003959,120.965784,30.916477,新景南路,890335
中港白金大厦,396,9677,,120.963976,31.933455,长虹路6号,995630
海景苑,4,8004,-0.005714,120.965404,30.533612,城东路,890475
东方经典花苑,84,11287,-0.007431,120.965034,30.913943,汇源路,594604
江南春堤一期,2,7258,,120.964451,31.318917,振新东路,883671
跃进新村,8,15620,0.010856,120.966516,31.374740,跃进路,884332
滨海一号,35,10817,-0.024572,120.965231,30.525788,城东路490号,890505
恒天花园里,80,13076,,120.968853,30.847843,泰山路81号,727136
中兴兰溪荟,3,4000,-0.046987,120.967066,31.941026,景微路，近宏兴大道,1016076
朗逸湾,12,5764,,120.965645,31.607867,支川西路8号,884971
海盐金色海岸,9,11026,0.002933,120.967859,30.537590,新桥北路281号,890507
金山大厦,3,11627,,120.965225,31.382775,南城河岸3号,884415
竹园四季花城,5,13762,0.013663,120.964497,31.399577,紫竹路,884396
祥生悦澜湾,626,12300,0.000895,120.966466,30.536712,城东路,994851
中星城际广场鼎苑,2,12054,0.006198,120.962030,31.361504,九华山路60号,884381
万科海上传奇,207,16793,-0.002495,120.967917,31.187395,周同公路，近锦东路,993646
人民南路72号小区,1,12653,,120.964221,31.376954,人民南路72号,883977
盛荣花园,22,10921,-0.027298,120.968765,31.415729,紫竹路,884030
万和家园,13,11505,-0.002947,120.966441,31.912501,广贤路,917725
宝领家园,16,11008,0.006929,120.967652,31.367216,宝领路51号,884676
皓康小时代,32,9326,-0.001419,120.961811,31.436819,昆北路,883522
新城柏丽湾,16,10766,0.006803,120.961945,31.342168,小澞河路,884184
金色海岸,204,10860,,120.967895,30.537530,海丰路，近海滨大道,890518
巴黎海琴公馆,30,8007,-0.000312,120.967084,30.530635,枣园东路,890502
星润花园,1,6964,,120.963799,31.910533,瑞兴路158号,917729
碧桂园云谷,10,10493,,120.963523,31.938144,通盛大道，近宏兴路,1016079
世茂蝶湖湾,60,10831,0.000046,120.969312,31.347002,新南中路288号,884042
金洲海景,163,10208,,120.969418,30.548988,盐北路，近滨海大道,940422
城南印象,51,8290,-0.003845,120.967388,31.365931,衡山路,884540
花园新村,2,10059,0.136382,120.967805,31.996259,花园路,918634
宝领新村,59,9159,-0.003021,120.967200,31.366864,衡山路,883302
枫景苑C区,64,9339,0.005843,120.960143,31.354543,雁荡山路,883447
衡山城,45,11739,0.002926,120.961430,31.365346,中华园路1518号,883545
时代御湾,1,14735,0.017873,120.973144,31.194961,锦淀路,884039
雍景湾南苑,4,17872,0.010931,120.971222,31.374079,柏庐路,884290
中华园,59,9487,-0.004329,120.975454,31.360056,衡山路,884370
长泰淀湖观园(别墅),43,20174,-0.001880,120.974260,31.175128,锦耀路333号,884353
新城香溢紫郡(南区),8,11194,,120.972085,31.335900,青淞路，近长江南路,946584
万豪佳园(别墅),3,7886,,120.973989,31.612781,支塘集贤路,885303
花园新村,2,11099,-0.060559,120.979385,31.378815,环城东路,883587
江南新村,1,15555,,120.970817,31.386385,柏庐中路278号,883676
金泰花苑,9,11081,0.005125,120.971478,31.616012,集贤路18号,885344
雍景湾东苑,2,13650,,120.974205,31.373929,柏庐南路1111号,884289
利得国际,2,11110,0.071511,120.978930,31.355029,长江南路666号,884707
西苑新村,5,16274,,120.976821,31.385175,珠江路,884145
万科初见,45,9090,,120.970358,31.467624,长江北路999号,884428
菁英汇,3,9808,-0.013254,120.972942,31.354978,创业路588号,883728
城市名人府邸,1,11842,,120.979763,32.008274,青年东路,918627
春漪园,1,9538,,120.976175,31.374464,珠江南路,883369
龙之天地,5,7925,0.003165,120.975610,31.455081,长江北路888号,883829
嘉尚年华,54,8988,,120.972134,30.851012,东升路129号,890460
柏盛园,5,15453,0.021719,120.971707,31.370873,柏庐南路,883294
时代御湖,45,14886,-0.007583,120.973309,31.194803,锦淀路189号,884038
新城香溢紫郡(商住楼),3,7481,,120.971796,31.337417,青淞路，近长江南路,884709
合兴苑,1,9189,,120.977852,31.371721,合兴路343号,883530
朗峰裕花园,1,12886,,120.975054,31.369554,庆丰西路573号,883792
新港湾(别墅),1,14141,,120.973194,31.408142,柏庐北路,884526
锦绣佳苑,20,10083,0.000918,120.970562,30.917252,洪福路，近锦绣大道,1040368
新城金樾,460,10114,,120.979782,30.681138,九场公路，近S202,1023925
新港湾,1,12613,,120.971975,31.407964,柏庐北路,884195
珠江新村,1,16181,,120.977244,31.385977,珠江北路,884391
新城香溢紫郡(北区),2,13134,,120.972311,31.337617,青淞路,884190
碧桂园中央公园,427,10408,,120.973605,30.549029,盐北路，近滨海大道,1032296
开元悦都,75,9623,0.001561,120.976414,30.680646,曹丰路,993644
上海公馆,3,21548,0.160054,120.976955,31.369594,珠江南路33号,884001
万豪佳园,3,7812,,120.973252,31.613411,支塘集贤路,794389
世茂蝶湖湾(二期),42,9155,0.006569,120.973599,31.345364,新南中路288号,989818
阳光城翡丽海岸,306,11158,-0.000627,120.973138,30.545631,滨海大道，近华丰路,1018748
滨江丽景,17,12124,-0.000082,120.976049,31.399132,永芳路,883327
加州阳光城,21,8679,-0.000518,120.971799,30.913332,洪福东路666号,527415
新城域,74,9359,0.002571,120.970059,31.339016,长江南路88号,884191
滨江花园,3,11486,0.001548,120.978670,31.406441,汉林路,883325
淀滨新村,51,12666,,120.973268,31.071199,岑中路96弄,652346
长泰淀湖观园,48,14608,-0.000051,120.973982,31.172827,锦耀路333号,998762
康怡园,13,14101,0.077437,120.977213,31.377236,朝阳中路465号,883762
中景名苑,1,9407,0.021444,120.978218,30.840654,惠民大道359,890452
澳洲阳光,2,10250,,120.971192,31.399978,柏庐北路,883274
新城天地,87,14857,0.006589,120.976082,31.377858,柏庐路,884189
鑫茂东苑,21,9623,0.008145,120.988372,31.476689,鑫茂路360号,884669
弥敦城,6,9836,,120.982544,31.360004,衡山路，近长江路,883880
阳光世纪花园,34,10793,0.003300,120.987280,31.401060,长江北路99号,884250
永平花园,4,11563,0.031122,120.987492,31.434933,东辉路,884292
玉兰公馆(别墅),4,19285,,120.981865,31.359259,衡山路，近长江南路,946544
中楠都汇广场,1,20000,,120.986664,31.409264,萧林东路,884377
新都银座,3,11034,0.012084,120.986409,31.380427,长江南路1233号,946531
保昆公寓,1,12972,,120.984023,31.386203,黄河北路81号,883304
日月星城,7,9687,0.021216,120.985950,31.368201,长江南路1138号,883982
青晨涵璧湾,31,29652,0.005579,120.984835,31.061093,练西公路3585弄,818517
华青公寓,20,11350,-0.024327,120.985990,31.394955,樾城路5号,883596
江南明珠苑,2,12804,,120.982022,31.411384,长江北路198号,883675
宁静花园,1,10667,0.014865,120.987460,31.398335,昆太路568号,883908
清水依瓦诺,2,15036,-0.049390,120.982636,31.200083,锦淀路88号,883970
昆山花园,39,11362,0.004864,120.982304,31.405876,长江北路118号,883774
金塘园,5,18333,,120.986567,31.414867,金浦路,883706
杉欣花园,36,11184,0.012768,120.989612,31.393192,同丰西路,883997
巴比伦花园,5,15869,-0.071554,120.987330,31.412614,长江北路289号,883276
昆山玉兰公馆,196,23023,,120.980419,31.359020,长江中路,946535
东方丽池,3,9461,,120.984942,31.366453,庆丰西路298号,883407
南苑新村,1,9850,,120.981408,31.385503,震川中路，近珠江路,883906
清水湾别墅,1,14387,,120.983330,31.195556,锦淀公路88号,884698
御景苑,5,30810,0.035551,120.988454,31.385041,黑龙江北路8号,884320
港佳公园里,44,11250,,120.983092,31.393633,同丰西路,883484
国际华城,179,12476,0.000662,120.984394,31.092741,沪青平公路7502号,862559
华青公寓,22,9961,0.001835,120.986454,31.395031,樾城路50号,883605
青春驿站,2,11614,-0.075332,120.981237,31.423427,富士康路,883955
宝成铂金国际大厦,11,12181,,120.984141,31.421708,长江北路，近富士康路,884444
金茂云庭,1,12272,,120.984063,31.367186,合兴路,883697
东苑小区,3,21896,-0.028032,120.983076,31.388637,黄河北路197号,884547
澳宇花园,1,14375,,120.982041,31.417750,长江北路,883273
花都艺墅(别墅),1,18905,,120.988796,31.421150,长江北路335号,884610
翡翠名都,1,10000,,120.984953,31.369489,长江南路,883435
蓝海LaVíe,2,12757,0.001177,120.985091,31.382013,长江中路,883790
绿洲家园,8,10410,,120.987132,31.380308,长江中路179号,883858
君悦豪庭,8,11482,0.001155,120.985014,31.381082,长江中路168号,884622
云澜湾七里别墅,312,13390,-0.002217,120.984242,30.819913,大云云澜路888号,890444
君临天下花园,1,10769,,120.991011,31.412776,白塘路555号,883747
锦上御府,51,8645,0.000781,120.998408,31.276820,宏洋路,883715
昆山万达广场,23,12250,0.005046,120.997549,31.418372,青阳北路238号,884419
春晖锦苑,27,9304,0.001776,120.994015,31.402646,春晖路,883364
富力湾(别墅),52,14686,0.001893,120.997577,31.175380,万园路88号,883473
纳帕尔湾山庄,15,13765,0.003646,120.996508,31.194851,新乐路1666号,883898
中楠锦绣嘉园,5,10416,,120.998493,31.401800,昆太路,884378
凯悦花园,12,16368,0.006116,120.990416,31.391808,黑龙江北路169号,883755
莲花小区,92,11206,,120.994401,31.054442,练西路2755弄,306889
博威黄金海岸,2,13750,,120.992954,31.418972,新纬路888号,883617
合生国际花园,1,14660,0.258715,120.994570,31.467101,迎周路99号,883526
绿中海,27,31971,,120.993856,31.369663,朝阳中路77号,883857
合生颐廷(别墅),3,30000,,120.993656,31.465726,迎周路88号,884608
中楠双水湾花园,42,10902,0.001516,120.996377,31.399586,昆太路458号,883951
嘉裕广场,2,7204,-0.009963,120.991276,31.404928,春晖路,883654
合生国际花园(别墅),23,25641,,120.994772,31.466339,迎周路99号,884607
外滩印象花园,1,10582,0.006755,120.997556,31.361393,庆丰东路555号,884125
淀湖芳华里,40,11834,0.001566,120.994195,31.193320,新乐路2002号,883389
上郡花园,14,7946,-0.000943,120.997197,31.272704,少卿西路，近宏洋路,926377
泊仕公寓,1,8756,,120.990510,31.395418,杉欣路,883332
名人华城,11,7949,-0.023464,120.996014,31.278103,宏洋路,883888
富力湾,101,12890,0.001515,120.999553,31.170884,万园路88号,999689
丽景花园,5,9046,,120.990092,31.390020,前进中路,883803
御澜湾,7,32666,0.006858,120.999171,31.397594,桃花江路199号,884510
金色港湾,5,12309,-0.004730,120.995688,31.395472,桃花江路181号,883701
江湾国际中心,24,8000,,121.002568,31.848217,江成路1090号,952778
淀山花城,20,14222,,121.009540,31.186233,新乐路555号,883397
淀湖鹿鸣九里,53,17374,0.011351,121.002524,31.163435,万园路66号,883391
富华园,1,12097,-0.002679,121.002443,31.364981,富华路,883471
滨海花苑,72,10614,-0.007341,121.002422,30.604963,东海大道，近西场路,940421
碧桂园海湾一号,1367,9361,0.000481,121.006138,30.595579,姚家路，近西场路,1030695
星港湾花园,1,8448,0.031880,121.007718,31.851253,张江公路,917726
东海花苑(南区),1,7473,,121.008660,30.599475,海港大道,890470
千灯老街,8,8928,,121.009351,31.271734,尚书路,884529
珠竹花苑,2,8611,,121.005367,31.342262,珠竹路,884394
大自然花园,5,22252,,121.000285,31.188894,新乐路999号,883387
御翠湾(A区),10,8820,0.017799,121.000635,31.272768,新苑路,884319
碧水云天,16,10762,-0.003841,121.009253,30.705667,城南西路,892277
卿峰丽景,5,8214,,121.001714,31.277931,少卿西路2号,883962
景枫嘉苑,3,10921,0.003284,121.001296,31.360625,庆丰西路,883731
金山嘉园,46,9900,0.003446,121.002675,31.461911,青阳北路99号,883704
樱花苑,9,12027,,121.001411,31.392026,青阳中路220号,884668
忆江南花园,1,9574,,121.000635,31.270106,故居路,884271
新春苑,191,11535,0.000065,121.000170,30.902843,枫阳路1811弄,649136
金苑小区,7,6741,,121.008552,30.712461,城西路,892342
幸福时光,1,11428,,121.000966,31.390100,前进东路,884536
尚锦花园,1,12807,,121.003401,30.734103,兴平二路1263号,892375
淀湖桃源,46,14208,-0.006399,121.000576,31.152572,望金路，近环湖大道,883392
龙邑小区,5,9034,-0.039829,121.008649,31.345165,春阳路,883827
中南花园,2,12207,0.012671,121.006784,30.727956,永兴路,990597
青春雅居一期,2,7384,,121.001328,31.343849,珠竹路,883954
青春雅居二期,2,7377,,121.001552,31.343113,珠竹路,883953
云湖御墅,80,18844,0.001634,121.004590,31.183058,万园路188号,884339
东淀湖庄园,7,14062,,121.006131,31.150372,湖滨路99号,883403
淀湖鹿鸣九里(别墅),27,14328,-0.000976,121.002621,31.163820,万园路66号,884600
时代名苑,1,10767,,121.000941,31.412242,青阳北路,884036
绅园,19,12037,,121.004093,31.152640,湖滨路188号,884018
颐景园,4,23150,-0.069027,121.000797,31.413438,金浦路,884268
宝卿花园,113,8459,0.000591,121.006887,31.277131,南湾路,883303
华纺易墅上海湾,131,16209,-0.000447,121.002749,31.149313,湖滨路117号,998761
华纺易墅上海湾(别墅),50,16470,,121.004422,31.150699,湖滨路117号,883594
景江花园,12,12646,0.007870,121.001420,31.385792,青阳中路18号,883733
御翠湾(B区),9,8823,,121.000504,31.274055,南湾路,946559
保利西塘越,216,14479,,121.006653,30.597526,姚家路,890462
东海花苑(北区),21,8374,0.012544,121.005242,30.601619,东海大道,890469
恒丰时代广场,2,12807,0.032074,121.016280,31.263438,恒升路262号,884487
平湖中荟城,1,11136,,121.013236,30.700754,育才路705号,892416
恒大名都,245,10297,-0.005457,121.016252,30.684385,梅园路,892324
熙岸铭郡,2,10200,,121.015631,31.259319,景塘北路,884148
秦峰公寓,2,6356,0.008409,121.016288,31.278317,圣祥中路,883944
东方路小区,77,7485,0.001874,121.015473,31.404592,东方路,883408
中地花园,34,10805,0.006099,121.018307,31.273765,少卿中路80号,884366
建枫新村,99,14462,-0.000846,121.019582,30.891651,建枫新村1-4号,819379
景乐花苑,2,8641,,121.017136,30.708886,解放西路166号,892346
都会华庭,5,9271,,121.016881,31.278128,圣祥中路,883431
枫景家园,292,11397,-0.000219,121.016492,30.890733,南大街25弄,8276
芙蓉二村,20,12340,-0.008457,121.015706,30.899086,朱枫公路 ,416941
碧桂园世纪城,113,13227,-0.004141,121.018275,31.249228,黄浦江路，近淞南西路,884430
新泾路333弄小区,15,9342,,121.018799,30.894670,新泾路333弄,1027012
融创海越府(别墅),6,15217,,121.017869,30.728284,平成路，近新兴二路,1042302
美华西村,34,9114,0.005571,121.010797,31.383121,樾河南路943-1号,883869
淀山湖壹号,319,14130,-0.000583,121.019264,31.150120,环湖大道,883396
月亮湾,12,11105,-0.002246,121.010419,30.705329,如意路,892401
千灯尚景苑,44,9919,0.008182,121.018052,31.268934,尚书路，近恒升路,946525
大唐华庄,2,7386,,121.013474,31.275422,泰峰路14号,883381
金平小区,29,8708,-0.000488,121.013082,30.703269,车站路,892340
帝景天成,30,10443,-0.008285,121.011204,31.390164,前进东路898号,946512
黄浦城市花园,2,10400,,121.015787,31.392445,同丰东路777号,883618
东恒翠园,3,9270,0.012561,121.015457,31.264721,炎中路,883415
宏兴东区,3,8775,-0.010765,121.015755,30.718767,兴平路245号,1042299
昆山小上海公馆,15,10646,0.000611,121.017126,31.263965,炎中路，近景唐北路,884695
滨江丽都桥语,7,9090,,121.010322,31.846640,乐成路88号,917720
名都佳苑,5,10232,-0.011377,121.015801,30.716496,兴平路,892361
芙蓉一村,14,9793,,121.015219,30.898896,朱枫公路9295弄,366151
摩玛自由城,2,7388,0.338982,121.012541,31.347360,金阳西路,883896
南通金科廊桥水岸,15,8181,,121.016670,31.845688,乐成路，近苏通路,952777
萧景园,1,9479,0.034599,121.013280,31.248879,淞南西路388号,884169
玲珑家园,1,7045,,121.018760,31.277433,圣祥西路1号,883297
尚千灯,2,10688,0.029324,121.019525,31.257609,景泾路,884515
黄浦家园,37,9129,0.003021,121.017191,31.406888,金龙路,883619
阳光嘉苑,5,10833,,121.018516,30.722117,福臻路,892391
锦城春天,2,9423,0.037090,121.015698,30.701882,环城西路51号,892343
宜家花园,92,8374,0.005916,121.010310,31.347368,金阳路,884266
金科城,20,11742,-0.010617,121.014260,31.846203,苏通路,917723
平湖赞城,3,9087,-0.011691,121.010603,30.704478,城南西路166号,892404
融创海越府,201,12849,0.004809,121.017251,30.728017,平成路，近新兴二路,1042301
中冶枫郡,115,12804,,121.024992,30.912137,泾波路999弄,820847
海上郡(公寓),21,24975,0.017861,121.027014,31.128103,绿湖路799弄,865931
港湾花苑,3,7073,,121.021002,30.589041,泾海路536号,890471
海上湾华庭紫园,103,29655,0.000531,121.028668,31.121232,绿舟路228弄,370135
佳田苑,73,9604,-0.000260,121.020674,30.898476,泾波路219弄,559650
卡都花苑,11,8745,-0.009851,121.026305,30.714753,环北二路,892352
枫阳新村,63,11304,-0.000287,121.025769,30.898859,枫阳路,8384
清华名城(二期),54,9287,0.005712,121.024562,31.255271,黄浦江路,989849
农房悦墅,1,13061,,121.029556,31.188065,淀兴路999号,883911
泾波路339弄小区,35,10604,-0.018603,121.020933,30.900899,泾波路339弄,1006788
百灵公寓,1,13011,-0.107919,121.027380,31.309460,金菊路126号,883285
云枫苑(西区),24,10771,,121.021413,30.902032,泾波路375弄,820179
白牛新村,80,10352,,121.027183,30.895319,白牛新村1-43号,8436
荷玛诗湾,17,22474,-0.001688,121.023211,31.151145,永双路999号,883536
百灵佳苑,31,9341,0.000134,121.028863,31.311434,金菊路,883286
松枫新村,1,18518,,121.025657,30.711563,松枫港路,892379
农房恒海国际花园,1,18090,,121.022181,31.171097,旭宝路99号,883538
尚苑淀山湖花园,20,12281,0.006021,121.029908,31.179027,中市路,884012
美景园,2,7741,,121.023288,31.265494,景唐北路,883871
淀辉新村,1,8490,,121.029832,31.183338,淀辉路，近中市路,884678
淀山湖花园美苑,8,12500,,121.025397,31.179806,扬帆路,883878
黄浦君庭,6,8554,-0.010297,121.020135,31.254237,黄浦江路,883620
锦景园,53,7875,0.005362,121.021907,31.259720,机场路218号,883713
枫光苑,41,12320,0.002196,121.028522,30.898886,枫阳路187弄,189551
淀辉锦园,37,12426,0.011745,121.028153,31.183729,淀辉路,883393
金色华庭,60,8904,,121.021348,30.721554,大桥路158号,892341
鑫枫苑,152,9423,0.004076,121.020868,30.896186,泾波路118弄,366129
香馨佳园,12,9925,0.020356,121.027371,31.193473,香石路,884162
海港花苑,25,6937,0.033326,121.021134,30.588546,泾海路,890474
秦峰星尚,84,8189,0.003216,121.022103,31.263947,炎中路，近黄浦江路,883948
白牛二村,74,10833,0.002058,121.028231,30.894007,白牛路128弄,366150
奥园印象高迪花园(南区),6,10740,,121.024777,31.257806,景泾路,883271
汉城国际,8,8539,,121.027647,31.251020,南浦东路,883513
梦莱茵湖滨别墅,2,11994,,121.024659,31.150675,双永路999号,883879
香堤绿都,13,9466,-0.023695,121.029614,30.725055,平成路712号,793236
云枫苑(东区),11,10723,0.000420,121.023198,30.901369,泾波路376弄,8366
奥园印象高迪花园,11,11443,0.000809,121.024206,31.261027,黄浦江路,883272
泛华东福城,120,11120,0.000472,121.023695,30.735906,宏建路1069号,990592
乐苑淀山湖花园,92,12110,0.006922,121.023780,31.177000,永利路,883796
上实滨湖和墅,37,33181,,121.026807,31.123253,绿湖路599弄,641381
君悦名都,12,7504,-0.011168,121.025582,30.699870,城南东路，近,892412
正荣璟园(公寓),3,18512,-0.024040,121.026790,30.904403,枫湾路660弄，枫湾路680弄,1026832
上海外郡,1,5333,,121.023501,31.262833,炎中路,884003
九龙花苑,13,8632,-0.005071,121.026419,30.709060,松枫港路,892349
清华名城,29,11243,-0.005440,121.024400,31.253090,黄浦江路,883965
新枫新村,20,11823,0.011377,121.022457,30.890558,新枫新村1-25号,862260
华悦公寓,1,6666,,121.028455,31.264339,陆千路,883607
玉荣广场,1,8000,,121.022092,31.260936,黄浦江路8号,884312
海上郡(别墅),53,28872,-0.001832,121.026807,31.127784,绿湖路799弄,865932
彩虹广场,1,8052,,121.025504,30.699522,城南东路343号,990598
正荣璟园(别墅),183,22478,0.000323,121.026628,30.903011,枫湾路660弄,876879
韵湖国际,115,15301,0.001227,121.020654,31.187796,新乐路1236号,884344
华美达广场,3,9375,,121.027711,31.257957,景泾路28号,883599
淀山新村,64,9964,-0.003575,121.032955,30.983887,蒸富路132弄,573299
绿地21新城,95,10942,0.004452,121.031235,31.379708,洞庭湖路218号,883847
平湖碧桂园,215,9981,0.004934,121.032091,30.716356,城北路，近福臻路,990589
东景苑,13,10039,-0.001293,121.034088,31.324206,光夏路,883424
花园小区,4,6802,-0.016838,121.033025,30.735083,西港桥,892329
欧风小区,48,10561,0.000829,121.030387,30.980011,欧风路155弄,651262
香缇雅苑,1,13043,,121.037926,31.521284,凤林路57号,892844
恒大御澜庭(别墅),173,35024,,121.037108,31.135771,淀山湖大道3600弄，淀山湖大道3800弄,1026079
玫瑰湾,6,10819,0.003711,121.038554,31.400316,杨树路,883863
和兴东城花苑,3,10150,0.002939,121.039705,31.387383,前进东路,883531
农兴苑,48,11704,0.003257,121.032268,30.895694,泾宾路501弄,490404
日月光翠湖湾花园(别墅),4,10542,,121.036302,31.247104,新虹路，近淞南中路,884473
中璟苑,16,9982,0.004503,121.032306,31.251557,新虹路,995416
枫丹别院,73,12507,-0.000180,121.031359,30.894186,泾宾路501弄,366125
蒸淀钟楼小区,100,11764,,121.034205,30.981174,蒸裕路87弄,820507
华丰格兰郡(别墅),3,14634,,121.038186,30.905217,白牛路1068弄,865969
长城逸府(公寓),204,12792,0.001684,121.037633,30.904386,白牛路1068弄,370212
珠江御景花园,16,10394,,121.039055,31.394298,同丰东路288号,884392
兴阳花苑,2,7920,,121.035004,30.669534,兴阳路，近通济路,1042304
博雅景园,30,9677,0.000569,121.035250,31.316231,南粮路,883334
枫岸华庭,210,14228,-0.000913,121.034558,30.902670,枫湾路500弄,366124
春江佳苑南区,67,8880,-0.000872,121.031606,31.317834,友谊路,883366
湖庭别墅,194,21589,0.000660,121.030499,31.133257,绿湖路999弄,218289
春江佳苑北区,21,9003,0.000889,121.031886,31.321962,光夏路,883365
香花苑,51,8876,0.000451,121.037505,31.324207,光夏路48号,884159
东方花园,3,12041,-0.007746,121.037387,31.413264,萧林东路,883404
龙湫湾,4,8500,,121.034041,30.686921,东方路118号,892353
铭家山水江南,4,10303,,121.034343,31.326482,孔巷路140号,883893
海源别墅,52,39631,-0.011831,121.038097,31.124256,复兴路999弄,8693
恒大御澜庭(公寓),76,31295,0.000464,121.036497,31.139403,淀山湖大道3600弄，淀山湖大道3800弄,1026080
创欣名苑,201,11025,,121.033665,30.896723,泾宾路535弄,366127
泰极国际花园,2,10172,,121.030200,31.253973,汉昆路199号,884300
莱茵半岛,11,8555,-0.001168,121.035623,31.524138,凤北路,892702
