小区,房屋数量,count,均价变动,lng,lat,地址,ID
万科金色梦想,14,11333,0.011694,120.690482,30.791467,成秀路355号,890263
胥江一号别墅(别墅),23,12963,0.007383,120.493069,31.241010,胥欣路221号,887902
荣盛阳光名邸,1,34667,0.014741,120.642937,31.370070,阳澄湖中路128号,888873
虹桥世家,2,15224,-0.055479,120.595507,31.310827,虹桥路6号,885517
中交美庐城,7,7653,-0.082814,120.568137,32.420988,海阳北路，近惠民路,926272
南山金城1958,1,15331,0.037876,120.556378,31.365314,城北西路1958号,885361
锦绣江南(别墅),1,9333,-0.226504,120.591108,31.852675,镇中路,889394
香溢花园,2,31789,0.394955,120.642723,31.244259,东吴南路88号,887646
锦盛苑,5,10406,0.080694,120.652442,30.886753,中心大道1689号,887301
太湖临湖湾,3,12923,-0.159698,120.459469,31.133029,腾飞路605号,888059
万城明月公馆,56,10382,0.060438,120.669092,30.522085,广顺路，近联合路,917184
新世纪花苑,2,10112,-0.276526,120.116371,30.874309,环城东路47号,939179
公园天下,2,43602,-0.011911,120.603630,31.285809,桐泾南路28号,886010
中海御景湾,1,16580,0.096924,120.551447,31.378433,虎殿路,885365
绿景苏州公馆,36,10981,0.013510,120.601576,31.220431,塔韵路199号,1002470
置信公寓,2,11735,0.005957,120.680564,30.763697,洪高路1507号,1012475
宝石花园,154,9141,0.180719,120.329400,30.780567,维多利大道,939216
招商依云水岸(别墅),55,15565,-0.198465,120.664875,31.375523,阳澄湖东路98号,888906
江海新村,3,8000,0.037678,120.434499,31.964680,中兴南路,889360
佳源罗马都市,16,11029,0.074846,120.549718,30.637551,复兴北路128号,892544
盈都君悦,14,11123,0.081057,120.396764,30.360175,启潮路48号,892029
华安豪庭,71,4902,0.035952,120.695720,32.460427,红旗东路,995408
金都花园,4,8744,0.059637,120.270867,30.858670,富民中路120号,939043
永金公寓,2,13694,-0.021830,120.629900,31.358798,齐陆路10-3号,888928
嘉华国际,2,11176,-0.193825,119.966594,30.532709,新兴巷,939380
翠坊北街小区,1,18806,0.343339,120.524494,31.258633,翠坊北街,887729
金磨华庭,1,4181,-0.019005,120.579745,32.288813,育贤南路，近如港公路,926277
西门北村,14,10064,-0.057431,120.544705,31.871761,龙须弄，近梁丰路,889530
金都花苑,1,7500,0.016536,120.442986,31.944232,晨丰公路，近勤政路,889370
绿洲华庭,4,11510,0.056157,120.639312,30.908196,舜湖西路，近宝龙桥路,887313
海悦府,435,12771,0.082687,120.462865,30.444866,修川路,892096
万科金色里程,4,38000,0.001634,120.550195,31.372493,藕巷街6号,885363
紫金花园,2,11111,0.215646,120.560297,30.643815,茅盾东路5-38号,993046
富强新苑,1,11515,-0.051405,120.548591,31.369048,城北西路,885355
望河花园,1,9247,0.012150,120.693734,30.524965,联塘路,891535
星岛仁恒,1,28000,,120.684820,31.294213,通达路1818号,888735
红旗新村,1,32632,0.180693,120.613326,31.306832,三香路40号,885938
天玺别墅,6,11801,0.006139,120.117155,30.960338,通湖路500号,939150
西苑小区,2,5056,-0.204030,119.909386,31.009550,米行弄,939568
太湖胥香园(别墅),1,16170,,120.484848,31.230288,子胥路,887954
御景豪庭,44,10073,0.182891,120.539980,31.016826,商业街315号,887133
旭辉郎香郡,10,10472,0.054102,120.694385,30.757483,育英路，近秀园路,926311
太湖花园,5,16402,0.350091,120.108034,30.901814,太湖路699号,939142
融创太湖印,40,8593,0.006780,120.119784,30.949183,震泽路,994850
蓝湖湾,9,12912,-0.037396,120.537879,31.855617,暨阳湖大道,889409
德鸿练溪上郡,103,6917,0.033716,120.420436,30.720260,迎宾路289号,939222
旺角维多利亚花园,1,12400,,119.911700,31.025707,花菇山路,939560
涵月楼花园,5,24951,0.296830,120.409367,31.092111,雨花路,888094
香榭假日山庄,1,24615,0.036377,120.524727,31.279587,金山路,887889
东茂商业广场,140,10815,-0.033760,120.647267,30.909754,舜湖西路，近西环路,887365
钱江君庭(北区),6,13039,0.005049,120.567984,30.408870,中新路79号,914291
金星花苑一区,1,23622,,120.561958,31.435225,中市路,889050
紫竹园,1,12608,0.171638,120.572151,32.385457,健康南路45号,918436
1号公馆,119,8083,0.002885,120.589161,30.632833,圆明路403号,992977
碧桂园,175,12358,-0.045935,120.468703,31.379205,华通路299号,886669
苏苑二村,2,14814,-0.234142,120.648014,31.279700,吴中东路66号,887582
中南世纪城,1,14382,0.009263,120.646623,31.135135,中山南路，近长板路,887080
和融优山美地公馆(别墅),1,16111,-0.003156,120.669582,31.289947,独墅湖大道,888467
利铭花园,71,6968,-0.078346,120.268921,30.725610,莫墙线,995195
星湖湾,3,13189,-0.077223,120.596915,30.638033,环园路176号,993036
公园新村,1,10915,-0.055479,120.557396,31.878069,公园路，近城北路,889279
仓街28号小区,3,14000,-0.005117,120.644244,31.317454,仓街28号,885868
碧桂园翡翠湾,14,9607,0.041689,120.081540,30.844649,田园路，近二环西路,1030268
沁苑小区,1,29411,0.049231,120.688623,31.331428,现代大道,888399
恒达星湖湾,10,11250,-0.042798,120.668504,31.157607,运东大道,887010
东湖新村,2,24655,0.350522,120.635108,31.232106,盛城路,887451
首开幸福广场,1,11111,,120.628834,31.227646,邵昂路，近兴昂路,1002469
中良新塍花园,20,6690,-0.262769,120.616915,30.795233,兴镇路,780835
攀华国际广场,1,7236,-0.176136,120.576089,31.844886,东南大道,889454
如皋碧桂园,59,6117,-0.025780,120.569095,32.414074,海阳北路,918381
龙源新河湾,1,8218,0.369792,120.558790,32.366996,花市路，近解放西路,1010391
绿都锦苑,1,8519,0.006914,120.549814,30.627916,校场西路288号,892486
万汇广场,70,8087,-0.010644,120.083165,30.869895,红旗路1188号,939160
汇丰新村,50,6327,0.189650,120.546360,30.626085,校场西路,892465
中兴公寓,4,9486,0.057727,119.974499,30.531013,中兴南路568号,939447
西塘小筑,47,26678,0.036662,120.630167,31.282214,西塘北巷12号,887630
江锦云庐,9,7551,0.026873,119.900943,30.998919,紫金路,1006348
海兴花园,1,7058,0.073623,119.922258,31.000305,明珠二路170号,939480
建设新村,1,10000,0.213298,120.644295,31.819353,人民路，近维达路,889356
百合花园,27,8965,-0.002670,120.563107,30.645698,中山东路,892429
东方雅苑,1,7228,-0.059099,119.709350,30.637788,祥溪路294号,939629
新南浔孔雀城,468,11362,0.000154,120.425475,30.843790,联谊路,995198
大运城,7,14619,0.377768,120.541454,31.262816,中山东路88号,887970
何山花园,2,16454,-0.003271,120.568849,31.307137,邓尉路288号,420304
人民新村,3,14444,,120.110047,30.880024,人民路432号,939118
苏州城市生活广场,1,9978,-0.239598,120.614273,31.348970,平泷路，近花莲路,885448
恒润新新家园,2,17795,0.013721,120.577805,31.323525,新庄西路,885459
立新漾滨春天,1,11238,-0.024225,120.652205,30.911962,中心大道2699号,887307
大自然城市花园,23,10112,-0.005801,119.925174,31.011068,解放东路129号,939461
幸福新村,3,11453,0.242232,120.573222,30.633008,幸福路，近振福路,993037
赞成学士府,8,9772,0.031237,120.133449,30.882939,二环东路,939201
民乐小区,2,19482,-0.152403,120.002881,30.545069,武源街,939399
南门新村,1,16842,-0.034696,120.632773,31.298202,竹辉路，近人民路,886207
光福锦泽苑,1,19756,0.374843,120.398108,31.305591,塔山路6号,887983
融创81栋长岛,1,15135,-0.047934,120.562909,31.423537,春秋路5号,889062
绿地中心泊珑湾,1,13077,-0.055479,120.606899,31.136967,东太湖大道9999号,886855
豪天花苑,289,6455,0.018860,120.591509,32.110665,长江东路,918311
万丽广场,1670,11482,-0.000642,120.690858,30.764750,秀园路698号,991005
宝马花园,52,6746,0.088185,120.442023,30.527477,工农路999号,892543
宏坝B区,3,7810,0.359443,120.585543,32.394269,宁海东路,918319
伟业银座,6,9000,0.035197,120.668298,31.167906,云梨路,887032
湖畔御园,43,8735,-0.042434,120.643820,31.774193,西凤路,801523
华美花园,1,14082,0.064456,120.519204,31.370016,文昌路277号,886678
德尔金色摩纺,6,12878,0.098337,120.647708,30.903486,市场路1号,887353
青成名苑,22,8596,0.024675,120.393387,30.584109,青石路16号,1034807
金色华府,9,9369,-0.023298,119.925769,31.026080,长城路，近中央大道,1012330
南方时代广场,2,11363,0.031219,120.414660,30.871051,南林路252号,939275
康桥丽都(别墅),1,43463,0.390246,120.634586,31.375154,嘉元路663号,888925
西门南村,1,14004,-0.090295,120.543685,31.870031,西门路，近盘龙路,889231
伊顿公馆,70,9764,-0.008151,120.428605,31.956734,中圩路，近中港南路,943754
新都汇,1,10800,0.045600,119.933771,31.016721,县前东街,939575
金山别墅,4,16250,0.003520,120.518638,31.279336,灵天路,887779
湖畔佳苑,100,40000,0.074143,120.590856,31.262451,学府路189号,886652
信达香格里,3,10833,0.030047,120.692695,30.761446,秀园路398号,890276
旭辉百合宫馆,27,32444,0.017579,120.524928,31.351166,新丰路,886714
恬园,2,11954,-0.002170,120.312883,31.130880,金庭路170号,888120
御湖天誉,33,10374,-0.011388,120.125044,30.947209,安居路66号,939195
三香福郡,1,20000,0.039123,120.598115,31.297508,桐泾路717号,885967
明华月亮湾花园,9,11590,-0.219318,120.433033,30.863374,嘉业南路318号,939274
合景峰汇六期,3,18359,-0.022755,120.607138,31.371959,文灵路,888952
濮院佳源中心广场,1,10983,0.016144,120.610157,30.681838,凯旋路,892542
锦瑞苑,9,6833,-0.227560,120.445176,30.885081,便民路449号,939255
东湖金悦(别墅),138,9066,-0.046949,119.990993,30.990111,滨江大道,946358
宏和珈都,83,5092,0.053745,120.267702,32.670016,文化路，近白古线,1020805
西小区,4,8500,-0.192936,120.686699,31.169109,云梨路,887018
金海大厦,2,10000,-0.133449,120.587120,30.626387,校场东路1572号,993007
绿地家园,2,8584,-0.287673,120.676050,30.688721,绿园路,890239
梅花新村,6,32608,0.126200,120.637143,31.344447,官渎路,885411
中央花园,3,8656,0.017857,120.629583,30.673005,兴旺路19号,926331
唐韵花苑,137,9973,-0.013379,120.623420,30.795529,兴镇路，近虹桥路,991003
狮山当代MOMA,31,18022,-0.110345,120.538871,31.283342,竹园路，金枫路,886640
锦溪江南美墅(别墅),4,10000,0.233959,120.024239,30.671625,建设路1号,939058
高桥阳光城,20,11378,0.067714,120.574273,30.547356,乌镇大道，近高铁大道,998685
佳和玫瑰园,3,6782,0.285342,120.282879,30.834109,潘塘路,939239
海上湾(别墅),6,35593,0.019506,120.163453,30.873685,蜀山路1788号,938997
丽景苑,4,36632,-0.220960,120.638735,31.314705,干将东路636号,885861
香山花园,2,12500,0.131631,120.412088,31.231698,校场路,888014
金润玺景苑,2,10273,-0.063366,120.637360,32.403794,中山东路，近如泰运河大桥,1030932
桃园新村,3,10555,0.110936,120.606102,32.305125,园景路,918402
新城吾悦广场,41,20875,0.222404,120.595896,30.634163,振兴东路439号,993033
招商公园1872,2,26517,0.027332,120.574527,31.384718,西环路，近永青路,888997
天筑家园北区,1,15407,-0.247007,120.603190,31.343900,江星路，近平河路,885434
绿地太湖城,14,13736,0.055465,120.605416,31.132782,东太湖大道8899号,886853
中南新村,3,8621,0.117884,120.438877,31.955253,中南路,889633
中兴花园,4,14129,0.380459,119.977802,30.549196,中兴北路126号,939448
东郊花园,4,13489,0.304305,120.646509,32.406481,贾公路1号-60号,918287
华庭现代城,3,8750,,120.698095,30.516210,海昌路,890671
景苑小区,2,13431,-0.018506,120.613769,31.315737,景德路,885741
银杏苑,5,22178,-0.055479,120.591122,31.313241,金门路919号,885605
太湖如意湾,1,11878,0.284538,120.419529,30.967654,环湖路1555号,887199
太湖明珠南泊湾,64,10063,0.136035,120.411374,30.962085,环湖路,887198
五峰山枫林山居,3,15151,0.025101,119.585216,30.602462,306省道,989734
嘉园,5,90182,0.115457,120.643532,31.302637,南石皮弄7号,886158
招商小石城香樟园,1,13466,-0.326393,120.620820,31.222845,梧桐街，近吴港南路,887643
苏州丽都国际,1,14444,,120.639957,31.259622,石湖东路100-12号,887586
龙湖苑,9,6451,0.392865,120.188990,30.717432,东栅路,939268
新湖小区,2,7431,0.384854,119.916880,31.047480,忻湖路,939577
星光耀花园,40,11666,-0.005032,120.552755,31.361465,虎池路1588号,885364
秀洲小区,7,7959,0.032162,120.695683,30.755869,秀园路128号,890289
花样年太湖天城,6,9692,0.010636,120.423700,31.222382,环太湖大道128号,505193
南园花苑,1,44334,0.299469,120.645197,31.292605,南园南路,886213
海上湾,4,15101,0.362002,120.163551,30.873112,蜀山路1788号,938998
宏博金海岸,3,5624,0.100470,120.505874,32.553297,迎宾路116号,917894
海宁江南世家,13,8996,-0.037369,120.699938,30.499938,海昌大道,892083
春江花苑,10,10450,0.104651,120.630413,30.496143,庆东路，近硖斜路,925378
康桥名园,13,9284,-0.028119,120.453944,30.448584,开元路,890957
文苑小区,3,5999,-0.082301,120.121842,30.869363,外环东路,939167
山湖如归苑,2,10333,-0.032219,120.694496,31.162969,绣湖东路588号,887026
金科廊桥水岸,4,13736,0.193501,120.643321,31.127697,思贤路，近鲈乡南路,802377
国际公寓,10,8363,0.028594,120.630826,30.908955,西二环路,887292
智富城MIMON,13,7076,0.011724,120.695384,30.765529,秀清路626号,890325
镇南新村张家港市,1,4380,-0.055479,120.681929,31.972291,人民路,889623
太湖樱花园,1,18867,,120.489937,31.244623,孙武路,887855
翰林世家,2,10635,-0.164572,120.103623,30.902323,太湖路899号,939000
南环东路3号小区,1,27272,-0.003289,120.655683,31.290033,南环东路3号,886378
紫薇花园,1,11733,0.093884,120.680328,30.521911,文宗路8号,892014
朗诗绿洲,1,19104,-0.055479,120.423962,31.350717,富春江路,886745
锦绣家园,1,6933,0.005365,120.584717,32.109432,纬三路18号,918352
新城金郡1期,16,29000,-0.087821,120.630045,31.225695,邵昂路66号,887645
江风海韵,27,6138,0.014166,120.577505,32.107194,长江东路,918341
托斯卡纳东泰花园,5,10041,-0.073526,120.468021,31.139707,新市街518号,793145
虹桥花园,1,10000,-0.004678,120.449791,30.437555,汉帛路，近城西路,952798
向阳新村,3,9841,-0.000609,120.553259,31.871107,梁丰路，近河东路,889546
佳兆业君汇上品花园,4,14347,-0.055479,120.590238,31.388877,兴业路,888969
锦绣江南,35,13986,0.050640,120.608934,31.075803,同心西路88号,887128
泊林公馆,1,5045,-0.265541,119.927328,31.017281,长州路666号,939455
阳光水榭花园(50-94幢),2,14202,-0.015118,120.633309,31.255132,东吴南路，近石湖西路,887657
人才公寓,2,11833,-0.289992,120.592747,31.392853,西横港街,888974
时代广厦,1,9600,0.065365,120.693782,30.528707,海昌路192号,891426
龙山小区,5,15853,0.154373,119.693192,30.617930,直一路,939673
开元名都,52,11661,-0.061942,120.676821,30.498522,江南大道2388号,892110
众盛阳光嘉园,1,10833,0.004358,120.672516,31.186717,运东大道，近江陵东路,887036
招商依云华苑,1,13727,-0.077010,120.603646,31.395123,广济北路，近安元路,889003
书香名苑,9,10003,0.091517,120.686535,31.542661,新阳大道65号,885109
西门南村,2,14000,-0.011160,120.544422,31.870541,长安中路,889531
海安7星首府,8,6356,0.042452,120.500605,32.540343,黄海大道东19号,926348
中梁秀湖壹号院,35,9928,-0.043289,120.685475,30.780036,秀园路,890333
御苑家园,1,12142,-0.030501,120.604935,31.365917,阳澄湖西路，近广济北路,888995
中央公园城(二期),2,9315,-0.009464,120.680716,30.899405,杨扇路，近目澜路 ,887351
中南世纪城南区(别墅),1,13333,,120.646842,31.133036,中山南路,887083
碧桂园翡翠湾,12,12788,0.024279,120.558458,31.854055,暨阳湖大道，近河西南路,889642
禧悦,308,23369,0.000455,120.570238,31.297512,滨河路999号,886612
康桥名城,6,9316,-0.012508,120.680393,30.517897,文宗南路18号,890941
招商雍华府,11,37944,0.020219,120.535459,31.276886,金枫南路8号,887920
格林悦城花园,2,10344,-0.042754,120.683525,31.189091,淞兴路2号,988071
花好月圆,1,15594,-0.063041,120.623815,31.379931,齐门北大街1259号,888829
丽景佳苑,1,7439,0.027912,120.457880,32.540237,永安北路,917915
庆丰新村,1,22690,0.302038,120.552213,31.872441,梁丰路,889466
春江花苑一区,1,1685,-0.130098,120.581570,32.110724,长江东路,918281
梦享城,817,11273,0.051275,120.083228,30.870870,红旗路，近二环西路,1033222
世纪花苑,3,7401,-0.024835,120.557504,30.648721,庆丰北路183号,798204
绿城御园(别墅),1,35239,0.389530,120.080533,30.905083,青铜路1739号,939082
金色港湾,13,11724,-0.019487,120.455406,30.454675,修川路,798198
恒熙湖庭,7,22313,-0.011961,120.685565,31.288445,通达路1988号,888703
锦华苑,1,51979,0.261167,120.571722,31.301520,滨河路,886581
南方大厦,75,7670,-0.044128,120.568514,30.634042,永兴路2号,993022
中南世纪城(别墅),1,13600,,120.648475,31.134923,中山南路,887086
万城理想公馆,55,10408,-0.021069,120.667362,30.531750,硖仲路，近双联路,917054
阳光里程,1,15909,,120.515212,31.869803,百桥路8号,889575
姑苏院子,1,35000,-0.045020,120.592866,31.322892,西园路66号,885620
豪杰翡翠湾,13,9672,-0.018929,120.646887,30.790762,嘉铜公路,795480
锦昌苑,1,33088,0.174625,120.570398,31.300361,狮山路100号,886580
通和家园,1,14457,0.220309,120.124067,30.879191,龙湾路196号,946357
润园,1,12305,-0.053423,120.533909,31.859616,长安南路，近暨阳湖大道,889283
瑞丰大厦,11,9701,0.227309,120.569165,30.636486,润丰步行街东68号,993026
吴江新城吾悦广场,1,12142,-0.152805,120.624082,31.144927,开平路2188号,886864
佳源都市,158,9819,0.013234,120.080131,30.850406,佳园路,939033
合景领峰,6,15995,0.048756,120.534404,31.279879,金枫路268号,887755
金科世界城,5,8557,-0.144262,120.553923,32.381147,宁海西路168号,926280
锦安小区,1,11782,-0.020553,120.635733,31.170290,锦业路725号,886909
富源花园,3,7082,0.035036,120.542708,30.848782,广场路,887369
鸿翔铜锣湾,1,11827,0.004160,120.697890,30.517924,海州路,890619
金水苑,8,6703,-0.191960,120.594241,32.105796,新城经二路,918349
悦湖美郡,5,10423,0.028011,120.541850,30.925854,镇南路958号,800130
欧洲花园,2,17569,-0.055479,120.672112,31.297077,通园路668号,888396
天顺花苑,2,5800,,120.577823,32.107881,长江路，近通江路,926268
白溪景苑,1,8484,,119.931931,31.030217,长城路,939451
东方时代广场,1,10181,,120.676351,31.472838,珍珠湖路，澄阳路,924925
新城市花园,3,10666,0.203294,120.674372,30.540978,洛隆路,891638
旭辉朗香郡,2,13033,-0.078419,120.527604,31.351563,星宇路,886716
佳兆业悦峰,1,21599,0.300023,120.565539,31.285276,塔园路99号,886572
招商雍和苑,2,19985,-0.055479,120.427992,31.345302,科发路,886763
祥云花园,3,8631,,119.708568,30.627744,玉馨路,939704
新怡花园,1,16925,-0.162129,120.527884,31.271529,金山路,887898
凤凰二村,5,7850,0.023601,120.099150,30.883850,青铜路,938978
金色港湾,23,8915,0.043847,119.906528,31.014295,道园路,939512
森松花园,1,5867,0.102245,120.589633,32.096776,华江大道,918387
滨江丽景,6,10254,0.006725,120.390475,30.866905,适园西路999号,939220
中央公园城(别墅),1,7040,,120.680204,30.897895,东方大街2号,887362
新南浔孔雀城(别墅),22,9284,-0.275357,120.425926,30.844729,联谊路,995199
新亚旭景园,1,9398,0.036392,120.683304,30.913962,红安路58号,887340
旭辉朗香郡,7,9792,-0.045157,120.694416,30.757351,秀园路,791966
海宁百合新城(西区),3,9237,-0.009861,120.684956,30.502925,文宗南路185-15号,890544
得力御龙湾,69,8000,0.011122,119.905726,31.042248,画溪大道2689号,939463
融创太湖印(别墅),21,9081,0.008244,120.120611,30.947999,震泽路,994849
优优学府,72,12386,-0.005700,120.174538,30.854018,草荡漾路，近小山路,1033219
名城花苑,16,9420,,120.454213,30.536459,青阳东路,797225
景瑞望府,2,15384,0.252055,119.899424,31.030097,龙山大道888号,939522
幸福家园,4,7625,-0.021258,120.600489,32.178692,迎宾路,918574
金庭花园北区,4,7203,,120.318469,31.139365,东园公路115号,888109
如意新村,4,6712,0.253900,120.669123,30.915137,如意路,887320
凤凰国际公寓,2,21463,0.002148,120.673301,31.321103,苏州大道西158号,888344
永兴小区,2,25247,-0.389331,120.601224,30.658630,恒兴路,892525
镇南新村,3,6247,-0.171705,120.514514,30.917500,镇南路1270号,1037886
东湖金悦,15,10631,0.005343,120.592460,30.634900,振兴东路329号,992988
瑞富广场公寓,2,10152,-0.033083,120.631571,31.298082,人民路438号,886245
合景峰汇一期,1,18750,,120.611207,31.370158,人民路,888958
合悦江南,28,12307,-0.025873,120.572686,30.545333,悦容路,892450
东大街如意佳园,20,7872,0.018879,120.472706,32.558567,凤山北路，近河滨东路,917957
太湖天阕,3,15625,-0.143836,120.448656,31.228428,太湖大道66号,888005
皇家领誉,1,11891,-0.002684,120.633694,30.911346,舜湖西路1300号,887298
绿地中心阿尔法公馆,1,11594,0.150667,120.598999,31.136251,东太湖大道，近水秀街,886861
南山雅居,118,10630,-0.017162,119.876074,31.099139,长水线,1025093
滨江龙湖湾,10,7317,0.183789,120.560987,31.973520,府前路,889216
曙光新村,3,18192,-0.000522,120.634338,31.320975,临顿路,885772
苏州湾景苑(西区),1,14606,-0.144698,120.601030,31.148984,高新路，近水秀街,886857
金龙花园,2,48905,0.025950,120.573762,31.295321,滨河路188号,886577
新城吾悦广场,10,15000,0.023192,120.549377,31.843691,金港大道，近南二环路,889655
鑫苑国际城市花园南区(虎丘区),6,17817,-0.016939,120.568911,31.322939,华山路8号,886535
丽景佳苑,3,7650,-0.025786,120.450692,30.450845,景华路220号,952804
姑苏区万达广场,4,15208,-0.029227,120.621754,31.348985,人民路3188号,885436
上海城新天地家园A区,1,5166,,120.462175,30.915060,贯南一路,887275
书院二村,4,8850,0.347032,120.597882,31.927809,书院路，近合兴路,889489
星龙湾,1,4900,-0.358639,119.932271,31.045600,经二路,939583
世茂御珑墅(别墅),1,17777,,120.523281,31.294794,金山北路688号,887845
海宁洛塘公馆,157,11325,0.043971,120.629617,30.495679,硖斜路，近白狞港,1032298
星城铭座,19,10000,,120.493428,31.245856,孙武路602号,887900
名骏豪庭,12,7196,-0.191628,120.625111,30.798132,虹桥路,762087
绿都姑苏雅集,24,39401,-0.004136,120.632247,31.295494,人民路，近东二路,1024528
银桥新村(北区),1,27708,0.319429,120.603449,31.301842,劳动路,885996
中奥美泉宫,24,18006,0.003092,120.076589,30.920657,弁山大道1818号,939207
金都花苑二期,2,8089,0.203899,120.448675,31.944117,中兴南路，近晨丰公路,889703
东花桥巷,2,15111,-0.248658,120.636207,31.323586,临顿路,885847
雅苑,1,23195,0.159775,120.455259,31.283930,藏北路22号,887909
竹镜茶语,3,10196,,119.875503,31.098995,长达线,939610
书香名苑,4,8441,0.058964,120.614361,30.494917,云川路,952814
三元新村,1,26666,-0.114763,120.583281,31.311355,金门路,885572
绿地中心海珀云玺,3,18144,-0.094288,120.594545,31.136958,东太湖大道,886850
曲新花苑,1,4705,,120.337193,32.500607,曲新路13号,926350
天诚公寓,1,13333,0.103177,120.697352,30.522235,海昌南路,891511
世纪新城,6,18089,0.370690,120.546318,31.887964,恒河路，近大包巷弄,889484
花苑二村,6,28000,-0.049752,120.520949,31.267870,花苑西路,887762
江城国际,1,5380,-0.021709,120.595584,32.098230,经二路，近华江中路,995410
太湖纯水岸,5,13333,-0.031806,120.431176,31.229758,伍相路1号,887998
莱茵河畔,15,8203,-0.208996,119.920406,31.044107,锦绣路，近合溪新港路,1006347
金域蓝湾,3,14705,0.238837,120.526538,31.297522,金山路，近湘江路,887782
金域世家,95,11111,0.001442,120.664962,30.532158,硖仲路499号,1018750
鼎昌名邸,27,4668,-0.065290,120.416544,32.311134,人民路64号,926278
金海丽水湾,7,7040,-0.010263,120.452041,32.556914,河滨西路88号,917905
天地源太湖香颐花园,2,15411,-0.139675,120.621754,31.193988,吴郡路，近君益街,888080
水岸家园,1,25833,-0.052522,120.612939,31.344893,总官堂路1160号,885424
恒都香缇溪岸,9,10186,-0.038047,119.668150,30.602097,浒溪南路,939641
合景峰汇二期,1,19527,-0.142122,120.609995,31.370039,人民路,888949
钱江君庭(南区),17,38869,0.202567,120.568361,30.406853,翁金线，近三里港路,914290
保利居上,1,21387,-0.070120,120.690246,31.251628,郭新东路78号,887381
永福花园,1,5778,-0.199910,120.690279,30.533670,工人路365号,891826
建成丽园,10,5434,0.028972,120.578104,32.281848,如港公路,1010377
崇福凤凰城(别墅),1,10687,0.113281,120.428376,30.532474,崇民大道，近崇永线,992984
观音弄小区,2,34083,0.357023,120.639771,31.309263,十梓街,886137
紫金南苑,2,5921,-0.095892,119.905667,30.999503,紫金路,939612
阳光花城,18,22962,0.141794,120.620127,30.679631,凯旋路1398号,892521
一品苑,59,7336,-0.058651,120.562969,31.873234,东环路，近暨阳中路,889581
万华金御湾,28,7317,-0.012417,119.941685,31.026258,中央大道,939558
汇高百悦府,4,10000,,120.697337,30.497450,江南大道，近海昌南路,952801
莱茵河畔(别墅),68,10357,-0.003044,119.920190,31.046924,锦绣路，近合溪新港路,1006346
锦都名苑,2,9146,,120.562410,30.642029,学前路317号,892472
融创石湖桃花源,5,20159,0.022345,120.608872,31.261439,友新高架，近新郭港,886663
利时广场,3,9884,0.015591,119.927283,31.025652,中央大道，近长州路,1012328
新生桃园新村,1,11333,0.343887,120.667696,30.902254,朝阳路170号,887336
春江花苑,66,3763,-0.009737,120.584407,32.111654,纬八路,918279
汇景名苑,2,9384,0.025798,120.640742,30.909460,舜湖西路,887299
秀湖香颂湾(商住楼),8,5985,-0.332422,120.697037,30.788941,秀洲大道1369号,1022023
海德公寓,10,5286,0.033327,120.563980,30.627280,梧丰路511号,992994
花苑新村,79,11848,0.008995,120.521679,31.265741,花苑街,887764
合景峰汇三期,1,19147,-0.086431,120.611531,31.371300,聚贤路,888954
世纪公寓,1,7142,-0.175860,120.192242,30.645793,南湖路11号,939346
金地名悦,1,14210,,120.536197,31.310854,何山路3501号,886508
雅阁花园,5,39213,-0.009238,120.567112,31.297068,狮山路185号,886625
嘉业阳光城,26,11150,0.080906,120.105115,30.888772,凤凰路288号,939037
信业ICC,1,15773,0.005642,120.106134,30.870853,红旗路，近南街,990888
长广金水苑,9,6517,0.344169,119.713780,31.080395,s301,939601
金都花苑一期,7,4054,,120.438598,31.945704,晨丰公路，近勤政路,889704
龙庭花园,3,8545,0.347213,120.596130,30.991766,双龙路,887243
绿城安吉桃花源,4,15996,0.027863,119.638616,30.582754,梅灵线,939678
锦溪江南美墅,2,6975,-0.126112,120.023943,30.671711,建设路1号,939059
龙庭国际,3,6444,-0.103381,120.570904,30.648545,中山路298号,892482
新塍佳源中心广场,1,6249,-0.273285,120.622725,30.800661,虹桥路581号,1012474
旭辉悦庭,1,14506,-0.069158,120.508454,31.376832,大家浜路8号,886719
苏园(别墅),1,10670,-0.291548,120.554669,31.834218,新泾中路,889676
若为谷月亮湾(别墅),1,11848,0.084752,120.011148,30.756039,妙新线,990897
吴江上海城,1,14120,0.002129,120.641152,31.182029,仲英大道1088号,886824
承安新都会,91,11223,0.035355,120.091853,30.850348,二环南路，近夹山路口,1030279
太湖缘,1,30973,,120.464073,31.133017,腾飞路399号,560931
铂金公馆,7,14624,0.013409,119.667402,30.610807,独松观路468号,989736
美都铭座,24,9139,-0.027456,119.924405,31.003582,明珠路61号,939542
万科新都会,10,17110,0.002189,120.415426,31.350758,武夷山路,886756
中南世纪城南区,1,12570,-0.015362,120.647862,31.133761,中山南路,887082
运河苑,547,10219,-0.043721,120.452832,30.457092,青年路96号,952811
锦绣家园,28,12406,0.160547,120.646561,30.985421,学才路29号,887217
西塘河小区,1,10000,-0.264706,120.649992,31.174669,西塘河路97号,886975
百盛花园南区(吴江区),2,11734,0.031560,120.654826,30.983652,通运东路2号,887211
盛泽国贸中心,15,9163,-0.000763,120.637848,30.903818,市场西路599号,1022391
月亮湾(南区),62,13257,0.012477,120.645769,31.272182,迎春路，近文曲路 ,887709
金盛花苑小区,4,9600,-0.039988,120.497495,32.539268,黄海大道,917906
西门新村,2,15737,0.147012,120.541308,31.872307,梁丰路688号,889532
宝祥苑,3,13269,-0.055479,120.547991,31.370206,城北西路2555号,885350
合景峰汇五期,3,23214,0.345768,120.607511,31.370802,文灵路,888957
明珠花园,13,7500,0.005632,119.924021,31.000952,海兴路,939544
沁香园,2,8999,0.065534,120.689189,31.539977,昌乐路101号,885056
金枫美地,1,12686,-0.313305,120.541600,31.260421,金枫路,887774
侨福逸品福邸,1,11627,-0.025316,120.410114,30.342096,聆涛路188号,925384
国贸仁皇,2,8764,0.036301,120.084163,30.911713,青太路1455号,938994
芙蓉新村,17,25953,0.012899,120.626604,31.402850,芙蓉街33号,888814
凤凰公寓,4,9583,0.001149,120.569908,30.633805,振兴东路，近人民路,992989
香港花园,1,29729,,120.519065,31.266774,花苑街，近香港街,887885
新湖明珠城(别墅),1,53191,0.174142,120.640535,31.186480,江陵西路1888号,886847
锦绣苑,7,8510,0.032266,120.571067,32.395336,锦绣街,918353
北岸聆涛苑,1,12540,0.349615,120.426450,30.391963,春澜路,890522
金茂国际,13,5608,0.038227,120.556051,32.388758,中山西路1号,918348
光明御品,6,11063,-0.007358,120.054118,30.904341,环太湖路,994847
绿地香颂别墅,113,33864,-0.093552,120.605876,31.134289,学院路6699号,886854
碧桂园天誉,2,10771,-0.100071,120.620769,30.906425,市场西路，近广州路,887281
水绘曦园,1,6324,,120.572901,32.401277,海阳路,918398
金都花苑,2,10322,0.398456,120.373693,30.442504,天顺路177号,890745
苏州吴中万达广场,14,12390,0.016395,120.614096,31.259948,友新路，近石湖西路,887689
赞成名仕府,100,8988,-0.071775,120.105725,30.922756,安吉路,939200
凤凰花苑,2,4464,-0.025644,120.635371,31.770144,凤恬路，近凤北路,889260
东渡海派青城(别墅),10,32019,0.051493,120.691920,31.435863,聚金路,889149
怡佳苑,18,58046,-0.002933,120.552768,31.885296,人民路,889583
红星花苑,120,4531,0.012400,120.597151,32.119829,经五路,918317
合景峰汇国际天汇,1,15676,-0.031545,120.613019,31.369989,阳澄湖西路,888950
中天锦绣诚品,95,11386,0.004056,120.685595,30.545193,隆兴路89号,1026580
绿色家园,2,21063,0.024565,120.084744,30.891305,山前路118号,939084
巴黎春天,48,10173,0.018828,120.081127,30.867829,红旗路,938929
经都名庭,1,9607,0.165615,120.679840,30.473628,红旗西路19号,798532
阳光嘉苑,1,7760,0.108589,120.421268,30.871185,人瑞路,939315
海宁百合新城(东区),2,10702,0.058581,120.694141,30.505745,文苑南路,890543
金水湾花园,1,6101,,120.421294,31.959348,天台南路,889382
御江南(别墅),5,11494,0.005599,120.499082,30.739438,青镇路300号,993040
佳源优优秀湖,13,10786,-0.046836,120.686930,30.780103,东升西路，近秀园路,926329
镜湖花园,68,9556,0.084719,120.678194,30.920933,如意路418号,887304
山湖花园弘雅苑,2,11875,0.000843,120.693091,31.154010,庞东路，近湖心东路,887020
万盛花园,1,23717,0.184429,120.606489,31.303271,三香路122号,885985
拙政别墅,7,46361,-0.244818,120.637162,31.332225,百家巷99号,607022
新湖明珠城聆湖苑,6,16477,,120.647899,31.191294,柳胥路,886813
巨匠金色年华,1,9744,-0.025525,120.579989,30.628703,银菊路82号,892538
锦绣花园,1,7693,-0.186098,120.696009,30.519301,南苑路431,890868
爱法山水国际,18,6818,0.039171,120.460022,32.520510,黄海大道西1号,925932
新奇世界上影安吉(别墅),1,10053,-0.029446,119.621288,30.694038,详真路,1037316
太湖黄金水岸(别墅),4,14623,-0.003696,120.472146,31.227294,环太湖大道,888027
城南印象生活广场(商住楼),11,24000,,120.637222,31.249973,东吴南路98号,887690
龙河花园,1,10593,-0.015154,120.636278,31.119211,芦荡路，近渔港路,887065
立新苏杭之星,3,10786,0.012105,120.630790,30.913796,西二环路，近秋泽路,887306
瑞景国际,1,13495,-0.014748,120.652944,31.129513,中山南路，近庞杨路,887071
三星苑,3,33783,0.049683,120.660115,31.325390,现代大道270号,888412
巴黎都市(南区),5,8292,,120.583677,30.652028,逾桥东路,892428
公园一号,11,8133,-0.008064,120.391560,30.862361,人瑞西路1588号,939241
太湖上景花园,25,26666,,120.437455,31.228273,梅舍路3号,888118
宝业凤凰新城,1,8000,-0.061804,120.580440,30.634018,振兴东路277号,892430
朗诗国泰城,16,31036,0.005508,120.572146,31.873526,华昌路,889410
华盛嘉苑,1,8181,-0.002682,120.682178,30.516218,清波路,890650
财富之星,3,7465,-0.165264,120.442264,30.468367,环镇北路311号,952788
盛大开元,3,10375,-0.052921,120.570114,30.624814,人民路,892503
太阳岛花苑,9,8792,-0.035118,120.542924,30.916300,双泽路600号,887266
三千邑,2,15774,0.205779,120.673633,31.183751,江陵东路689号,887039
金凤凰温泉逸墅,41,8193,-0.025918,120.638151,31.791465,金谷路1号,804644
秀湖香颂湾,14,6131,0.029508,120.698154,30.788423,秀洲大道,890280
大都汇,1,12250,-0.027778,120.104552,30.877224,劳动路356号,990896
东渡海派青城,1,29166,0.040899,120.691273,31.437637,聚金路,889131
融创苏州壹号院,5,22222,-0.058270,120.622243,31.191287,金碧街，近永旺路,888087
金桥花苑,1,7479,-0.027626,120.645773,31.856823,金桥路,889380
东苑新村,2,6800,-0.027182,120.570516,30.632955,和平路,892444
文星新村,8,3089,-0.169367,120.465290,31.917626,文星南路,889526
涵园,12,57082,,120.298926,31.085687,石公路9号,888106
碧桂园时代城,7,8769,-0.037854,120.613870,30.904349,绸都大道，近市场路,1022393
山湖秀峰苑,1,10344,-0.088634,120.698349,31.157849,山湖东路355号,887023
苏州桃花源,1,59347,0.284984,120.694287,31.297106,高和路,888730
大树家园,12,10000,-0.049249,120.545109,30.652601,逾桥西路,892441
健康西村,3,8500,,120.570260,32.388758,健康西路,918340
威尼斯花园,1,18823,,120.649827,31.264602,白云街2号,887598
西塘南巷8号院,1,28571,,120.631651,31.279150,西塘南巷,887629
太湖纯水岸二期,4,8478,,120.419584,31.232902,伍相路1号,887999
格林家园,1,11538,0.132954,120.513428,30.464923,桑梓南路,890539
金城花园,22,10721,0.016834,120.529304,31.882523,暨阳西路68号,889368
隆溪玫瑰园,2,7794,0.041283,120.681253,30.540542,洛隆路252号,798200
紫云东郡,4,17152,0.168711,119.723317,30.630884,后寨路777号,939714
金都阳光田园,2,9598,-0.130976,119.957021,30.541346,志远南路,939382
景华园,1,10329,0.214177,120.450720,30.451851,景华路178-3号,890883
缇香镜湖湾,15,13665,-0.137528,120.536846,31.841373,港城大道,805458
东方盛悦,2,13045,0.108546,120.566465,30.663368,世纪大道，近环城北路,992987
宜欣花园,7,4592,-0.180868,120.411181,32.312285,绘园路，近缘龙路,1030930
公园一号(别墅),1,20769,0.362186,120.392117,30.861474,人瑞西路1588号,939240
崇福凤凰城,2,9285,0.152557,120.428205,30.533301,崇民大道，近崇永线,992985
金山浜花园A区,1,12820,0.044740,120.526908,31.293165,金山路，近渔洋街,887777
花苑新村,22,7489,-0.096735,120.555450,32.389232,桃源路,918322
龙渡广场,1,9025,-0.019341,120.355650,30.430001,人民大道2368号,952805
马桥小区,1,6153,0.259570,120.428871,31.940586,中港南路，近港东北路,943755
珠江新城,4,11627,-0.004282,120.547097,31.260594,珠江南路1083号,908958
日月城三期中央世,1,9748,-0.149367,120.118787,30.888527,外环北路742号,939122
海宁碧桂园,26,9543,-0.012788,120.346568,30.430613,人民大道,892069
枫丹壹号,2,18299,0.388956,120.627485,31.144051,冬梅街，近开平路,886863
中海御湖熙岸(别墅),9,56171,-0.010266,120.690420,31.304078,金鸡湖大道,888475
嘉业阳光城,16,13571,0.009372,120.575867,31.327667,西环路,885460
解放新村,34,26386,-0.014965,120.614310,31.290757,解放东路,886015
新都国际,1,9000,,120.578504,32.386412,福寿路,918412
卡森花苑,5,9629,0.051545,120.684202,30.528416,梅园路228号,890908
水景丽舍,2,21505,,120.651499,31.311460,莫邪路788号,886382
亲亲家园,4,10493,-0.028066,120.573150,30.626242,校场东路,892494
城南花苑,1,6818,,120.661843,31.129601,长安路1181号,887045
万科金域缇香,2,12250,0.031840,120.697690,30.790282,成秀路88号,890265
碧桂园滨湖城,21,12676,-0.123011,120.345077,30.431458,人民大道,925376
星光汇商城,2,14876,0.170456,120.682131,30.498272,江南大道,892166
巴黎春天,25,9230,-0.096161,120.610562,30.674969,永安路,798203
锦绣江南,2,13804,0.087291,120.626320,31.382023,春申湖中路637号,888846
胥福里(别墅),1,10471,,120.491131,31.246616,下院街66号,887969
优优湘洲,16,9836,0.001464,120.364676,30.582019,公园路128号,996025
正荣悦棠湾,113,9712,-0.010834,120.651922,30.893640,中心大道，近南环路,1022394
汇金中央公寓,1,7692,-0.025959,120.684616,31.166936,云梨路,887012
中天观庭,35,7046,0.001261,120.395605,31.954593,镇山路，近长江西路,889640
安康小区,1,12000,0.146570,120.473251,32.532020,安平路,917860
体育新村,1,14820,0.352640,120.555547,31.886304,长安中路，近恒河路,889504
东城华府,20,8186,0.047387,119.989281,30.958728,广福路,939466
御墅园,2,6842,,120.571647,32.353347,益寿南路186号,918430
南郊小区,1,8076,,120.699877,30.513200,海昌南路328号,891193
高尔夫花园,1,31192,-0.121921,120.694938,31.300183,高和路，近星波街,888699
城中花园,28,42388,-0.047340,120.625075,31.311324,西美巷,886092
嘉海尚府,10,7318,-0.076429,120.669695,30.532161,双学路7号,1026579
东湖金悦,169,9060,0.075626,119.991154,30.989926,滨江大道,946359
东湖家园,1,11228,0.052198,120.125463,30.857946,东湖路,938965
万科碧桂园,33,14806,0.042867,120.652027,31.226373,兴中路,886817
名仕花园,1,21106,0.046327,120.599889,31.303703,三香路,885958
新华新村,3,7644,0.138893,120.649494,31.973723,永新路，近锦花路,889560
琴海居,2,10674,0.032701,120.427130,30.380833,港湾路,891338
华丽家族太湖汇景,17,17217,0.034178,120.445060,31.230049,梅舍路，近蒯祥路,887988
都市华庭,1,5645,-0.014318,120.566025,32.386636,大司马路,918293
巴黎春天,1,9325,-0.053107,120.694954,31.434105,元春路8号,889129
太湖之星,15,14712,-0.001154,120.364620,31.199195,长沙路,888011
凤凰花苑,2,10586,-0.057911,120.485491,32.537074,宁海南路181号,917874
太湖小区,7,11950,0.004793,120.634897,31.157843,笠泽路871号,886962
华宇林泉雅舍,1,22767,0.384211,120.498962,31.321604,建林路,886685
锦盛花苑,1,4782,-0.030610,120.692752,32.566616,勤政路，近S221,926344
湖滨华城平安苑,1,18495,-0.075213,120.637105,31.133350,长坂路，近苏州河路,887052
首创悦府,7,8848,0.006055,120.079442,30.907906,三环北路,939135
骏明国际,1,13333,0.141231,120.118269,30.890629,内环东路,939068
鸿翔洛溪嘉苑,11,12134,0.066163,120.617735,30.494619,706县道,890588
汎港润园,37,8654,-0.012199,120.080147,30.864770,二环西路355号,938972
恒润太湖壹号,2,18404,0.007403,120.435330,31.225818,梅舍路1号,887985
万达华府,21,19871,0.061789,120.611175,31.260957,友新路,887596
平江怡景,1,40851,-0.121219,120.625922,31.342219,平川路，近江乾路,885420
敏华聚珑阁,34,10333,0.005669,120.668874,31.154678,运东大道，近湖心西路,988075
绿岛雅苑,1,7142,-0.034082,120.555787,30.654190,庆丰北路,892485
绿城百合园,2,12997,-0.059964,119.909390,31.010923,县前西街189号,939540
江南润园,16,8494,0.033017,120.637618,30.798878,润园路168号,890220
阳光水岸,6,11635,0.011838,120.131710,30.866528,湖东路,939188
天河理想城,112,9176,0.012245,120.084654,30.847662,田园东路77号,939146
虹桥小区,13,13594,-0.055479,120.594514,31.315162,金门路778号,885518
朗诗绿色街区,1,36187,-0.076678,120.536482,31.257577,金枫路，近中环西线,887798
钻石公馆,8,22291,0.110552,120.632229,30.672841,齐宏路288号,892536
万丽花园,1,19106,-0.007229,120.624297,31.298975,东大街177号,886292
凤凰城,10,6250,-0.076400,120.409135,32.309431,绘园路489号,926274
望江水岸,4,7524,0.048659,120.569147,31.969899,滨江路，近港城大道,889521
红星国际生活广场,20,30088,0.067086,120.558226,31.267213,长江路，近长塔路,887760
绿城玉兰花园,7,9512,-0.325007,119.947039,31.014583,县前东街1088号,939541
旭辉御府,1,17978,0.005762,120.553522,31.322685,长江路,791965
御景苑,9,7083,-0.253635,120.461676,30.440101,长河路128号,891841
光明中央公园,10,5913,-0.332694,120.427510,30.862387,万顺中路111号,1002499
尼盛滨江城(西区),1,15698,0.012774,120.564318,31.257303,长江南路，近七子路,887818
白鹭湾,1,8235,,119.929311,31.040046,希望大道,939450
文卫新村,1,15806,0.109504,120.647011,31.278208,吴中东路81号,887601
三洋阳光海岸,1,13058,0.243690,120.091931,30.860400,兴业路658号,939124
绿城花园,1,21333,,120.658065,31.320089,飘一路17号,888394
奥斯卡花园,1,9333,-0.035249,120.670153,31.170831,运东大道,887006
富力湖州壹号,31,9890,-0.029545,120.153125,30.858282,湖东路,994846
云川名都,2,10804,-0.157714,120.616798,30.496363,云川路,891856
鸿悦府邸,1,5384,-0.021802,120.541941,32.146568,石庄路88号,995411
碧水云天,4,11827,-0.031526,120.557221,30.653088,庆丰北路399号,892435
嘉宝花园一期(别墅),1,25416,-0.112074,120.647862,31.275341,迎春路174号,887704
聚宝华府,4,9988,0.089469,120.623509,30.679230,凯旋路,993050
河畔花园,18,18200,0.015172,120.552097,30.643995,茅盾西路215号,892454
润丰苑,1,33067,0.023651,120.614245,31.284439,南环西路1110号,886042
公园道1号,84,11534,-0.043791,120.699142,30.499960,江南大道，近海昌南路,892056
民和小区,1,10000,-0.043062,120.669710,30.514008,广顺路,891157
乌镇悦景庄,1,9574,-0.285042,120.529072,30.740567,子夜东路1508号,993030
中天锦绣诚品(商住楼),1,8000,0.154901,120.685092,30.545687,隆兴路89号,1026581
卓锦兰香,6,12142,0.008053,120.668161,31.159751,运东大道399号,887038
丽水花园,1,8529,-0.047996,120.558176,31.435835,裴阳路50号,889053
梧桐花园,17,44989,0.088455,120.648150,31.335193,东环路1858号,885890
万科城,6,11983,-0.254920,120.516212,31.247161,姑苏西路139号,887864
蓝天嘉苑,1,7142,-0.028035,119.882149,31.008665,画溪大道,939530
盈都江悦城,4,9818,0.039791,120.405081,30.345972,春潮路,892180
乘航新村,2,5714,,120.586399,31.848904,镇中路，乘航西路,889232
祥生悦山湖,4,12272,,120.090446,30.921637,德清路，近同心路,990886
嘉业商住楼,13,11904,0.002864,120.431158,30.875647,嘉业路,939243
海兴小区,39,8084,0.313292,119.909188,31.000942,海兴路,939481
橡逸湾,2,11764,-0.018358,120.631120,30.910591,舜湖西路，近西二环路,887333
汾湖小区,2,15789,0.342146,120.553713,31.266416,枫瑞路55号,887743
新城十里锦绣,234,8626,0.012054,120.565926,30.889144,太平路,1037883
嘉凯城太湖阳光假日(别墅),1,13363,,120.122425,30.957274,梅洲路188号,939035
西湖苑,1,19977,0.148205,120.529211,31.858281,西湖苑路,889529
长桥新村,4,53546,-0.003480,120.652087,31.274779,宝带东路,887680
太湖城仕公寓,138,13962,-0.010182,120.398422,31.224379,环湖大道68号,887997
新世界庄园,2,14634,0.359808,119.914817,31.006574,河滨路127号,939579
星月翡翠半岛,4,10333,0.081310,120.629745,30.900346,西二环路,887343
文景苑,6,18965,0.399838,120.697023,30.527824,人民路143号,891550
华侨花苑,1,22089,0.051869,120.633985,31.288223,人民东路188号,886144
长欣小区,1,5540,-0.359080,120.403688,31.958379,长欣路,889618
柏悦公馆,1,12222,,120.553089,31.318928,华山路,886482
翠湖苑,2,7075,,120.586082,32.401343,中山东路，近万寿路,926282
繁花郡,1,11764,0.224269,119.673614,30.653175,通凌路，近清政路,989730
东吴绿郡花园一期,3,54897,,120.644397,31.253430,枫津路30号,887513
名都花苑,2,9756,,120.561115,31.859676,新市河路75号,889435
菊海雅苑,8,8250,-0.241030,120.462253,30.619259,环城南路1088号,892541
绿城龙王溪小镇,32,18605,0.102875,119.603879,30.602415,苕源路1号,939680
苏州福园,10,8566,-0.061617,120.399613,31.302940,塔山路1号,887996
金科观天下花苑,1,14683,0.033723,120.656775,31.420771,南天成路,889141
太湖黄金水岸,24,12680,-0.023564,120.457616,31.228719,环太湖大道,658770
金色水岸,1,9302,-0.300864,120.102057,30.891435,二环北路,939053
乌桥水岸花园,2,10300,0.359965,120.660241,30.925619,盛泽大道，近盛泽西路,798915
星城时代商业广场,4,10363,-0.100980,120.650619,30.910812,舜湖西路,887342
慕容城,5,10356,-0.006475,120.674460,30.542790,富兴路23号,798199
久强幸福湾,2,6489,,120.637305,32.396047,双群东路，近中山东路,1010393
东大街海天国际,1,7500,-0.071667,120.474342,32.553834,东大街2号,917869
凤凰新城,14,4347,,120.364974,32.649469,墩头路,926351
首开太湖一号,1,12643,-0.021515,120.608595,31.145687,高新路2999号,886856
方海大楼,20,5111,-0.002294,120.694400,30.530382,水月亭西路142号,890537
万科香墅,1,8923,-0.214870,120.697126,30.791345,成秀路88号,890266
朗诗人民路8号,4,56122,,120.633985,31.287134,人民路，近南环路,886175
城建嘉园,1,11298,0.397779,120.568831,32.384696,大司马路,918276
裕隆府,1,9889,-0.068598,120.691379,30.764186,秀园路,890310
桂花公寓,1,19866,-0.082972,120.643602,31.297439,南园北路6号,886138
在水一方家园,1,8863,-0.021528,120.088157,30.909919,德清路1377号,939198
保利雅苑,4,21701,-0.109045,120.572718,31.294940,玉山路38号,886559
锦绣江南(别墅),5,8932,0.171717,120.607770,31.074976,同心西路88号,887137
温馨家园,1,5957,-0.148757,120.437675,30.533398,北沙滩5号,892513
春申新村,1,12000,-0.103072,120.565918,31.439430,春申路,889032
康来登花园,13,14978,0.054999,120.503318,30.736927,青镇路,996024
缔艺家园,4,8181,-0.081406,120.671071,30.520725,联合路525号,925380
长江城市花园,14,8536,-0.117452,120.562025,31.865005,沙洲东路20号,889613
亨通苑,3,9230,,120.390415,30.958257,望山路1983号,887186
红星国际生活广场(商住楼),5,16490,0.282309,120.560102,31.266363,长江路，近苏福路,887976
金利一区,1,6800,-0.174757,120.675252,30.536422,皮都路,890804
大成郡,12,13976,-0.237285,120.535364,31.263886,金枫路980号,887733
江南现代印象,1,8125,-0.058408,120.634101,30.800269,润园路,890221
金都九月洋房朗轩,1,10764,-0.196531,120.694584,30.760498,秀园路,798234
锦都名邸,26,6912,-0.200113,120.642550,31.965967,永新路,889390
中山名府,3,8064,-0.163138,120.542293,30.644914,中山西路861号,892532
佳兆业广场,2,25874,-0.143273,120.565646,31.285132,塔园路,886571
华丽家族太上湖上景花园一区,65,22743,0.103178,120.444845,31.226874,环太湖大道138号,887989
普禧观澜,68,17767,0.000317,120.565101,31.427270,春秋路，近春华路,889060
御江南,1,8050,-0.355845,120.500321,30.739104,青镇路300号,993041
苏园,2,15970,,120.520606,31.275323,向阳河路18号,887849
振兴小区,2,47745,-0.009861,120.542794,30.634122,振兴西路140号,892530
未来城,63,15222,0.217985,120.575752,31.869550,暨阳东路493号,889523
南港悦府,28,8863,-0.052288,120.479255,31.003404,沿湖东路48号,800129
竹园新村,1,6615,-0.009861,120.697826,30.525053,塘南东路64号,891974
摩尔公馆,68,8613,-0.004234,120.707374,30.769575,洪兴西路，近殷秀路,890322
东郊新村,3,7352,-0.109496,120.713662,30.553140,碧云北路,890532
万盛家园,1,7073,-0.245305,120.703077,30.751711,文昌路2333号,890008
鸿翔南湾,1,10714,0.080585,120.711476,30.509589,钱江东路,890596
景佳花苑,2,10094,0.186692,120.718898,30.877761,虹桥路,926327
颐和花苑,7,8235,0.149016,120.701471,31.812412,永进东路15号,889587
上城蝶园,2,9000,-0.014239,120.709597,30.502170,江南大道,891396
格林小镇,4,7915,-0.058545,120.701616,31.535902,227省道,884824
中熙梅里江南,26,8301,-0.094275,120.718333,30.641942,梅北路，近梅秀路,1012469
大树花园(北区),83,7879,0.037459,120.718791,30.768959,吴越路378号,890181
正荣国领别墅,3,50711,0.080480,120.708424,31.258310,东方大道,887420
群利景苑(南区),1,8000,-0.095227,120.716136,30.524232,塘南东路621号,891367
蓝光名仕公馆,1,10000,-0.116296,120.700729,30.751474,文昌西路,889900
星城洛洲,1,13095,,120.701179,30.518315,海州东路,891727
秀洲花园(三区),1,7058,-0.038026,120.716149,30.761745,新洲路36号,890287
吉翔澜山(别墅),2,12202,-0.179222,120.713440,30.546884,碧海路，近横山路,952802
地中海一号公馆,8,7360,-0.145250,120.714872,30.549517,横山路,890527
大树花园(西区),10,8057,-0.002538,120.717151,30.767225,新秀路256号,890182
农房斯坦福德小镇,5,7894,-0.089819,120.716047,31.926953,乐富路99号,889451
梁林帆影庄,2,8333,0.028893,120.715450,30.755936,文昌路1669号,889906
海宁月亮湾,2,7165,-0.230122,120.719484,30.528934,碧云南路，近水月亭东路,952789
丁香花园,1,11521,0.124732,120.705934,30.519708,南苑路53号,925379
永泰广场,20,9783,0.073708,120.716508,30.764019,亚厦路181号,890305
金贸中心,5,10857,0.069234,120.719289,30.541469,石泾路15-17号,1026578
洪兴国际广场,21,9484,-0.024267,120.703622,30.769045,洪兴路，近聚贤路,991002
佳源优优华府,791,11396,-0.001675,120.716681,30.722345,嘉杭路，近开禧路,927358
盛世豪庭,2,11844,-0.012969,120.703576,30.764772,聚贤路68号,890253
元一柏庄(二期),1,10139,0.020533,120.717609,30.757085,梁林路158号,890103
盛世豪庭香园,1,12916,0.030014,120.701430,30.766225,秀洲大道115号,926320
隆兴嘉苑,27,7759,-0.010252,120.701795,30.544956,由拳路,891015
秀圣花苑,1,7245,-0.039900,120.711361,30.789285,秀圣路206号,890284
凤凰新村,5,8000,-0.311887,120.707925,31.439441,兴太路,889155
华府景苑,1,11149,0.311493,120.719207,30.524059,塘南中路777号,890634
四季香榭,3,8288,-0.020432,120.710974,30.518658,海州东路,892138
嘉盛龙庭,9,7500,-0.018068,120.705880,30.772105,聚贤路,890213
九龙仓国宾1号(别墅),1,42556,,120.713935,31.297141,石莲街9号,888504
农房斯坦福德小镇(别墅),51,7799,-0.010028,120.715336,31.925390,乐富路99号,889670
阳光天地,6,14000,-0.000785,120.701535,31.251875,环湖路,887409
中梁壹号院,30,9564,0.041150,120.710100,30.500543,江南大道，近农丰路,952796
赞山景苑(南区),2,8811,-0.141228,120.719905,30.505463,钱江东路,891870
新月公寓,68,8812,0.060214,120.707218,30.753640,文昌路2081号,905028
阳光新城,8,8695,0.101983,120.704980,30.515565,福州路59-10号,891797
景尚墅,2,12293,0.142048,120.709216,30.783534,秀庄路,890226
桐溪景苑,12,8768,-0.061564,120.703630,30.488475,丰收路,801890
中梁壹号院(别墅),12,11695,-0.045774,120.710171,30.499392,江南大道，近农丰路,952795
春晓源燕园(别墅),2,9652,0.077048,120.719823,30.774714,洪波路1688号,795556
春晓源(东区),1,8870,-0.010266,120.716675,30.773446,洪波路1840号,890174
名都绿洲,1,8850,0.000381,120.704901,30.765537,聚贤路,890243
万科吴越,42,11957,0.002557,120.718305,30.772683,吴越路536号,991000
吉翔澜山,21,10000,-0.035215,120.711153,30.547281,碧海路,925385
星湖客,1,22965,0.043886,120.718411,31.374480,亭盛街,888281
金泰城,256,14317,-0.141570,120.701085,30.505176,新苑路,1015057
乐余商贸花苑,1,6896,,120.708974,31.930616,乐余新街,889413
嘉业阳光城,27,11657,0.107905,120.711928,30.767435,新洲路388号,1012468
浙联金座,150,9869,0.073314,120.705234,30.769164,洪兴路2203号,890324
建发独墅湾(别墅),2,26446,-0.055479,120.719492,31.251701,赏湖路,887427
新亚香榭水岸,2,10582,0.001988,120.706629,30.766912,新平路，近聚贤路,890331
锦泽苑,5,29452,0.057806,120.700711,31.349410,汇隆街8号,888777
翡翠湾(别墅),1,16147,0.022998,120.719829,31.633639,环湖南路，近尚湖中央大道,885313
大树花园(东区),5,7750,0.025946,120.718930,30.767443,蓬莱路61号,890180
润景嘉园,1,19860,-0.236120,120.715483,30.530203,水月亭东路,891381
恒隆商业广场,24,7142,-0.111139,120.703964,30.784778,东升西路1229号,911217
中山花园,4,8910,-0.000939,120.719598,30.763871,吴越路88号,890315
江南摩尔,112,9384,0.148418,120.715731,30.768868,高层(12-30层),926316
万达广场,133,16789,-0.055277,120.738647,31.689116,珠海路8号,885334
昌盛花园(西区),4,9189,0.004976,120.722335,30.789969,昌盛中路,890164
佳园圣淘沙苑,2,11333,0.076667,120.720470,30.772315,佳园路53号,890208
嘉州美都三期欢欣园,1,9587,0.182021,120.738061,30.783724,百墅路99号,926319
半月湾,1,32000,,120.727272,31.267661,月亮湾路6号,888691
杉杉in象,171,10735,-0.046953,120.732647,30.780637,中环西路，近东升东路,890329
金色华庭,7,8385,-0.131088,120.727854,30.632714,兴乐路344号,926313
诚恒世嘉,1,8750,0.039563,120.725440,30.890953,北虹东路129号,1012472
龙鼎国际公馆,95,8511,-0.029254,120.724604,30.758360,龙凤路，近龙舟路,927322
环球国际,53,8266,0.059536,120.724935,30.756730,文昌路1209号,944516
金穗月亮湾,6,7954,-0.054109,120.733320,30.740503,城南路1655号,889882
世纪嘉园,2,9302,0.351249,120.729770,30.764057,中山西路658号-672号,890255
云都大厦,2,8720,0.014779,120.739392,30.770845,越秀北路306号,890334
立达汇园公寓,84,9552,-0.019829,120.728672,30.769415,常秀街443号,1012471
大陆世嘉公寓,4,7076,-0.054921,120.739097,30.763203,吉杨西路,889743
越秀花园,38,8733,-0.047705,120.736602,30.762111,吉杨路488号,890108
中医院宿舍,1,9090,,120.735387,30.767431,凯旋路18号,890317
耀城广场,1,10268,-0.026268,120.736941,30.763879,中山东路1520号,927313
世纪家园,1,8641,-0.050231,120.723146,31.156623,迎燕东路,887104
财富广场,7,8505,-0.346104,120.722781,30.765516,中山西路527号,927357
裕隆公寓,1,11333,0.184717,120.728755,30.766656,秀仁路187,890311
亲亲家园,5,8106,0.088638,120.728126,30.730857,骏力路211号,889949
禾源新都,4,6310,-0.198056,120.729810,30.711582,开禧路,889813
中润嘉兴中心,135,5940,-0.055224,120.728086,30.756284,文昌路,927320
中南闻荷府,428,11084,-0.003282,120.727367,30.880202,滨河东路,991006
洪兴花园,7,8813,0.037659,120.724383,30.768989,常安街208号,890204
长虹春天,676,10363,0.003461,120.729280,30.878145,运河东路，近虹桥路,912652
嘉兴龙鼎万达广场,320,11269,-0.050110,120.724729,30.758614,龙凤路,890151
梅里春天,29,10582,0.091680,120.728901,30.634682,花园路，近常乐路,926328
新锐公馆,67,9127,0.021146,120.728574,30.732003,骏力路137号,944518
阳光城愉景湾,5,41886,0.011455,120.723373,31.252114,东方大道，近星湖街,887425
方舟园,9,13333,-0.172377,120.733400,30.771915,友谊街230号,890188
天城花园(东区),4,7842,-0.172907,120.736508,30.774842,天河街168号,890258
丁香花园,1,10184,-0.004216,120.726982,30.781867,东升西路229号,890183
锦绣江南,34,9149,-0.031224,120.731495,30.875485,运河东路1001号,656386
恒丰景苑,3,6049,-0.257062,120.728933,30.629517,花园路,890199
越秀银座商务中心,1,8000,-0.008182,120.739452,30.768348,越秀北路154号,927340
皇马公寓,13,9686,-0.007734,120.725547,30.773114,常秀街,798238
金都景苑,48,8241,-0.009257,120.724713,30.764066,中山西路958号,798057
龙泽园,6,10994,-0.193360,120.721008,30.872776,闻川路,795318
旭辉御府,7,14883,0.016303,120.727252,30.748847,桐乡大道,890067
中梁吴越首府,2,9589,-0.127275,120.729248,30.749459,桐乡大道，近九九大街,927345
豪仕登大厦,77,11661,0.001309,120.733562,30.762848,吉杨路639号,1024169
风清云都,2,8192,0.003799,120.738727,30.773171,洪越路36号,889776
金水湾,7,38809,0.111542,120.724323,31.305712,金鸡湖大道,888526
依云小区,1,13186,0.294522,120.726002,30.807680,胜利路2号,890299
SOHO宜家,1,8493,0.223635,120.731428,30.754403,中环西路342号,927341
洪仁苑,1,13571,0.229926,120.730670,30.767639,洪仁路59号,890203
万达华府,17,13369,-0.098187,120.739334,31.690779,富民西路，近珠海路,885328
晴湾佳苑,2,12857,0.024871,120.722802,30.755420,文昌路1299号,798052
泰富世界城,223,9092,-0.000838,120.725378,30.755086,文昌路1299号,927349
越运里小区,1,10666,,120.739018,30.761587,越秀南路828号,890110
北禾春天,600,8724,-0.059204,120.731266,30.794309,城北路1574号,890332
元一柏庄(一期),13,10406,0.063337,120.720725,30.757734,昌盛南路,890102
运河大公馆,406,11215,0.037631,120.720794,30.880747,闻川路，近虹桥路,1037256
嘉兴市公安局宿舍,1,11019,0.046884,120.739411,30.754860,越秀南路520弄,889866
十里风荷,111,15019,-0.035039,120.721685,30.537312,碧云北路，近施带路,1026582
银河湾,3,10286,-0.021986,120.731386,30.728127,银河路,890087
佳源优优城南,36,10870,-0.005045,120.735666,30.735902,创新路，近城南路,927346
万科悦中环,364,10673,-0.033209,120.731320,30.772947,中环西路，近洪殷路,890330
嘉兴人才公寓,142,9355,-0.049771,120.735389,30.740864,创新路220号,889865
昌盛花园(东区),2,7411,-0.007433,120.724567,30.789015,常秀街,890165
天乐苑,5,18000,0.095557,120.732974,30.726786,银河路172号,889991
巨匠义圣名苑,6,9756,-0.048474,120.734058,30.743555,中环西路,889893
月亮湾(别墅),9,11823,0.174985,120.731047,31.263116,康力大道588号,887183
盛大花园,8,9179,-0.018682,120.736408,30.780869,百墅路437号,890250
中行公寓,3,9730,0.052146,120.734581,30.767717,凯旋路,890312
新中国际,368,13081,-0.026485,120.721019,30.787405,郎中桥路,795304
万科中环公园,903,11975,-0.012086,120.738163,30.789835,中环北路，近城北路,1022024
银泰花苑,1,8000,,120.733685,30.769709,洪兴路,890303
海派秀城,209,10600,0.080717,120.723013,30.773818,洪殷路420号,890327
中南闻荷府(别墅),60,10638,-0.030042,120.727296,30.879490,滨河东路,991007
瑞鑫大厦,2,5454,-0.209336,120.737850,30.767126,凯旋路88号,1022022
茶花苑,1,18181,,120.734258,31.669826,山茶花路,884739
碧云山庄,1,27857,0.172186,120.728488,31.684303,碧云路2号,884725
伊顿花园(别墅),9,24615,0.000366,120.736549,31.313862,南施街1号,888652
隆腾广场,2,7368,-0.053321,120.738913,30.743023,紫竹路18号,1006362
东方都市,17,12831,-0.013569,120.724109,30.514979,碧云南路,798254
白金公馆,14,9363,0.119470,120.721116,30.502610,碧云南路，近城南大道,892042
爱丁堡(别墅),10,38895,0.005558,120.733455,31.489335,湘太路98号,889182
绿洲别墅,1,20388,-0.098714,120.734701,31.299690,金鸡湖大道,888568
诚恒世嘉,36,8441,-0.046969,120.725149,30.890554,北虹东路129号,797046
巴黎印象,3,7162,0.058528,120.731661,30.631475,花园路351号,926318
现代广场,2,7876,-0.028134,120.722493,30.758884,昌盛南路1625号,1024179
名典公寓,10,9090,-0.128726,120.741301,30.765561,中山东路1276号,889930
中环广场,16,8695,-0.133792,120.741428,30.748205,中环南路，越秀路,1006359
长新公寓,1,8888,0.060621,120.749262,30.734535,长桥路,890121
香港兴业御缇湾,1,9693,-0.020612,120.745724,30.733576,翠柳路,890038
时代阳光小区,4,7058,0.006560,120.748583,30.795721,禾兴北路946号,890254
瀛洲花园,2,10685,0.056678,120.745258,30.750814,城南路657,890092
太阳公寓,1,11388,0.385125,120.755483,30.761137,砖桥街13号,889983
金鼎广场,8,11548,0.069556,120.759564,30.771516,建国南路400号,1006366
府南花园(三区),9,11590,0.143449,120.756587,30.731325,新气象路,889787
石雪公寓(北区),1,12000,0.345593,120.759140,30.720383,祥和路105号,889970
枫泾新村四区(12-19),1,18075,0.028602,120.759086,31.653954,枫泾路,884808
万科海上传奇,198,16190,-0.037955,120.741272,30.743001,城南路1155号,798055
海上新园,3,10364,0.041905,120.740988,30.743883,城南路,889805
放鹤洲花园,4,12795,0.047630,120.749209,30.748426,放鹤洲路562号,889771
星雅汇,25,12487,0.249475,120.747291,30.745041,清华路245号,927352
大地公寓,14,8423,0.028008,120.755515,30.761781,砖桥街45号,889741
朗诗未来街区三期,1,24186,-0.145824,120.750713,31.379281,夷浜路,888253
蓝天嘉苑,6,10206,0.025832,120.756639,30.738430,新气象路929号,889901
石雪公寓(南区),3,13611,0.387320,120.759463,30.716735,石隆路103号,889969
绿溪玫瑰园(北区),14,9346,0.024331,120.757561,30.743072,会展路98号,889923
天城园林居,2,11842,,120.744782,30.754834,文昌路148号,889989
丽江苑,2,17595,0.094740,120.755750,31.676388,长江路286号,884976
望鹤苑,1,8571,-0.252746,120.747374,30.747447,中环南路,890012
吉杨里,1,7272,-0.080076,120.744577,30.762417,吉杨路,889839
同乐社区,2,7049,0.094225,120.749877,30.775865,同乐路433号,890004
天天嘉苑(北区),1,7826,-0.334750,120.748083,30.750987,怡南路162号,889994
怡南花园,3,7900,-0.004222,120.748357,30.752509,城南路516号,890085
石雪公寓(西区),25,9411,-0.049970,120.759140,30.718629,南泉路,889968
吉安公寓,5,10000,,120.744783,30.765056,吉安路15号,889834
嘉城南都苑,4,9739,-0.051796,120.742488,30.745082,城南路,889860
泰安新村,7,22469,-0.031404,120.759609,31.657272,泰安街,885120
紫元尚园,1,9795,-0.008377,120.742693,30.741221,城南路,890141
紫溪花园,27,7004,-0.009861,120.754983,30.792344,中环北路846号,890319
聚成广场,1,8715,0.002646,120.740833,30.740087,城南路，近由拳路,927355
长新公寓(北区),24,7698,-0.122106,120.747789,30.738915,由拳路,890120
中楠穆溪左岸(东区),1,14457,0.190366,120.749956,30.799768,禾兴北路1135号,890314
锦绣苑,2,9285,-0.044753,120.740056,30.774081,越秀北路483号,889884
南都中心,305,9290,-0.063885,120.742264,30.745174,城南路，近中环南路,1006356
紫阳公寓,1,6888,-0.022563,120.757476,30.761888,环城南路303号,890140
江海名都,2,7952,-0.010236,120.751310,32.099276,育才路,918446
新秀苑,14,5653,-0.110464,120.742256,30.778181,东升东路,905027
禾兴公寓,1,8830,-0.030389,120.754122,30.773972,环城北路20号,889811
宇隆嘉苑,32,8677,-0.004274,120.758484,30.830590,奥星路278号,438527
西马桥社区,2,7258,0.000414,120.750336,30.788530,禾兴北路522号,890035
松合里,1,6913,-0.009861,120.749447,30.753750,松鹤路6号,889982
郎诗未来街区,6,30113,0.003491,120.756045,31.376547,青澄路9号,888251
中山名都,1,9520,-0.051554,120.752605,30.769118,中山东路639号,890128
新东方商厦,1,9122,-0.018361,120.755730,30.771434,禾兴南路833号,927339
望湖公馆,3,7833,-0.147473,120.746050,30.737358,由拳路,890014
阳海景怡(中区),1,8333,0.062070,120.746112,30.802280,云海路69号,890297
朗诗国际街区,3,60261,0.017123,120.748758,31.311159,津梁街8号,888541
放鹤洲花园(南区),1,17115,,120.747323,30.748178,望鹤路99号,889773
隆兴公寓(北区),1,6079,-0.098071,120.757692,30.726069,新气象路,889912
半岛公寓,6,7763,-0.020812,120.750630,30.774584,城北路58号,889722
大树金港湾,5,8152,-0.001959,120.745204,30.738607,由拳路499号,889745
华府国际广场,1,11818,0.325928,120.741873,30.737249,由拳路，近城南路,927338
老年公寓,18,5736,-0.107537,120.741913,30.780210,东升中路,889902
朗诗未来街区四期,1,27744,-0.055479,120.747966,31.379596,夷浜路,888254
中海8号公馆,1,31295,0.009540,120.754199,31.317759,琉璃街,888620
申大苑二区,2,19613,-0.007289,120.753746,31.680198,李闸路,885094
蔚蓝澳洲中心,50,9534,0.046110,120.746328,30.740649,紫竹路,991785
南杨新村,2,10526,0.154420,120.752688,30.764198,斜西街,889943
赞成清华府邸,10,12000,0.156404,120.743782,30.744358,城南路1038号,890115
长新公寓,2,7812,0.018514,120.749033,30.730787,翠柳路,890119
月河公寓(南区),3,7000,-0.013946,120.753214,30.777075,同乐路,890105
放鹤洲花园(北区),2,12083,,120.747682,30.749446,望鹤路36号,889772
城南花园,67,8601,0.021056,120.749117,30.757658,城南路237号,889732
乐澄花园,18,12287,0.231175,120.741046,31.499896,城中路91号,889162
旭辉广场,1,11428,0.078724,120.753237,30.766893,中山东路666号,927347
青春梦想家园,1,21356,-0.021808,120.750731,31.378939,青澄路,888258
中央花园,4,10588,-0.103927,120.743802,30.765360,明月路50号,890133
王冠里,1,7386,-0.071411,120.742231,30.752930,文萃路,890011
嘉悦大厦,153,10000,-0.006458,120.740188,30.765507,中山东路1292号,991788
阳光小区(南区),4,8988,0.027905,120.744388,30.792239,同心路422号,890294
华发雅苑,5,9548,0.051277,120.758894,30.732695,珠庵路219号,889826
东菱梅湾花园,17,14000,,120.751714,30.756870,城南路158号,889760
紫欣公寓,1,16853,0.155265,120.757905,30.763029,杨柳湾路23号,890138
放鹤洲花园(一期),3,12000,-0.008756,120.749968,30.754493,放鹤洲路159号,889770
绿地新里铂克公馆,5,36783,0.301873,120.744709,31.699242,深圳路,885000
富安御园,1,9500,0.002639,120.753537,30.784299,三元路818号,889791
远洋绿洲,9,8351,-0.040153,120.746415,30.761900,吉水路272号,890104
花园社区,2,7857,-0.120846,120.743164,30.777860,东升路,889824
朗诗未来街区一二期,6,28172,0.006597,120.755663,31.376193,青澄路，近科智路,888255
吉水花园,1,6458,-0.116190,120.744411,30.760323,吉水路341号,889837
龙之梦悦庭,166,9631,-0.019457,120.745286,30.747210,中环南路1969号,1006355
云景雅轩,1,10743,-0.136068,120.743074,30.791999,同心路，近禾平街,1037257
弘信观湖,14,8655,-0.097513,120.762504,30.831289,奥星路191号,610586
秀水人家,9,6470,,120.766418,30.775922,青龙街42号,890062
东菱阳光乐园,1,11428,0.021817,120.763212,30.739928,花园路818号,889762
南湖星辰湾,1,8484,-0.220997,120.772713,30.789101,锦绣路199号,798058
彩虹公寓,6,6242,-0.226487,120.767685,30.776128,青龙街95号,889725
托斯卡纳(二期),129,10498,-0.000987,120.767398,30.833190,奥星路87号,926315
府南花园(一区),5,7764,0.004675,120.760369,30.738011,新气象路946号,889789
水岸丽都,28,10907,0.018452,120.762617,30.812969,东方路,797902
嘉禾北京城,1,7258,-0.394005,120.761365,30.780216,北京路37号,889862
碧霞苑,1,5617,,120.768619,32.245293,市河路,918274
文星花园海棠苑,1,9555,-0.105923,120.775471,30.749476,纺工路959号,890025
赞成新都名邸,1,10227,0.000611,120.761430,30.735264,花园路1151号,798061
水仙坊,2,7018,-0.024378,120.778220,30.758173,南溪西路,927323
隆兴公寓(东区),2,9840,-0.120756,120.761321,30.727094,花园路,889910
皇冠花苑,4,7077,-0.116007,120.773082,30.754569,菱香路34号,889832
凌波苑,20,7715,0.022343,120.774213,30.783640,凌塘路319号,889907
恒大绿洲,109,8926,0.002485,120.763610,30.822442,正原北路,890198
绢纺三村,1,7058,-0.201945,120.775698,30.760211,纺工路462号,889895
怡梦苑,2,9090,0.087060,120.765473,30.773191,解放路3号,890084
文星花园汇龙苑,9,8741,0.007028,120.779803,30.748212,凌公塘路773号,890026
香格丽花园(别墅),2,30323,0.355884,120.766064,31.660657,枫林路17号,885304
佳源都市(西区),18,10142,0.002793,120.778519,30.784961,城东路,889847
新雅公寓,2,8050,-0.182894,120.766175,30.769058,中山东路39号,1006364
金地艺境,745,11262,0.006659,120.761123,30.822724,东方路，近正阳西路,990999
南湖小区,159,8537,0.000234,120.773893,30.754450,菱香路40号,889937
平安家园,8,9529,-0.258664,120.775429,30.790405,塘汇路,890248
海纳公馆(东区),13,9667,-0.050903,120.767314,30.812794,天星西路188号,890194
迦南美地广场,44,9000,0.009308,120.770591,30.716350,槜李路,1006358
麟湖公园壹号,1,10500,0.097867,120.763834,30.833528,奥星路155号,890328
新湖绿都,18,8775,0.002284,120.774235,30.766418,纺工路84号,890050
三水湾小区,1,5830,-0.029747,120.779974,30.760882,天枫路,927325
名湖人家,1,12539,0.010069,120.772759,30.754920,海盐塘路,889931
台昇璞悦汇,79,11604,-0.036801,120.761230,30.728998,长水路,992975
翰林府第,31,10515,-0.015771,120.775606,30.747650,纺工路1235号,798054
路劲尚澜湾,1,32226,,120.771924,31.306516,港田路511号,888563
湖滨花园,1,6227,-0.009861,120.771875,30.766736,纺工路25号,889822
嘉城景帆苑,4,9599,-0.022778,120.760224,30.782745,新丝路21号,889853
骏园,1,9338,-0.036586,120.764299,30.721477,花园路,889896
荣盛香韵花苑,66,11213,-0.081579,120.770778,30.780674,凌塘路,992976
优优花园,18,10598,0.049149,120.764600,30.725782,花园路，近东升路,927332
望湖公寓,39,9235,0.006196,120.763770,30.766396,大年堂前135号,890015
新虹桥花苑,2,7105,-0.091801,120.770545,30.775827,城东路,905025
文苑小区,48,7165,-0.044677,120.779076,30.743105,纺工路,890031
格兰春天,13,8630,0.017537,120.766714,30.814461,天星西路255号,890193
城东公寓,3,6000,-0.211149,120.771038,30.773008,城东路373号,889730
祥生玖熙花苑,581,11320,-0.005807,120.763161,30.716403,新气象路,890153
烟湖苑,2,7500,-0.237262,120.772514,30.746516,海盐塘路558号,890069
佳源都市(三四期),9,10665,0.067247,120.777200,30.786582,佳园路，近凌塘路,927321
中南世纪城,4,19897,-0.006578,120.777834,31.665070,泰山南路,885263
康达公寓,3,11282,-0.014586,120.763626,30.767935,秀州路,889897
枫杨坊,8,6147,0.019403,120.779983,30.764849,天竹路71号,889777
南溪花园,43,9081,-0.003457,120.775393,30.763175,纺工路262号,889940
石雪公寓(东区),1,7666,-0.010966,120.762014,30.720957,祥和路247号,889971
中南世纪城(别墅),6,17777,-0.028632,120.776976,31.661712,泰山南路,885307
大华城市花园,13,10261,-0.057009,120.760840,30.741471,会展路257号,889742
毛纺新村,3,10465,-0.003238,120.773721,30.758095,纺工路,889924
丽苑小区(北区),2,7429,-0.077883,120.765352,30.818423,正原北路,890230
台昇国际广场悦府,215,11088,-0.004947,120.761220,30.729118,花园路,792519
枫泾新村一区,1,19021,0.083461,120.762342,31.653432,枫泾路,884809
和风丽园,101,7425,-0.028092,120.774577,30.797100,和风路474号,890196
爱尚公馆,100,10187,0.202491,120.776996,30.792913,中环北路，近塘汇路,890326
南郊花苑(北区),6,9272,,120.761722,30.725000,马塘路278号,889939
春波景苑,24,7333,-0.027840,120.769236,30.775753,大新路193号,363888
海逸大厦,1,10000,0.308044,120.779551,30.743329,中环南路370号,927330
青龙公寓,1,9618,-0.009861,120.767248,30.775831,青龙街,889950
石榴坊,8,6528,-0.069688,120.779360,30.760274,农翔路,927324
天星如意湾,12,8448,0.079065,120.762725,30.814281,天星西路505号,793893
东豪名都,1,6875,-0.063352,120.770362,30.781853,东方路572号,889756
枫泾新村三区,1,12285,-0.083483,120.760649,31.653148,枫泾路,884807
长泰花苑,3,14974,-0.058184,120.773952,31.676397,泰山路18号,885252
赞成学仕苑,54,10526,-0.000759,120.778020,30.747518,纺工路1166号,890116
怡苑豪宅,33,8276,-0.006765,120.766058,30.773638,解放路69号,890086
秋泾公寓,1,7299,-0.208753,120.767331,30.784496,大东路43号,797728
铁树坊,13,6825,-0.004195,120.778541,30.761887,景湖路，近天枫路,927335
优优花园,18,10526,-0.003031,120.764606,30.726095,长水路,890093
秀州公寓,2,8611,-0.116639,120.762844,30.775114,环城北路509号,890064
万家花园,84,8076,,120.783221,30.757686,望湖路108号,890006
国际中港城,262,9501,-0.055905,120.799201,30.744628,广益路555号,890148
怡和园,2,8393,-0.009178,120.790902,30.755863,景宜路425号,890081
中成新世纪公寓,41,7950,-0.005753,120.799125,30.746614,中港路79号,890126
中南公寓,14,8988,0.000334,120.791906,30.736512,由拳路2717号,890127
云东公寓,64,10154,-0.107094,120.798955,30.733580,由拳路，近双溪路,952907
金山苑一区,2,17500,0.048406,120.790704,31.642429,金山路,884931
百隆花园,1,12676,0.302641,120.786414,30.766253,中环东路,889718
大树英格澜,170,10286,0.001460,120.788779,30.708394,纺工路,778364
天竹坊,186,6785,0.010876,120.780315,30.763122,天竹路,889999
信达东郡,2,12727,0.107755,120.792363,30.756810,景宜路,905030
承安南湖壹品,3,14130,0.148314,120.790614,30.731981,文贤路，近普民路,927344
同方燕语林苑,1,11584,-0.017763,120.793496,30.758879,南溪西路2208号,890001
佳源优优中环,786,11590,-0.017713,120.786945,30.776975,中环东路，近长安路,1024177
嘉城绿都芙蓉苑,4,10203,0.318111,120.793338,30.781226,宜城路,889854
森兰公寓,1,22222,,120.799366,31.607571,东南大道28号,885069
嘉辉南湖美寓,72,9123,-0.132712,120.787286,30.775387,中环东路,890150
万达公寓,8,13574,0.031036,120.780500,31.648506,新世纪大道，近富康路,885133
都市文涛苑,10,11029,0.099272,120.784197,30.742899,中环南路136号,889765
三景花园,2,11549,0.122134,120.786279,30.763907,泾水路216号,889960
久久小区,102,8468,0.018078,120.795205,30.734400,双溪路,889891
明珠花园,1,7000,-0.004975,120.789202,31.055971,西鹤路91号,887164
农翔苑,16,8190,0.006420,120.784275,30.753900,望湖路127号,797422
荣盛富盛名邸,154,9971,-0.005014,120.782647,30.734973,由拳路，近富润路,1024171
华盛广场新邻域,1,8125,-0.028110,120.788576,30.732081,乌桥路，近普民路,927353
嘉城绿都秋菊苑,1,10555,,120.789067,30.779465,宜城路,889858
荣盛百合花园,58,11333,0.004342,120.794158,30.793711,城东路,1012466
金鼎花园,1,10640,0.368329,120.793149,31.095495,金鼎东路,887153
紫竹名苑,16,10693,0.020446,120.791061,30.759633,景宜路183号,890142
经房浅水湾,2,10217,0.061617,120.792058,30.799334,鸣羊路,720987
桃李春风景苑,52,9153,0.010600,120.798747,30.345156,钱塘江路,1005437
举秀苑,3,9708,0.144946,120.794819,30.730736,文贤路837,889892
百盛花园,2,13229,0.008759,120.785866,30.751850,百盛路,889721
龙山景苑,5,6133,-0.126726,120.785526,30.423539,龙山路，近龙晓路,952792
秀景苑,5,9313,-0.003677,120.798466,30.670390,贤埭街,890059
嘉城绿都紫薇苑,2,6000,-0.142244,120.791771,30.774656,湘溪路,889859
怡江苑,52,7012,-0.029108,120.799250,30.679440,镇北大街112号,890082
茶香坊(北区),3,8717,-0.027988,120.797806,30.795018,章园路,890161
嘉城绿都春兰苑,2,9706,0.192237,120.790841,30.773085,湘溪路,805600
秀沁苑,2,7500,-0.182561,120.791776,30.667482,镇西路,890060
御溪花园,3,13679,-0.051878,120.796026,30.752872,双溪路1163号,890100
皇都花苑,24,11365,0.008094,120.793868,30.757285,南溪西路2219号,889831
锦荷佳苑,4,12500,0.007009,120.783843,31.649423,富泰路,884944
华盛广场,4,7272,,120.788210,30.731596,商务大道,890146
徐王公寓,9,7607,-0.052128,120.783329,30.780757,徐王街59号,890065
水榭花都,43,10400,-0.002111,120.790543,30.746045,景宜路963号,889980
广宜文苑,9,9720,-0.027112,120.790789,30.744291,景宜路1055号,889802
荣盛富盛名邸(别墅),1,12107,0.007070,120.784029,30.735022,由拳路，近富润路,1024170
巴黎都市,128,12044,-0.010221,120.784979,30.745990,凌公塘路,649803
格林小镇,6,12233,0.070276,120.794128,30.745506,格林路199号,889797
嘉辉Loft公馆,202,9212,-0.023609,120.789773,30.774693,湘溪路76号,927331
赞成丽景苑,46,10263,-0.000779,120.792932,30.765657,双溪路453号,890114
尚东名邸,195,8992,-0.049056,120.782558,30.789134,中环北路,657418
禾东公寓(北区),57,9102,0.176490,120.782644,30.783914,周安路162号,889809
石堰苑(南区),3,10606,0.171675,120.787147,30.714691,纺工路,889973
桂苑,4,7729,-0.025114,120.784431,30.760168,南溪西路1412号,889804
创业公寓,361,11088,0.070282,120.784988,30.775423,创业路,889734
新世纪花苑,1,17225,-0.292170,120.797730,31.604940,东南大道99号,885173
泾水公寓(北区),2,7754,-0.002845,120.791835,30.763751,泾水路372号,889886
世茂尚景蓝湾,35,8744,-0.071906,120.788409,30.711942,五环洞路88号,440697
九里苑,2,16416,0.393473,120.787104,31.674701,九里大街23号,884954
滨江嘉苑,7,8524,-0.038857,120.792841,30.343300,新民路，近硖尖公路,952787
香山苑,1,30682,-0.060001,120.787158,31.643992,富泰路,885161
嘉辉南湖美寓,16,9523,0.007618,120.787290,30.775335,湘溪路76号,890154
禾东公寓(南区),325,8671,-0.084666,120.782999,30.782549,周安路161号,889808
紫金艺境,34,11284,-0.034935,120.791935,30.734955,乌桥路100号,890156
华玉佳苑,66,9333,-0.169215,120.797802,30.789472,鸣羊路,890207
康桥花园,11,12888,0.071819,120.792450,30.748486,景宜路838号,889898
绿城柳岸禾风,33,13024,0.006238,120.786651,30.796141,塘汇路，近茶园路,1012476
茶香坊(东区),5,8123,0.001078,120.798530,30.793854,章园路559号,890162
奥园黄金海岸,76,12030,0.073757,120.789423,30.792567,永政路98号,794708
汇金广场,4,7940,-0.000126,120.793289,30.743940,广益路247,927315
力宝翡翠花园,3,8253,-0.102837,120.793597,30.753939,望湖路585号,889905
金地都会艺境,749,11797,-0.016343,120.814447,30.676806,新昌路，近幸福路,944520
雨润天阁,1,7647,,120.805877,30.757969,庆丰路665号,798239
中南公馆,24,8976,0.093598,120.810493,30.744351,九曲路，近南江路,927343
万达华府,366,13985,0.103131,120.808393,30.740711,广益路,798053
格兰英郡,37,11806,-0.013906,120.809585,30.747988,中港路628号,889795
苹果假日,2,6363,-0.058310,120.807585,30.743202,庆丰路，近广益路,927328
南德大院,4,16382,0.013299,120.808252,30.756262,南溪路，近庆丰路,927354
丽江半岛,25,13806,0.004557,120.805594,30.737857,云东路，近塘桥路,890152
仁和苑,3,10000,,120.815146,30.682031,余北大街,889959
金凤城,51,11661,0.204452,120.804814,30.339630,凤凰路38号,917182
金凤城,14,9025,-0.016924,120.805059,30.339178,凤凰路38号,952790
铂金府邸,44,12807,-0.012167,120.809590,30.745707,中港路619号,797985
青年公社,19,12741,-0.000941,120.809407,31.329555,青丘街,888673
万达公馆,664,12092,0.015440,120.803298,30.742026,广益路,1006353
景湖花园,24,10527,-0.138996,120.803560,30.760243,云东路62号,889890
郁金香岸,1,16818,0.037252,120.803766,30.753714,云东路,890096
信达翰林兰庭,1,12360,0.022248,120.811254,30.755926,南江路,890052
海枫苑,1,10486,0.380827,120.811418,31.745032,海阳路,884831
美迪家园,37,8000,0.000500,120.804225,30.673728,民新路18号,617272
金凤城(别墅),18,10153,-0.041423,120.805030,30.337892,凤凰路38号,917183
双溪花园,20,8260,0.020761,120.800387,30.760102,南溪西路2536号,889978
嘉兴世界贸易中心,11,8263,0.042550,120.802746,30.743694,广益路，近云东路,927337
宝格丽公馆,262,11046,0.017150,120.805966,30.740052,庆丰路,794506
天凝金水湾,8,6772,-0.122717,120.819726,30.898785,兴贤东路,556918
信源亲水湾,47,8470,-0.010008,120.816962,30.745701,广益路,798232
育龙湾,1,7058,,120.800449,30.796080,章园路687号,890308
仁和锦居,2,8270,0.240737,120.805644,32.094208,集秀路68号,917743
紫澜别墅,8,12527,0.137944,120.803065,30.748316,中港路,802035
万好家居,8,6060,-0.064815,120.808635,30.743838,庆丰路，近广益路,1006360
新贤园小区,14,6341,-0.077404,120.807775,30.669947,五星路,890051
龙翔大厦,50,7706,-0.101926,120.805699,30.744361,庆丰路1407号,927351
亭南新村南区,1,16666,0.089708,120.811997,31.355455,亭南路,888677
佳源东方都市(别墅),11,11615,0.011231,120.821185,30.737343,亚欧路,927326
明珠花苑,5,8239,-0.209604,120.833485,32.356111,三三四省道,918228
御上江南景园,9,11523,0.045644,120.825418,30.741064,亚欧路656号,890097
好第坊,36,7000,,120.831449,30.743293,中环南路,767010
湘湘恬园(别墅),3,8631,-0.019385,120.834857,30.818896,兴民路,952905
中洲花溪地,84,11182,-0.049775,120.829028,30.736753,由拳路,952158
佳源东方都市,82,11692,0.014050,120.822712,30.738920,亚欧路,927327
亚太花苑,5,8024,-0.067432,120.820765,30.750167,凌公塘路2758号,890068
永兴花苑,6,10583,0.375244,120.826948,32.041938,利民路,917837
金色家园,2,8191,-0.009861,120.830424,30.853878,南星桥路，近麟溪路,941366
湘景苑,1,6888,,120.832599,30.813648,七星大道,890046
汇众佳苑,3,10229,0.164371,120.837585,30.817399,七星路,782040
鑫控吴越学府,96,10936,0.027940,120.825326,30.735292,由拳路,989586
万达华府,36,13031,-0.041185,120.839077,32.041499,江海大道336号,917824
上置香岛庄园,8,8852,-0.183534,120.822815,30.815683,灵湖路,889966
荣盛观湖景园(别墅),3,9534,-0.022755,120.833774,30.822853,兴民路,991786
江景国际,1,8660,0.048517,120.832675,32.019831,人民西路，近长江中路,917230
信达格兰上郡,11,13254,-0.004880,120.823948,30.730240,亚欧路，近三环东路,927334
天欣花苑,8,7622,0.110504,120.820319,30.900832,兴贤东路,799974
大树绿苑(南区),1,10035,-0.022406,120.836255,30.822079,潭星路147号,889746
九城嘉佳家,35,9318,-0.000215,120.822169,30.746977,亚欧路,794314
湘湖苑,1,5555,-0.388081,120.827612,30.817421,兴星路569号,890045
绿景名邸,1,10000,-0.058824,120.827014,30.749708,凌公塘路3082号,927350
永和佳苑,1,10625,0.062500,120.828014,32.046512,永杨路,917835
华章御树湾,3,10953,-0.000787,120.829547,30.747963,智慧路,889829
紫金豪庄(别墅),4,9997,0.002017,120.821930,30.709518,民丰路,515443
梅湘园,1,7623,-0.213855,120.830407,30.803162,灵湖东路857号,1024165
七星花园,21,8501,0.146477,120.829406,30.816761,兴星路,889948
湘湘恬园,161,10159,0.006202,120.834385,30.820291,兴民路,952906
尚品公馆,35,8493,-0.038189,120.838711,30.578030,大洋东路8号,793572
绿地新都会,14,19522,0.365418,120.826719,30.745029,亚美路,889919
佳源英伦都市,271,9277,0.013921,120.821434,30.746947,新风路,939499
御上江南瑞园,2,11807,0.000085,120.825732,30.738053,亚欧路656号,890098
东方悦宫,157,10437,-0.011273,120.824780,30.686004,余北大街，近东余线,952903
嘉兴总部商务花园,95,7091,0.067694,120.824534,30.745164,广益路,889867
黎明苑,4,7071,-0.155298,120.821126,30.715118,东余线,889903
公园佳苑,2,13563,0.160918,120.828103,32.071462,新华路,917753
湘都公寓松音坊,3,7704,0.017482,120.827646,30.761838,三环东路,890043
广益大厦,182,9956,-0.004761,120.824420,30.745707,亚欧路465号,912651
宏润花园,18,13870,0.126299,120.821682,30.741504,亚欧路,889818
江南新家园,131,6499,-0.034823,120.826554,30.824094,湘家荡大道,889873
上置香岛澜湾,2,13275,-0.009861,120.827978,30.812676,灵湖路1号,801631
碧水云天,57,11558,-0.024312,120.834656,31.024821,新友路,941272
湘湖长岛御墅,15,10481,-0.010444,120.832104,30.815603,七星路770号,799068
福馨花园,1,4666,-0.329887,120.834205,30.853035,育才路,941365
荣盛观湖景园,54,7951,0.002443,120.833662,30.823423,兴民路,991787
民欣花苑,3,6939,-0.084685,120.859115,30.538669,招宝路，近学才路,890512
黎明花园,1,14152,0.247466,120.854221,32.027543,孩儿巷北路52号,917312
鑫隆公寓,1,9427,0.210918,120.844985,30.914309,洪兴路,890426
明珠花苑,3,19428,0.278410,120.856803,31.030501,临沪东路259号,887165
梅花园,1,9230,0.162469,120.857345,31.121805,梅花弄8号,883864
百合苑,80,7666,0.140151,120.859037,31.377600,君子亭路140号,883284
紫金花园,2,8432,0.247374,120.859477,30.536435,招宝路300号,940420
中山花园小区,46,6681,0.161012,120.851010,31.030375,芦莘大道471号,887179
周庄CBH,7,16000,-0.138210,120.855411,31.120732,富贵路,884490
阳光花园,2,39244,-0.044484,120.840395,31.639055,银河路818号,885206
康桥小区,1,7283,,120.855166,31.467320,湖滨北路,883761
百花南苑,1,16875,0.270899,120.859647,32.029704,濠北路,917363
幸福家苑,1,8211,-0.014551,120.846943,32.075835,新华路,917783
瑾润九仰周庄,4,14285,,120.853942,31.124636,全福路,883724
天香花苑,5,10602,0.020306,120.857107,30.751663,天明路478号,889996
阳澄苏园,1,14333,0.068192,120.857441,31.471291,学院路,884246
中港城世家一期,10,9523,0.030182,120.853199,32.047048,濠西路,917856
水乡景苑,65,6593,0.008258,120.848822,30.913576,洪兴路,890456
荷塘月色,5,15812,0.121436,120.856622,31.467931,湖滨北路163号,883537
东景园,1,8183,-0.043843,120.859334,30.755781,零七省道,889757
杨林小区,1,8372,0.024599,120.859634,31.455630,巴城湖滨路,884259
湖墅帕提欧,1,13235,-0.009356,120.853711,31.401495,湖滨南路288号,883565
嘉乐城,7,11272,0.024516,120.858299,31.040458,城司路， 近洋砂路,627853
凝欣花苑,7,6000,-0.063534,120.843494,30.914691,西周路8号,404633
阳光花园,1,10707,0.228853,120.852626,32.029139,孩儿巷北路69号,917343
华府庄园,1,12465,,120.859970,31.393648,马鞍山路1999号,883595
景华城,1,15238,,120.845748,32.017635,任港路50号,917310
绿苑小区,5,6060,-0.341734,120.847173,32.021715,人民西路191号,917359
怡居苑,2,14197,0.000987,120.850325,32.055453,永怡路,917831
绿城玫瑰园(别墅),82,74699,0.011436,120.853176,31.440633,湖滨路3888号,884626
湖畔首府,399,9309,0.002814,120.853830,30.536653,滨河路，近南王线,1010375
爱渡小镇,6,11454,0.006061,120.851655,31.128203,爱渡路,884691
南龙房开,7,6551,0.051308,120.849630,30.898276,兴洪路,378211
旺家园,1,10115,0.140403,120.845425,30.913203,洪兴路205号,650752
兰花园,1,14154,,120.857140,31.123472,全功路202号,884684
绿城玫瑰园(昆山市),4,19517,0.023949,120.850477,31.442726,湖滨路3888号,883839
幸福锦园,1,7477,0.068143,120.855657,32.091586,福利路，近福达路,917774
桃花园,4,11555,-0.020763,120.852695,31.122609,全功路274号,884085
新城香溢紫郡,16,9175,0.032738,120.849325,32.073347,通宁大道，近永兴大道,917762
平湖塘花苑,99,8264,-0.023801,120.856508,30.747226,天宁路,889946
瑞丰花园,1,10819,-0.009249,120.851279,32.028132,食品路,917319
水韵花苑,93,8365,-0.053476,120.859871,31.131918,云亭路,884065
金玉满唐,2,17002,0.027932,120.856845,31.552025,中环路,884939
高林水乡花园,2,11569,0.219280,120.866597,31.121919,东坨路2号,883485
天润尚院,80,14276,-0.012784,120.874324,31.126558,周商公路1号,884102
周庄万盛园,3,10887,-0.079069,120.865228,31.115954,全福路138号,884388
万科金域蓝湾,18,21508,0.290779,120.869286,32.055436,永怡路558号,917827
云谷周庄,6,10695,-0.014784,120.869422,31.153519,大桥路,884337
友谊家园,5,28268,0.038252,120.879683,32.036663,濠东路228号,917398
锦江苑,3,10679,-0.375176,120.865595,32.034008,钟秀中路,917386
金科东方水榭,2,13935,-0.060414,120.873321,31.262356,柯福路1号,888198
天邻湖景,5,15840,-0.011159,120.878957,31.239350,甫澄南路18号,888177
明丰环湖花园(别墅),2,15454,0.015375,120.864245,31.042316,城司路666号,417641
阳澄尚东,5,8494,-0.027393,120.871098,31.376688,君子亭东路,884245
水月周庄(别墅),65,15571,0.091155,120.865385,31.130888,全旺路88号,884641
碧桂园湖悦天境花园,546,17642,-0.000227,120.863794,31.037428,清河路,941269
彩虹岛花苑(别墅),2,9607,-0.141619,120.869267,31.060598,彩虹路2号,887332
江海名苑,2,28987,0.272610,120.875340,32.021335,环城东路,917456
苏州盛邦,1,9100,-0.344947,120.867883,31.377702,君子亭东路,884078
万科爱情公寓,1,10267,0.022990,120.867306,32.057179,北大街108号,917825
银杏苑(北区),10,6419,-0.090020,120.860939,31.377949,君子亭路，近下塘街,946579
假日半岛(别墅),7,10582,0.003509,120.868355,31.121194,全功路,883660
景丽茗苑,3,7157,-0.142359,120.861300,30.540342,招宝路,890511
金桥名苑,4,9971,0.040623,120.863346,30.746797,广益路,889879
桃源东湾,4,8484,0.158542,120.861509,30.671209,凤篂路548号,889985
富泽苑,2,7295,0.009810,120.873466,31.378483,君子亭东路,883480
平湖瑞园,1,15053,-0.037163,120.860762,31.246098,湖滨路188号,888167
印象欧洲,3,15000,-0.119977,120.868466,31.338978,晨丰路,884285
春晓苑,11,10000,0.031460,120.870895,31.713460,寺泾路,884784
华府壹区东区,2,9143,-0.068188,120.863157,31.035663,重庆路1号,611100
甘泉苑,1,12700,0.325678,120.879226,31.460406,古城北路,883481
月亮湾,66,10714,-0.045778,120.874323,31.055519,康力大道588号,792708
万科未来之城,70,14970,-0.001992,120.869609,31.339062,晨丰路288号,1032529
太阳湖大花园,75,16783,-0.035971,120.875842,31.086002,张园东路88号,13044
湖滨雅园,1,13079,-0.159415,120.864851,31.032742,浦港路568号,431043
南通大厦,2,15000,0.031140,120.873073,32.023991,人民中路28号,917470
碧桂园凤凰岛,14,11464,-0.126191,120.873310,31.246014,湖滨路68号,888124
天明花苑(A区),4,6785,-0.167689,120.860462,30.751974,夏云路,889992
凤南新村,30,7164,-0.059472,120.866883,30.659701,凤南路,889782
南湖秋月,1,12500,0.115573,120.862609,31.116187,富贵路2号,884576
光明新村,5,9967,0.021837,120.867345,32.006905,虹桥路,917281
大众湖滨雅园,11,13679,-0.029530,120.864543,31.032656,浦港南路568号,887144
云谷周庄(别墅),2,9180,-0.131340,120.868652,31.154685,大桥路1688号,884338
棕榈苑,1,15643,-0.149421,120.866178,30.749996,天宁路,890143
水月周庄,157,12670,0.023042,120.866824,31.131208,全旺路88号,884064
梦想家园,5,12121,,120.866038,31.034196,浦港路，近江苏路,887250
碧桂园十里江南,278,15842,0.012834,120.874211,31.094671,张园东路1450号,887140
桃源林语,21,8846,-0.007364,120.865377,30.670500,大桥路,628030
绿城春风十里,546,13033,0.062541,120.866473,30.670492,大桥路,795305
锦绣佳苑,246,11397,0.003676,120.860563,30.539723,招宝路,1010372
弘阳甪源,4,19258,0.061412,120.872363,31.284931,甪直大道，近甫澄北路,1005434
桂花园,3,9608,0.372696,120.860419,31.122488,全功路,883500
湖滨花园,2,9886,0.025732,120.874861,31.392966,马鞍山西路,883562
滨江花园,1,11230,0.379792,120.890592,31.967383,紫琅南路18号,917622
荷塘月色景苑,129,10143,-0.000837,120.887327,30.950897,西汉大道,605852
天安花园,3,15813,0.007968,120.888837,31.993214,洪江路88号,917239
南方大厦,22,8108,0.039834,120.885968,32.038840,工农路108号,917388
神州通城西印象,1,11200,0.053523,120.888915,31.438529,景新路,884516
品院,1,13160,0.012356,120.883641,31.397125,古城路728号,883924
鑫达风和日丽,2,8139,-0.144524,120.893396,31.274964,震阳路231号,883442
新城翡翠湾,2,15076,0.057075,120.885875,31.392568,古城路668号,884185
绿城玉兰公寓,1,41527,0.387032,120.891288,31.983169,世纪大道99号,917604
小城春秋,168,11199,0.079734,120.881798,30.766100,嘉善大道113号,890047
天龙逸园,1,18055,0.093182,120.896310,32.023058,龙王桥东路,917500
东赵家巷小区,1,16008,0.369887,120.882761,32.027575,东赵家巷,917430
莱茵河畔,13,14974,-0.003577,120.897185,31.990235,沿河路1号,917233
望江新村,77,8499,0.203842,120.891890,31.278860,震阳路126号,884130
西塘新天地,30,14502,0.044190,120.887624,30.942249,南苑路,623405
江海佳苑,1,8682,-0.305884,120.890199,32.053118,外环北路,917804
东方雅苑,1,8888,0.066219,120.889190,32.026003,工农路附87号,917428
天都花苑(南区),1,11956,,120.897858,31.991688,沿河路，近工农南路,917240
金龙花苑,13,19501,0.362468,120.891081,32.025286,板桥路,917460
天地华庭,1,10454,-0.049636,120.884115,32.009253,青年东路24号,917564
碧水佳园,15,9735,0.036463,120.889240,31.449526,祖冲之路,883323
天馨花苑,2,38064,-0.013528,120.885658,32.024213,平安路,917504
海佳名邸,74,9089,-0.005199,120.896546,31.387934,前进西路,883509
南通东苑小区,3,16477,,120.884491,32.025843,人民东路,917471
柏林春天,2,11858,-0.385971,120.889581,31.388351,前进西路,883288
山水壹号,3,17047,0.074288,120.918850,31.941103,常青路9号,917648
汇丰家园,3,10714,-0.132259,120.910586,30.820948,白水塘路,890366
东鼎名人府邸,997,11761,-0.002290,120.912548,30.887146,善西公路,780044
御景湾,11,12389,0.065774,120.917205,30.830329,体育南路,890440
银河景苑,7,8331,-0.006544,120.919002,30.844099,体育南路298号,890432
紫桂花园,8,7639,-0.059407,120.903396,30.890058,叶新路61号,890447
书香门邸,2,15401,0.038573,120.905626,30.827555,阳光西路,648227
龙鼎瑞园,2,8880,-0.084630,120.918292,30.835371,人民大道,890396
恒隆商业广场,1,8920,-0.025137,120.908700,30.946854,祥符路，近南苑路,941373
物美大厦,6,8189,0.149691,120.918569,30.841091,晋阳西路558号,941374
长寿路101号小区,8,7322,0.241880,120.907710,31.180791,长寿路101号,946560
龙辰院子,1,17355,0.245783,120.900699,31.393911,马鞍山路，近通澄路,884502
白云花苑,3,10532,-0.105064,120.915306,30.819703,白水塘路,890337
御溪雅苑,7,18425,0.080809,120.919095,31.177596,环湖北路168号,884467
金色森林,1,18000,0.285714,120.903634,31.398192,马鞍山路,883703
临江景苑,5,11913,0.000210,120.916631,30.821231,体育南路1558号,890393
和风雅颂(别墅),1,14741,,120.915230,31.408047,博士路99,884562
南通壹城九间堂山居,1,15277,,120.916429,31.950402,工农南路18号,917625
观湖壹号,1,15055,,120.910478,31.410700,萧林西路,883495
畅园,1,14652,-0.303546,120.917541,30.849823,丝绸路80号,890342
禾众商业广场,19,8958,-0.104469,120.901916,30.835526,城西大道,890453
海韵江南,4,7481,-0.285559,120.918111,30.517462,环城南路，近楞港路,1010355
嘉怡花苑(西区),1,9302,-0.267386,120.914617,30.851433,环北西路,890374
水乡学府,4,7455,-0.061642,120.901101,30.897172,镇北路,890457
时代悦府,20,15703,0.003836,120.912402,31.384236,体育场路,884465
海盐碧桂园,1272,10038,0.001097,120.917234,30.522669,出海路1000号,890516
倚林佳园,4,10785,-0.003879,120.919873,31.179927,锦虬路,884270
亚福江南春晓,21,9212,0.043687,120.902329,30.890640,窑兴路,635024
金大元御珑宫廷,17,59633,-0.032340,120.919393,31.415422,博雅路，近萧林西路,884483
绿地新都会,4,28111,0.182078,120.915186,32.027745,人民路718号,917583
水榭蓝湾,61,10338,0.082879,120.919513,31.181217,长寿东路,884061
百合春天,31,11460,0.038194,120.903200,30.827770,阳光西路1283号,611837
四季江南,11,10344,0.010156,120.918684,30.822539,体育南路1583号,798193
北大金城,135,9995,-0.012242,120.919038,30.861928,体育北路533号,439978
锦和苑(西区),1,12614,-0.008284,120.912115,30.832483,子胥路600号,890385
兰亭御园,41,14166,-0.011030,120.914852,31.413793,林荫路777号,884469
水晶湖畔,13,13077,-0.037154,120.906704,31.091494,张元东路2号,465974
润家广场,205,10234,-0.032759,120.916018,30.518114,联翔路,1010373
塞纳蓝湾,237,11932,-0.015460,120.905387,30.823632,世纪大道,652309
顺城锦湖湾,16,7945,-0.174111,120.915482,31.177596,长寿路,884066
江南印象,167,11706,-0.038491,120.910211,30.946785,南苑路288号,610553
清风华院(别墅),4,26470,0.085949,120.902968,31.403944,登云路88号,884636
太平新村,1,8314,0.133779,120.903593,31.182737,长寿路,884425
锦和苑(东区),3,11470,0.028146,120.914033,30.832479,子胥路601号,890386
孔雀城澜院,30,13660,0.053687,120.915852,30.814112,白马线,890455
金都上品,12,10294,-0.009144,120.922407,30.822638,亭桥南路,890384
罗星公寓,4,10777,-0.131447,120.938936,30.843486,罗星路,890399
金都花园,3,9183,-0.016494,120.931000,30.848748,解放东路,890383
纳帕溪醍,21,22614,-0.017359,120.931842,31.149217,锦商路66号,884551
银城苑,3,8000,-0.081305,120.939615,30.866151,金嘉大道3号,890430
世纪公寓,1,10714,0.265234,120.925543,30.848272,桥南路,890413
硕士花园,1,5250,-0.285714,120.920613,30.848041,魏塘体育路,890416
泰和家苑,1,11911,-0.343204,120.928205,31.388207,前进西路,884701
丰泽湾,8,17161,0.092083,120.934548,31.148236,锦商路,883439
金桥公寓,1,6500,-0.127048,120.935705,31.931497,金桥路8号,917679
商盛秋居(北区),6,8529,0.046375,120.937387,30.864499,谈公北路,890409
格林春天,44,12408,0.038650,120.928175,30.852383,车站北路118号,890362
楠林水岸,239,11347,-0.040867,120.931882,31.073242,沪青平公路8499弄,8562
清水湾,1,10286,-0.235857,120.928591,31.406339,花园路2813号,883968
凤凰花苑,13,7153,-0.036988,120.929017,30.624229,嘉盐路,614808
永福花园,7,9176,0.001309,120.922842,30.841239,晋阳西路,890437
常和景苑,1,5714,-0.055808,120.924752,30.521733,曲秀路,890463
鑫河湾,9,20954,0.016592,120.926215,31.181492,长寿东路,884210
花园新村,1,10576,-0.078906,120.921496,30.766786,白马线,889825
商榻老街小区,83,8365,-0.111431,120.934063,31.127372,商榻北路278号,652550
长泰花园,37,11598,-0.050305,120.936223,31.744674,扬子江大道7号,885251
森隆满园,2,11264,0.052219,120.935652,31.293709,京东路,883993
景辰家园,15,9579,-0.001160,120.931292,30.823742,嘉善大道,890388
乔克国贸中心,89,12166,-0.047185,120.932108,30.826874,嘉善大道518号,941368
景河苑,36,12784,-0.392944,120.921531,32.022648,国胜路,917581
淀滨宝岛别墅,23,16231,0.002966,120.930578,31.118617,宝银路175号,817491
商华新村,14,10869,-0.155065,120.929428,31.122566,商榻商周路28弄,559269
紫元尚郡,2,8111,,120.930685,30.517074,出海路218号,1010369
龙柏花苑,21,20987,0.089530,120.933623,30.843572,谈公南路,890395
首创青旅岛尚,14,12280,-0.030799,120.921143,31.162634,同周公路，近溪锦商公路,884049
舜江碧水豪园(南区),1,10227,,120.936694,31.292733,京东路688号,884068
明珠小区,31,6367,-0.235609,120.923277,30.827242,亭桥南路,890401
银泰花园,5,6832,-0.019096,120.939321,30.864744,谈公北路777号,890434
开元广场,6,11951,-0.068400,120.922324,30.834429,人民大道1023号,941372
金溪五村,20,14007,-0.081913,120.931755,31.040830,培育路125弄,818155
嘉华春晓,69,11809,-0.002723,120.939936,30.824398,农商路163号,890369
江南乐章,1,11819,0.057913,120.922791,30.838540,亭桥南路438号,890377
新城海上风华,91,11568,0.049701,120.926520,30.827400,世纪大道，近车站南路,952781
解放三村,1,10870,0.153683,120.936887,30.847888,谈公南路,890379
新景花园,16,6622,-0.074235,120.936771,32.280264,解放路,918254
优山美地花园(别墅),3,17500,-0.000057,120.921942,31.944042,星湖大道1888号,917667
置地公馆,46,7041,-0.015881,120.934595,30.830520,阳光路，近嘉善大道,890459
商盛秋居(南区),1,8823,,120.936098,30.863089,谈公北路,890410
中南世纪花城一期,3,14508,0.118122,120.927071,31.986506,世纪大道，近盘香路,917615
天地华城,28,15873,0.014670,120.924757,31.388292,前进西路1188号,884094
双龙景苑,209,6735,0.059648,120.926607,30.707550,平林路,889977
润土嘉和,79,7294,-0.260979,120.927525,30.853665,环北西路115号,790520
顺城名湾,54,8387,-0.028720,120.939273,31.280946,翰林路,884067
金华新村,42,22738,0.182080,120.931841,31.120776,宝银路21弄,818553
浒东新村,2,14285,0.398571,120.924579,31.754151,浒东路,884874
东方名嘉(西区),5,11190,0.016903,120.934785,30.837153,嘉善大道,890352
万联城,160,10549,0.004714,120.933918,30.824594,嘉善大道688号,890458
张浦裕花园,42,11133,0.071032,120.935724,31.284597,锦上路,884348
景辰大厦,7,11206,0.043486,120.931777,30.824494,嘉善大道666号,941369
一泓蓝溪湖墅,2,9521,0.019816,120.924316,31.174326,五保湖东路599号,884261
优山美地花园,4,18069,0.033902,120.922271,31.945773,星湖大道1888号,917661
丰泽湾花园别墅,51,17190,0.000968,120.938791,31.127482,锦商公路4781弄,8732
昆城博奥苑,1,11666,0.001116,120.935677,31.376833,江浦路,883768
银河新都,24,20000,0.174674,120.939134,31.285124,银河路,884277
亭桥公寓,1,8993,0.045819,120.925671,30.847044,顾家埭路,890419
常绿景苑,5,9502,0.039020,120.924286,30.515735,河南西路298号,890465
日月星辰,14,40309,-0.009861,120.932076,30.850654,解放东路76号,890406
解放一村,1,10500,-0.286588,120.934533,30.849764,斜家桥路,890381
万联花园,323,12554,0.009448,120.928326,30.824385,世纪大道,890421
滨湖绿洲,15,10941,-0.011452,120.926045,30.819710,白水塘路,890340
盈湖花园,146,7999,-0.045421,120.939845,30.828816,农商路333号,890435
雪松里,3,6760,-0.013210,120.935423,30.844455,谈公南路,890428
华鼎贝沙港湾,2,6444,-0.035474,120.924662,30.515678,曲秀路303号,890482
金汇智博广场,1,10857,0.234171,120.934809,30.514062,百尺南路,890510
碧悦湾,59,8444,-0.049071,120.939673,31.300015,振新西路999号,883324
富民新村,1,9174,0.010798,120.937565,31.926210,厦门路,917707
东方名邸,13,7986,0.020671,120.935080,30.855117,谈公北路274号,890351
东方名嘉(东区),5,13979,0.110061,120.939419,30.839014,晋阳东路,890353
中大未来城,3,18518,-0.097343,120.921576,31.388959,共青路,884364
庆盛名邸,3,9480,-0.044690,120.921675,30.516465,曲秀路311号,1010361
滨江花苑,13,8306,-0.088641,120.923927,30.846426,中山西路228号,890341
金汇智博,1,8958,0.114257,120.934809,30.514000,百尺南路，近环城南路,890509
金域蓝湾,4,10486,0.010978,120.933610,30.515432,百尺南路,890486
世博帝宝花园,10,13483,-0.024244,120.934077,30.828770,嘉善大道,730498
嘉河花苑,3,10000,0.021033,120.925936,30.844046,亭桥南路,890368
嘉园城市心境,4,9615,0.116206,120.927113,30.838843,车站南路576号,890375
金水湾花园,21,7203,0.038794,120.933238,32.357631,交通东路7号,918264
桃园新村,62,10800,0.006336,120.933209,31.046193,培育路268弄,820209
明鑫凯迪城,3,15118,0.059172,120.939931,31.385595,虹桥路118号,883753
世博名邸,6,10706,0.021843,120.934770,30.833378,嘉善大道,890412
铂金广场,50,9000,0.294964,120.933081,30.821509,环城南路，近嘉善大道,941378
瑞香花园,5,11282,-0.004324,120.928218,30.854368,瑞香路16-18号,890407
快乐颂,1,23724,0.009269,120.931352,31.405573,园路2115号,883766
馨逸家园,68,11666,-0.000086,120.928929,31.285143,江浦南路,884207
淀山湖别墅,103,25000,,120.924067,31.071855,金商公路1348弄,877245
富康花苑,2,15239,-0.385633,120.935130,30.836051,人民大道758号,890361
金溪三村,37,11898,-0.058494,120.930354,31.042053,金溪三村,818152
恒利国贸广场,1,6865,,120.926560,30.846064,中山西路118号,941375
嘉景公寓,1,8535,0.066209,120.935733,30.840254,晋阳东路179号,890370
金桂苑,1,10194,0.369057,120.926127,30.709447,广场路403号,889877
上海威尼斯花园,94,17014,-0.012292,120.927180,31.072862,沪青平公路8600号,8734
万丰苑小区,3,9302,0.011128,120.922097,31.369583,中华园西路,884127
风景英伦,4,14081,-0.107272,120.924809,31.410669,萧林中路,883443
嘉都名苑,6,11184,0.005213,120.922116,30.850030,花园路55号,798192
中信花园,3,9782,0.141216,120.930827,30.852600,车站北路,798066
海图公寓,38,11818,0.143246,120.931694,31.119237,宝银路139弄,8603
上城春天里,2,8947,,120.922953,30.518983,曲秀路336号,1010362
东方润园,68,15555,0.076396,120.928365,30.707788,平林路928号,889755
清水湾(别墅),1,18458,-0.038376,120.928420,31.404910,花园路2813号,884637
香榭水岸,1,13333,,120.939986,31.388613,马鞍山中路,884161
天居华庭,21,14428,-0.009176,120.921105,31.385571,前进西路,884098
星宇花园,1,8203,-0.088500,120.925386,31.954198,源兴路567号,917658
枫丹御园,31,12033,-0.003437,120.928903,31.177136,环湖北路118号,883444
御翠花苑,15,8522,-0.079106,120.926549,30.705304,平林路969-971号,500443
嘉善置地广场,350,7715,-0.039077,120.932625,30.840969,嘉善大道399号,890454
湖光里小区,14,13617,0.164564,120.958835,31.250298,天盛路68号,883563
苏家浜小区,1,11312,-0.075625,120.948513,30.828372,阳光东路458号,890417
合景天峻,472,11460,-0.002177,120.943759,30.547666,百尺北路，近华丰路,1018747
古荡佳苑,165,8420,0.006394,120.945976,30.544962,华丰路,890472
胜利小区,2,8357,0.044687,120.954477,31.427110,杜桥路1号,884022
金都花园,5,9278,0.004017,120.959240,31.411565,北门路,883689
红峰新村,1,18933,-0.038376,120.957089,31.391170,红峰东路,883548
翡翠公馆,855,12514,0.013546,120.944333,30.875380,申友路1号,908960
太阳岛高尔夫别墅,2,32272,0.397843,120.950027,31.257293,碧云路195号,884080
友谊苑,2,13647,-0.119037,120.955710,31.471907,陆苑路,884299
嘉辰花苑,59,10433,-0.002665,120.947039,30.855605,施家北路,798191
昆山国际模具城,8,8488,-0.103669,120.952842,31.462115,北门路，近玉杨路,946552
M旭辉城,188,16727,-0.011808,120.959234,30.913100,姚庄大道，近兴学路,1023389
双洋湖水秀庭院,19,12975,0.259611,120.958657,31.250267,天盛路68号,884054
万通城,1,8333,,120.943991,32.026681,太平路,917589
金汇奥园,5,8507,-0.144593,120.958877,30.536952,新桥北路,890517
润江花园,39,17101,0.368747,120.951643,30.787413,云寺西路139号,890408
文曲佳苑,1,7197,-0.064288,120.945597,30.536485,海丰西路208号,890494
富新园,1,5365,-0.063863,120.943500,31.922248,振兴路91号,917675
嘉善博文府邸,23,11615,-0.013546,120.945316,30.844108,环城东路288号,941376
景瑞望府,4,9935,0.082153,120.952369,31.932467,惠泽路18号,917681
大公小区,1,8815,-0.094225,120.946090,31.365873,中华园路,883375
城市花园,1,6488,-0.077158,120.944815,30.521849,朝阳西路151号,1010352
象屿两岸贸易中心,3,15219,-0.078157,120.954026,31.363366,创业路，近珑庭路,926374
景秀苑,2,9458,0.066291,120.950314,31.413388,水秀路,883735
象屿珑庭,13,13611,0.025697,120.955043,31.364766,中华园路1555号,884168
南塘琴园,1,7647,-0.247194,120.943930,30.519677,朝阳西路94号,890488
银鹿新城,1,9333,-0.106769,120.946831,31.287476,机场路,884280
亭林山庄,1,19905,0.080384,120.952031,31.391434,马鞍山东路189号,884109
虹桥花园,1,10674,-0.025739,120.945204,31.391721,马鞍山路231号,883556
金汇奥园,12,10212,0.056268,120.958892,30.536915,海丰路，近新桥北路,890508
大众湖滨花园东区(别墅),13,16037,-0.024586,120.958678,30.826827,之江路,890347
阳光家园,2,10000,,120.940306,30.523809,百尺北路3号,890513
小城春秋,66,12128,0.043290,120.955794,30.831816,福泉山路，近之江路,941364
四海家园,4,7051,-0.083929,120.949359,31.935878,复兴路,917688
金洲海尚,312,11126,-0.014471,120.941722,30.548217,百尺北路，近华丰路,1010358
名城花园,67,8447,0.152562,120.951388,31.281697,商秧路,883883
北城新境,2,10847,0.015922,120.955218,31.454996,迎宾中路,883307
象屿珑庭(二期),22,13366,0.054067,120.955062,31.364081,珑庭路,989806
盛巷小区,1,8529,-0.027923,120.947111,31.303579,港浦中路,884032
水韵金城,9,8963,-0.094555,120.940995,30.882028,木业大道643号,556488
中山新村,1,11444,-0.109614,120.956975,31.384319,中山北路,884379
水木晶华,10,10000,,120.956033,30.839593,晋阳东路859号,890414
锦楠苑,8,8266,-0.069779,120.959580,30.788573,云寺西路,795254
盐平春晓苑西区,1,12385,0.316713,120.958854,30.539644,海丰东路，近新桥北路,1010367
滨海未来城(人才小区),53,8483,-0.004343,120.952811,30.547694,华丰路，近长安路,941363
上海星城花苑,37,8477,-0.194867,120.943267,31.290604,新吴街288号,884004
金洲阳光,21,8426,-0.012655,120.945645,30.546548,华丰路，近百尺北路,1010359
尚城国际花园,3,24919,0.074883,120.954838,31.429482,北门路1388号,884008
富康花园,1,12112,,120.953962,31.418400,环庆路,883472
象屿珑公馆,52,12837,-0.014679,120.954893,31.362353,九华山路,884167
郁金香花苑,1,70312,0.347799,120.946490,31.402094,花园路1555号,884318
鹏轩,98,8467,0.156323,120.955459,31.355770,小渡河路,883923
开心公寓,3,9758,-0.061731,120.954895,31.354361,熊庄路,883751
新公馆花园,2,12666,,120.951783,31.384555,震川西路,884196
大运府邸,53,11413,-0.038993,120.957746,30.787590,云寺东路,890346
中都华庭,1,13033,0.215992,120.956360,30.785029,康兴西路，近云溪北路,952782
淀山湖上海岛庄园,23,23038,0.064111,120.945960,31.155139,锦商公路,883395
桃花源,33,17879,-0.202526,120.957789,31.401073,娄苑路818号,884086
金科集美嘉悦,15,13996,-0.176654,120.959629,30.914493,兴学路，近姚庄大道,1040369
玉虹新村,1,12647,-0.138370,120.959071,31.381266,朝阳路,884308
嘉兴苑,28,12195,0.038668,120.958786,31.425531,北门路1209号,883651
昆城景苑,69,15711,0.047688,120.959798,31.372163,衡山路1500号,883770
凤凰名邸,12,10034,0.055015,120.951314,30.586988,盐佳路,1010371
东方润园,25,14285,0.036046,120.945037,30.824936,世纪大道,619539
桃源新村,2,10625,-0.012638,120.959706,31.385348,中山路,884090
仁宝新天地,85,9057,-0.009229,120.957675,31.369061,衡山路1399号,883979
泰和苑,1,14044,0.201780,120.956330,31.379331,朝阳支路63号,884082
春晓苑,14,10194,0.019055,120.957695,30.824000,之江路,635121
巴比伦国际广场,44,15095,0.080188,120.958761,31.367202,人民南路998号,883275
东方曼哈顿,1,29849,0.349319,120.948037,31.386979,白马泾路,884417
月亮湾,20,11573,-0.067996,120.958779,31.236010,淞沪中路171号,884452
长顺滨江皇冠,2,15000,,120.941361,31.385930,前进西路,884352
永丰大厦,1,7906,-0.154348,120.952061,31.410151,萧林路1043号,946523
嘉德花苑,1,10526,0.004198,120.949191,30.873575,汾湖路150号,890367
绿城花苑,1,8988,0.367072,120.947103,30.523231,勤俭北路250-6号,890487
世茂新界,15,8659,-0.230233,120.956452,31.925999,新河东路,917686
中达美林(三期),2,13258,0.015316,120.958934,30.552420,丰潭路,796261
名都花园,1,7764,-0.234093,120.950298,31.409604,水秀路643号,883884
桃园小区,2,11470,0.036508,120.949667,31.236482,桃园路，近洛阳西路,884512
胜利新村,4,15050,0.356734,120.953235,31.426650,北门路,884023
沁园,6,31666,-0.003211,120.951045,31.417066,水秀路1209号,884553
风泽泗洲,3,10000,0.009591,120.948145,30.838499,晋阳东路589号,890360
南通碧桂园,21,9720,-0.010183,120.958542,31.948101,新开北路,917708
保利壹品,3,7250,-0.089768,120.944935,30.535052,海丰西路283号,1010350
巴比伦国际广场(商住楼),18,15384,0.025463,120.959108,31.366679,人民南路998号,946585
金涌花园,1,11797,0.166634,120.946365,30.524914,文昌西路,890485
明珠花园,2,7051,-0.059867,120.948701,31.924050,上海路,917682
丁香花园,10,9141,0.042508,120.941928,30.858361,施家北路378号,941370
常发香城名园,95,11158,0.006721,120.957181,31.367486,中华园路1558号,883344
赵厍花园,5,15517,,120.940230,31.380273,明星路,884355
水云庄园,1,9508,-0.005023,120.951710,30.546043,长安北路488号,890491
北门新村,1,22222,-0.057471,120.957802,31.404604,北门路,883313
万科海上传奇,296,16846,-0.014025,120.967917,31.187395,周同公路，近锦东路,993646
中港白金大厦,408,10000,,120.963976,31.933455,长虹路6号,995630
东方新村,42,11421,-0.004120,120.968231,31.378809,朝阳西路,883411
菁英汇,1,14864,-0.000135,120.972942,31.354978,创业路588号,883728
西苑新村,10,16993,0.087785,120.976821,31.385175,珠江路,884145
世茂蝶湖湾(二期),89,8350,-0.018340,120.973599,31.345364,新南中路288号,989818
锦绣佳苑,5,10989,-0.000955,120.970562,30.917252,洪福路，近锦绣大道,1040368
海盐金色江湾,673,11941,0.011456,120.961207,30.546897,新桥北路,1010370
柏庐天下,86,8739,-0.000815,120.962613,31.356300,普陀山路,883292
万豪佳园,4,8739,0.080598,120.973252,31.613411,支塘集贤路,794389
上城艺墅,1,12921,0.230571,120.965314,30.523639,盐平塘东路，近闻琴路,1010364
江南新村,1,15555,-0.194959,120.970817,31.386385,柏庐中路278号,883676
皓康小时代,2,11142,-0.002082,120.961811,31.436819,昆北路,883522
嘉汇城市广场,175,11150,0.156104,120.963072,30.841260,惠民大道,801496
春漪园,4,10000,-0.001199,120.976175,31.374464,珠江南路,883369
中景名苑,1,8957,0.049350,120.978218,30.840654,惠民大道359,890452
盛世钱塘,5,9230,0.003697,120.966085,30.544082,城东路,890489
汇景公寓,4,13186,0.014230,120.969399,31.366054,衡山路,883624
四季华城,119,14273,0.267741,120.964945,31.364694,中华园路836号,884071
中华园,90,8682,-0.002900,120.975454,31.360056,衡山路,884370
紫竹品苑,1,9894,-0.038376,120.965412,31.438315,城北路,884404
柏盛园,4,12307,-0.004530,120.971707,31.370873,柏庐南路,883294
长泰淀湖观园,78,15916,0.068331,120.973982,31.172827,锦耀路333号,998762
东方经典花苑,3,6687,-0.020665,120.965034,30.913943,汇源路,594604
淀滨新村,57,12812,-0.006956,120.973268,31.071199,岑中路96弄,652346
昆山柏盛园,4,11973,-0.000553,120.971974,31.371522,柏庐路,883773
新城域,117,8901,0.020843,120.970059,31.339016,长江南路88号,884191
祥生悦澜湾,863,12189,-0.007734,120.966466,30.536712,城东路,994851
万和家园,7,13847,0.070360,120.966441,31.912501,广贤路,917725
万科初见,44,10533,0.070612,120.970358,31.467624,长江北路999号,884428
康怡园,27,11961,0.127569,120.977213,31.377236,朝阳中路465号,883762
京浦花园,1,8376,0.394436,120.965499,30.547853,城东路2066号,952148
新城金樾,538,10111,0.008679,120.979782,30.681138,九场公路，近S202,1023925
跃进新村,4,14285,0.025411,120.966516,31.374740,跃进路,884332
长江绿岛,10,8965,-0.079285,120.960075,31.472790,长江北路,884351
上海公馆,2,10161,-0.038376,120.976955,31.369594,珠江南路33号,884001
时代御湖,57,13782,-0.012255,120.973309,31.194803,锦淀路189号,884038
桃园新村,2,16809,0.349747,120.960701,31.385491,中山路,884088
杨家弄小区,1,15304,0.283591,120.967816,31.384353,杨家弄,884258
衡山城,73,11263,-0.022159,120.961430,31.365346,中华园路1518号,883545
阳光昆城,51,11131,-0.020234,120.962421,31.406910,紫竹路500号,884249
吉田国际酒店公寓,1,10637,0.016436,120.967506,31.357434,柏庐南路999号,946518
朗逸湾,1,7000,-0.102564,120.965645,31.607867,支川西路8号,884971
常乐里,1,15279,0.263113,120.961779,31.388976,前进西路208号,883346
百可世家,1,11181,0.381285,120.960203,30.525096,海滨东路,1010348
新城柏丽湾,33,10568,-0.013235,120.961945,31.342168,小澞河路,884184
富阳新村,2,12376,-0.040154,120.967935,31.377468,跃进路,883478
雍景湾东苑,5,11668,-0.055162,120.974205,31.373929,柏庐南路1111号,884289
新阳花园,1,14171,-0.157497,120.967638,31.385371,新阳街,884200
碧桂园云谷,1,8970,0.091435,120.963523,31.938144,通盛大道，近宏兴路,1016079
枫景苑B区,9,8800,0.008365,120.962014,31.354442,雁荡山路,883446
碧桂园中央公园,417,10408,-0.010364,120.973605,30.549029,盐北路，近滨海大道,1032296
吉田国际广场,4,19473,0.052993,120.968596,31.358068,创业路666号,883632
朗峰裕花园,1,12886,-0.085451,120.975054,31.369554,庆丰西路573号,883792
海盐金色海岸,13,11035,-0.060147,120.967859,30.537590,新桥北路281号,890507
雍景湾南苑,8,14122,0.005706,120.971222,31.374079,柏庐路,884290
海棠花园,2,18000,0.056152,120.966763,31.959648,通盛大道313号,917639
大德玲珑湾,31,9948,-0.002569,120.964679,31.410027,萧林路699号,883372
朝阳新村,42,14174,-0.013708,120.963697,31.376115,合兴西路,883350
宝领新村,107,8777,0.012926,120.967200,31.366864,衡山路,883302
优优滨海,61,10267,-0.018896,120.967627,30.546657,盐北路，近滨海大道,890515
恒天花园里,115,13076,0.171580,120.968853,30.847843,泰山路81号,727136
中星城际广场鼎苑,4,12015,-0.000364,120.962030,31.361504,九华山路60号,884381
合兴苑,3,9012,0.033842,120.977852,31.371721,合兴路343号,883530
花园新村,3,21707,0.380326,120.979385,31.378815,环城东路,883587
明珠苑,2,10825,0.055171,120.964878,30.540130,海兴东路21-2号,1010360
枫景苑A区,37,9543,0.027150,120.966585,31.353207,柏庐南路,883445
花园路小区,1,14705,0.367144,120.963509,31.403802,花园路,883585
天华佳园,41,12555,0.000917,120.966205,31.373110,合丰路,884097
昆城豪庭,1,10507,0.118123,120.977813,31.372821,珠江南路441号,883769
金山大厦,1,16129,-0.001609,120.965225,31.382775,南城河岸3号,884415
盛荣花园公寓楼,1,6650,-0.270751,120.966495,31.417589,寰庆路,884029
世茂蝶湖湾(别墅),1,10352,-0.202895,120.968956,31.345991,新南中路288号,884660
恒大御景,78,10000,0.008776,120.967946,30.544005,海兴东路,890481
亭林路194号小区,1,18032,0.106393,120.960931,31.392881,亭林路194号,884543
昆城国贸,1,10350,0.068202,120.961141,31.369066,人民南路,884583
江南春堤牡丹苑,18,8783,-0.024869,120.965097,31.312484,俱巷路913号,883669
滨海一号,3,9615,-0.014352,120.965231,30.525788,城东路490号,890505
紫竹公寓,1,15083,0.190826,120.964184,31.408832,紫竹路548号,884403
澳洲花园,24,9526,0.005435,120.965784,30.916477,新景南路,890335
柏庐新村,1,19285,0.029851,120.969786,31.390246,前进西路,883293
花园新村,1,9090,-0.079773,120.967805,31.996259,花园路,918634
盐平秋月,1,10500,0.158301,120.965864,30.553247,盐北路,1010374
博悦城,217,7860,0.179566,120.969667,31.362492,中华园路,989846
怡馨苑,2,22093,-0.008482,120.961685,31.389591,亭林路,884264
九方城天悦,1,13706,-0.026130,120.963451,31.412843,紫竹路，近友缘路,883738
城南印象,77,8429,-0.015360,120.967388,31.365931,衡山路,884540
丽水湾(西区),5,13249,-0.015904,120.962395,31.243903,商鞅湖路,883806
金色海岸,323,10702,-0.012731,120.967895,30.537530,海丰路，近海滨大道,890518
加州阳光城,43,8099,-0.055327,120.971799,30.913332,洪福东路666号,527415
海景苑,8,8851,0.125763,120.965404,30.533612,城东路,890475
银洲花园,1,22500,0.256352,120.969833,31.392870,前进西路239号,884284
新城香溢紫郡(商住楼),3,10000,-0.192115,120.971796,31.337417,青淞路，近长江南路,884709
水岸花苑,1,8025,0.284000,120.970002,31.612950,支川路98弄,885112
青春里,7,22818,0.005431,120.961745,31.387899,前进西路218号,883952
新城香溢紫郡(北区),4,10371,0.010461,120.972311,31.337617,青淞路,884190
中华西村,1,8152,0.072697,120.971828,31.362222,衡山路,884369
新城香溢紫郡(南区),12,11065,-0.033548,120.972085,31.335900,青淞路，近长江南路,946584
中兴兰溪荟,1,8000,0.226242,120.967066,31.941026,景微路，近宏兴大道,1016076
中星城际广场萃苑,1,12022,0.001865,120.961110,31.360383,九华山路199号,989832
金洲海景,179,10434,-0.003510,120.969418,30.548988,盐北路，近滨海大道,940422
新城天地,21,15000,-0.011923,120.976082,31.377858,柏庐路,884189
置地广场,1,14285,0.015570,120.963823,31.379611,人民南路,884360
开元悦都,103,9111,-0.015453,120.976414,30.680646,曹丰路,993644
枫景苑C区,62,8606,-0.026634,120.960143,31.354543,雁荡山路,883447
阳光城翡丽海岸,331,10872,-0.001320,120.973138,30.545631,滨海大道，近华丰路,1018748
竹园四季花城,3,12096,0.101840,120.964497,31.399577,紫竹路,884396
盛荣花园,64,10035,0.083410,120.968765,31.415729,紫竹路,884030
海盐金色海岸,35,10801,-0.012084,120.967900,30.537590,海丰东路,890506
金泰花苑,7,10534,-0.017499,120.971478,31.616012,集贤路18号,885344
嘉尚年华,51,11937,0.039671,120.972134,30.851012,东升路129号,890460
万豪佳园(别墅),2,8236,-0.041599,120.973989,31.612781,支塘集贤路,885303
江南春堤玫瑰苑,55,7160,-0.058820,120.963603,31.314504,俱巷路894号,883668
世茂蝶湖湾,68,10262,-0.000694,120.969312,31.347002,新南中路288号,884042
长泰淀湖观园(别墅),64,23041,-0.073075,120.974260,31.175128,锦耀路333号,884353
德信泊林公馆,11,9741,0.005665,120.966158,30.533547,城东路,890468
滨江丽景,72,10354,0.000628,120.976049,31.399132,永芳路,883327
江南春天,1,11166,-0.038470,120.964427,31.415275,紫竹路689号,883672
江南春堤一期,1,6851,-0.023810,120.964451,31.318917,振新东路,883671
人民南路37号小区,1,11911,-0.183171,120.965370,31.375279,人民南路,946546
新港湾(别墅),1,17777,-0.172778,120.973194,31.408142,柏庐北路,884526
利得国际,7,8996,-0.027707,120.978930,31.355029,长江南路666号,884707
嘉丽花苑,97,6470,-0.008277,120.964335,30.884368,里泽大道210号,890371
巴黎海琴公馆,71,7626,-0.002730,120.967084,30.530635,枣园东路,890502
景江花苑,5,6104,-0.267579,120.965601,30.914956,新景南路192号,617044
宝领家园,2,10694,-0.090558,120.967652,31.367216,宝领路51号,884676
滨江花园,6,11556,-0.089179,120.978670,31.406441,汉林路,883325
盐平春晓苑东区,1,9809,0.377985,120.960588,30.539131,海丰东路，近新桥北路,1010366
日月星城,15,8301,-0.066149,120.985950,31.368201,长江南路1138号,883982
金色港湾,5,11627,0.023504,120.995688,31.395472,桃花江路181号,883701
凤凰城,3,11215,0.160746,120.983663,31.420095,长江北路288号,883452
巴比伦花园,15,12000,-0.004315,120.987330,31.412614,长江北路289号,883276
江南明珠苑,4,13144,0.011115,120.982022,31.411384,长江北路198号,883675
青晨涵璧湾,31,28130,0.288044,120.984835,31.061093,练西公路3585弄,818517
金浦花园,1,9615,0.122592,120.994335,31.415106,金浦路518号,883698
莲花小区,132,11094,-0.012341,120.994401,31.054442,练西路2755弄,306889
中楠双水湾花园,110,10377,-0.000614,120.996377,31.399586,昆太路458号,883951
贵族建材市场,1,6466,-0.022005,120.988764,31.405553,春晖路,884531
中楠都汇广场,2,22222,0.320145,120.986664,31.409264,萧林东路,884377
上郡花园,4,8166,-0.098706,120.997197,31.272704,少卿西路，近宏洋路,926377
国际华城,167,12733,0.003606,120.984394,31.092741,沪青平公路7502号,862559
金塘园,3,25454,,120.986567,31.414867,金浦路,883706
鑫茂东苑,33,10138,0.061460,120.988372,31.476689,鑫茂路360号,884669
华敏世家花园,2,12804,0.011215,120.991774,31.388780,前进中路,883600
君悦豪庭,7,11882,-0.006657,120.985014,31.381082,长江中路168号,884622
清水依瓦诺,1,23076,0.098021,120.982636,31.200083,锦淀路88号,883970
君临天下花园,2,10195,-0.004880,120.991011,31.412776,白塘路555号,883747
合生国际花园(别墅),18,25498,-0.015293,120.994772,31.466339,迎周路99号,884607
杉欣花园,79,10092,-0.046665,120.989612,31.393192,同丰西路,883997
新城丽园,7,10000,-0.003289,120.989286,31.365254,庆丰路,884188
翡翠名都(商住楼),9,10000,-0.062266,120.985320,31.369811,合兴路，近长江南路,946537
昆山万达广场,3,10666,-0.062082,120.997549,31.418372,青阳北路238号,884419
名人华城,4,8035,0.028562,120.996014,31.278103,宏洋路,883888
澳宇花园,1,14375,0.109696,120.982041,31.417750,长江北路,883273
昆山玉兰公馆,244,23255,0.015502,120.980419,31.359020,长江中路,946535
星辰花园,1,4691,-0.091068,120.983553,31.908023,瑞兴路100号,917717
云澜湾七里别墅,388,14004,-0.012281,120.984242,30.819913,大云云澜路888号,890444
翡翠名都,7,10000,0.001101,120.984953,31.369489,长江南路,883435
南苑新村,4,9859,0.006071,120.981408,31.385503,震川中路，近珠江路,883906
保昆公寓,1,9146,-0.320202,120.984023,31.386203,黄河北路81号,883304
富力湾(别墅),73,15075,0.008740,120.997577,31.175380,万园路88号,883473
弥敦城,4,9836,-0.038420,120.982544,31.360004,衡山路，近长江路,883880
青春驿站,5,20000,,120.981237,31.423427,富士康路,883955
富力湾,75,12631,-0.019713,120.999553,31.170884,万园路88号,999689
祥和花园,1,22643,-0.124067,120.990901,31.399261,昆太路528号,884165
御景苑,6,16578,-0.038376,120.988454,31.385041,黑龙江北路8号,884320
蓝海LaVíe,1,19069,-0.003345,120.985091,31.382013,长江中路,883790
泊仕公寓,5,8863,-0.094347,120.990510,31.395418,杉欣路,883332
新都银座,5,9989,0.025881,120.986409,31.380427,长江南路1233号,946531
凯悦花园,23,16166,0.376298,120.990416,31.391808,黑龙江北路169号,883755
合生国际花园,3,16264,0.285793,120.994570,31.467101,迎周路99号,883526
御澜湾,8,32380,0.096900,120.999171,31.397594,桃花江路199号,884510
昆山花园,64,11128,0.055187,120.982304,31.405876,长江北路118号,883774
春晖锦苑,42,8935,0.001513,120.994015,31.402646,春晖路,883364
东方丽池,1,9628,-0.048085,120.984942,31.366453,庆丰西路298号,883407
港佳公园里,6,9722,-0.060222,120.983092,31.393633,同丰西路,883484
绿洲家园,5,11426,0.272155,120.987132,31.380308,长江中路179号,883858
绿中海,56,31989,-0.000207,120.993856,31.369663,朝阳中路77号,883857
湖畔家园,2,10000,-0.006754,120.988201,30.711110,城西路,892328
玖珑湾,3,14860,-0.000261,120.980465,31.374186,车站路388号,883984
锦上御府,111,7686,-0.020345,120.998408,31.276820,宏洋路,883715
中楠锦绣嘉园,14,10376,0.003797,120.998493,31.401800,昆太路,884378
阳光世纪花园,45,10424,0.006420,120.987280,31.401060,长江北路99号,884250
清水湾别墅,4,21500,0.062988,120.983330,31.195556,锦淀公路88号,884698
丽景花园,6,9046,-0.038376,120.990092,31.390020,前进中路,883803
淀湖芳华里,225,11381,-0.015664,120.994195,31.193320,新乐路2002号,883389
纳帕尔湾山庄,45,12926,0.019722,120.996508,31.194851,新乐路1666号,883898
永泰花苑,1,16960,0.356711,120.981959,31.373703,车站路399号,884527
嘉裕广场,4,8932,-0.262660,120.991276,31.404928,春晖路,883654
淀山湖壹号,243,14599,-0.011628,121.019264,31.150120,环湖大道,883396
摩玛自由城,11,7459,0.299856,121.012541,31.347360,金阳西路,883896
恒大名都,121,11368,0.014049,121.016252,30.684385,梅园路,892324
云湖御墅,87,18552,-0.044683,121.004590,31.183058,万园路188号,884339
秦峰公寓,1,10625,-0.043310,121.016288,31.278317,圣祥中路,883944
碧桂园海湾一号,1407,9357,0.013759,121.006138,30.595579,姚家路，近西场路,1030695
丽景花园,2,7885,0.002893,121.010645,31.936687,平通中路,918621
新泾路333弄小区,1,9550,-0.046716,121.018799,30.894670,新泾路333弄,1027012
昆山小上海公馆,24,10000,0.006137,121.017126,31.263965,炎中路，近景唐北路,884695
淀湖鹿鸣九里,50,15254,-0.064688,121.002524,31.163435,万园路66号,883391
建枫新村,114,16519,-0.077666,121.019582,30.891651,建枫新村1-4号,819379
金山嘉园,8,11428,0.009006,121.002675,31.461911,青阳北路99号,883704
大唐华庄,2,7528,0.016748,121.013474,31.275422,泰峰路14号,883381
千灯老街,6,9980,-0.021185,121.009351,31.271734,尚书路,884529
清波公寓,1,8256,-0.185082,121.002859,30.710565,城西路451号,892367
大自然花园,7,21732,0.146793,121.000285,31.188894,新乐路999号,883387
平湖中荟城,2,10151,0.012064,121.013236,30.700754,育才路705号,892416
金茂花园,1,5700,,121.013458,31.274280,秦峰路141号,883696
大唐花苑五星公寓小区,1,6407,-0.038376,121.014653,31.258490,文峰路,883382
宜家花园,46,7927,-0.027031,121.010310,31.347368,金阳路,884266
景枫嘉苑,9,10747,0.002787,121.001296,31.360625,庆丰西路,883731
御翠湾(B区),5,7197,-0.050195,121.000504,31.274055,南湾路,946559
南通金科廊桥水岸,22,8169,-0.031576,121.016670,31.845688,乐成路，近苏通路,952777
千灯尚景苑,34,8682,-0.084028,121.018052,31.268934,尚书路，近恒升路,946525
善景园,1,8409,-0.154534,121.019591,31.251551,景塘路,883998
忆江南花园,1,12796,0.031935,121.000635,31.270106,故居路,884271
丽华园,1,8088,-0.008945,121.013379,31.392576,顺帆南路,883802
熙岸铭郡,4,10731,0.141932,121.015631,31.259319,景塘北路,884148
景江花园,1,9959,0.008863,121.001420,31.385792,青阳中路18号,883733
碧桂园世纪城,77,13151,0.061602,121.018275,31.249228,黄浦江路，近淞南西路,884430
滨海花苑,50,10377,-0.018538,121.002422,30.604963,东海大道，近西场路,940421
中南花园,8,11682,0.377432,121.006784,30.727956,永兴路,990597
新浦花园,1,11257,-0.172032,121.003654,31.405581,春辉路,884198
东海花苑(北区),8,8052,-0.079322,121.005242,30.601619,东海大道,890469
吉祥小区,2,7142,-0.219880,121.010801,30.687507,梅兰路297号,892333
平湖赞城,7,9377,-0.063000,121.010603,30.704478,城南西路166号,892404
龙邑小区,13,10833,0.302043,121.008649,31.345165,春阳路,883827
锦城春天,7,8783,-0.001605,121.015698,30.701882,环城西路51号,892343
青春雅居二期,17,8573,-0.033100,121.001552,31.343113,珠竹路,883953
东淀湖庄园,14,13547,-0.057941,121.006131,31.150372,湖滨路99号,883403
黄浦城市花园,1,10371,-0.002165,121.015787,31.392445,同丰东路777号,883618
中地花园,10,9803,-0.016948,121.018307,31.273765,少卿中路80号,884366
青春雅居一期,5,11666,-0.081490,121.001328,31.343849,珠竹路,883954
枫景家园,451,11605,0.017179,121.016492,30.890733,南大街25弄,8276
淀湖桃源,82,13819,-0.004977,121.000576,31.152572,望金路，近环湖大道,883392
宝卿花园,100,8927,0.066945,121.006887,31.277131,南湾路,883303
保利西塘越,51,10014,-0.041814,121.006653,30.597526,姚家路,890462
黄浦家园,23,8783,0.023794,121.017191,31.406888,金龙路,883619
滨江丽都桥语,14,7989,-0.004207,121.010322,31.846640,乐成路88号,917720
都会华庭,9,10669,0.032202,121.016881,31.278128,圣祥中路,883431
卿峰丽景,6,10756,-0.255734,121.001714,31.277931,少卿西路2号,883962
芙蓉一村,8,9885,-0.012771,121.015219,30.898896,朱枫公路9295弄,366151
江湾国际中心,9,8166,-0.001711,121.002568,31.848217,江成路1090号,952778
银泰花园,1,10000,0.129433,121.017339,31.275215,少卿中路,884282
碧水云天,27,11507,-0.010884,121.009253,30.705667,城南西路,892277
美华园,1,10780,0.391783,121.003255,31.382302,青阳南路309号,883870
御翠湾(A区),6,8212,0.066942,121.000635,31.272768,新苑路,884319
帝景天成,69,10000,-0.007543,121.011204,31.390164,前进东路898号,946512
阳光嘉苑,5,8280,-0.042664,121.018516,30.722117,福臻路,892391
华纺易墅上海湾,84,16144,-0.038239,121.002749,31.149313,湖滨路117号,998761
绅园,43,11985,0.015322,121.004093,31.152640,湖滨路188号,884018
月亮湾,1,8888,0.002934,121.010419,30.705329,如意路,892401
华纺易墅上海湾(别墅),60,16640,-0.028341,121.004422,31.150699,湖滨路117号,883594
尚千灯,2,7058,-0.333396,121.019525,31.257609,景泾路,884515
美华西村,11,7619,-0.048458,121.010797,31.383121,樾河南路943-1号,883869
恒隆嘉荟城,2,7775,0.092525,121.012659,30.713890,环北二路,892410
