小区,房屋数量,count,均价变动,lng,lat,地址,ID
长岛花园,2,50666,0.252373,120.651412,31.302176,莫邪路347号,886403
嘉城景帆苑,12,10166,-0.022124,120.760224,30.782745,新丝路21号,889853
海宁苑,2,7910,-0.146894,120.572555,32.384590,福寿路,918309
月亮湾,31,11590,0.008922,120.874323,31.055519,康力大道588号,792708
太湖小区,19,11709,0.010006,120.634897,31.157843,笠泽路871号,886962
湖滨花园,1,8866,0.130003,120.874861,31.392966,马鞍山西路,883562
银杏苑,1,25057,0.067345,120.591122,31.313241,金门路919号,885605
赞成丽景苑,109,10263,0.023332,120.792932,30.765657,双溪路453号,890114
东方经典花苑,4,6911,-0.010594,120.965034,30.913943,汇源路,594604
蓝湖湾,6,15303,0.045858,120.537879,31.855617,暨阳湖大道,889409
丽江半岛,70,13054,0.193345,120.805594,30.737857,云东路，近塘桥路,890152
茂月居,7,9133,0.020789,120.847739,31.139226,龙蚬路269号,884592
恒源紫芸,1,11946,-0.159620,120.901426,31.392585,祖冲之南路，近马鞍山西路,884468
金银岛,1,19696,0.020835,120.636186,31.826685,北京路518号,889706
阳光地带,1,13200,,120.943346,30.839799,晋阳东路461-8号,890429
宜家花城,7,6273,-0.168478,120.942508,30.539065,海丰路,890500
铂金公馆,3,13818,0.228157,119.667402,30.610807,独松观路468号,989736
金穗月亮湾,6,8363,-0.016927,120.733320,30.740503,城南路1655号,889882
华丽家族太上湖上景花园一区,100,20202,0.117367,120.444845,31.226874,环太湖大道138号,887989
白云花苑,1,10909,0.030609,120.915306,30.819703,白水塘路,890337
财富广场,1,16347,0.272041,120.722781,30.765516,中山西路527号,927357
亲亲家园,5,8333,0.077311,120.573150,30.626242,校场东路,892494
南郊花苑(南区),1,7493,-0.119299,120.761764,30.724233,马塘路275号,889938
金色家园,1,8928,0.009612,120.830424,30.853878,南星桥路，近麟溪路,941366
金城北郡,2,15256,0.306724,120.992521,31.417043,白塔路，近横泾路,883684
万联花园,69,12500,0.045500,120.928326,30.824385,世纪大道,890421
十里风荷,91,16119,-0.043807,120.721685,30.537312,碧云北路，近施带路,1026582
金澄明珠别墅,1,25068,,120.852133,31.247689,湖滨路666号,888158
文卫新村,1,13207,0.048341,120.647011,31.278208,吴中东路81号,887601
三江尊园,1,37860,0.262017,120.652473,31.371808,阳澄湖东路9号,888874
西苑新村,27,15000,0.143118,120.976821,31.385175,珠江路,884145
招商太公望(别墅),3,13211,-0.011301,120.705246,31.632533,中央大道,885311
华强城,2,10365,,120.868102,32.046135,北大街,917801
金都九月洋房朗轩,3,10894,-0.067773,120.694584,30.760498,秀园路,798234
南都中心,405,10310,-0.040348,120.742264,30.745174,城南路，近中环南路,1006356
城中花园,16,44444,0.025828,120.625075,31.311324,西美巷,886092
金水湾花园,7,6773,0.166236,120.933238,32.357631,交通东路7号,918264
万家花园,71,8076,-0.092890,120.783221,30.757686,望湖路108号,890006
南环东路3号小区,2,28636,0.050015,120.655683,31.290033,南环东路3号,886378
龙之梦悦庭,128,9615,-0.001765,120.745286,30.747210,中环南路1969号,1006355
佳源都市(西区),40,10114,0.011198,120.778519,30.784961,城东路,889847
旭辉广场,5,10000,-0.002693,120.753237,30.766893,中山东路666号,927347
中南世纪城,3,21839,0.088141,120.777834,31.665070,泰山南路,885263
津西新天地,1,17708,0.147188,120.558773,31.313038,塔园路,886514
府南花园(一区),1,7640,0.000917,120.760369,30.738011,新气象路946号,889789
康怡园,185,10000,0.008471,120.977213,31.377236,朝阳中路465号,883762
汇高百悦府,11,10000,0.002004,120.697337,30.497450,江南大道，近海昌南路,952801
放鹤洲花园(一期),5,12266,0.022593,120.749968,30.754493,放鹤洲路159号,889770
健康西村,1,8500,0.337740,120.570260,32.388758,健康西路,918340
华府景苑,1,5617,-0.138365,120.719207,30.524059,塘南中路777号,890634
宇隆嘉苑,19,8571,-0.097504,120.758484,30.830590,奥星路278号,438527
海安7星首府,19,6421,-0.053648,120.500605,32.540343,黄海大道东19号,926348
紫欣公寓,1,16853,0.394770,120.757905,30.763029,杨柳湾路23号,890138
越秀花园,15,10000,0.021033,120.736602,30.762111,吉杨路488号,890108
宝领新村,172,8663,-0.011355,120.967200,31.366864,衡山路,883302
保昆新村,3,6153,-0.089524,120.857494,31.123463,全功路150号,883305
昆城中欣广场,1,12380,0.292950,120.952017,31.388004,前进西路560号,883771
阳光水榭花园(50-94幢),1,14000,,120.633309,31.255132,东吴南路，近石湖西路,887657
万科濠河传奇,1,13888,-0.118222,120.849623,32.014799,任港路99号,917334
长虹春天,915,10283,0.018370,120.729280,30.878145,运河东路，近虹桥路,912652
当代万国府ΜΟΜΛ,7,39108,0.194064,120.625190,31.339094,苏站路,915259
金科廊桥水岸,2,10555,-0.028800,120.643321,31.127697,思贤路，近鲈乡南路,802377
碧霞苑,2,5617,-0.020405,120.768619,32.245293,市河路,918274
锦绣苑,2,10434,0.028487,120.740056,30.774081,越秀北路483号,889884
嘉禾绿洲,1,9166,-0.024686,120.699899,30.759256,秀清路188号,890211
紫竹名苑,39,10679,-0.007343,120.791061,30.759633,景宜路183号,890142
融城汇园,1,12444,0.034586,120.969748,31.440459,友谊南路,883985
绿地家园,3,10666,-0.088376,120.676050,30.688721,绿园路,890239
学田中南苑,3,11234,0.210093,120.891904,32.021978,学田南路,917545
月亮湾,63,13000,-0.087271,120.645769,31.272182,迎春路，近文曲路,887709
嘉业阳光城,10,13387,-0.018188,120.575867,31.327667,西环路,885460
明丰翠湖苑,4,6805,0.000244,120.861571,31.028683,浦港南路358号,887161
嘉兴人才公寓,111,10000,,120.735389,30.740864,创新路220号,889865
白领公寓,15,31612,0.292501,120.679006,31.318408,星汉街168号,888305
欣居花苑,2,6976,-0.032589,120.938531,30.508031,秀水南路200号,890497
人民路5号小区,1,15882,-0.264892,120.629448,31.305652,人民路5号,886240
江风海韵,36,5909,-0.023790,120.577505,32.107194,长江东路,918341
国际艺术村,2,14157,0.002762,120.950690,31.404450,花园西路,883505
海宁月亮湾,3,8295,0.015051,120.719484,30.528934,碧云南路，近水月亭东路,952789
荣盛富盛名邸,138,10056,-0.009261,120.782647,30.734973,由拳路，近富润路,1024171
水岸丽都,40,11342,0.031935,120.762617,30.812969,东方路,797902
佳源英伦都市(东区),23,11931,0.076267,120.822559,30.748348,亚欧路,889851
嘉禾北京城,3,13157,,120.761365,30.780216,北京路37号,889862
解放一村,1,10769,0.010889,120.934533,30.849764,斜家桥路,890381
鸿翔花园,1,12526,0.295748,120.694259,30.522505,盛堰路3号,890572
昆城景苑,95,12665,-0.013513,120.959798,31.372163,衡山路1500号,883770
大自然城市花园,7,10674,0.024671,119.925174,31.011068,解放东路129号,939461
豪杰翡翠湾,38,10000,-0.015845,120.646887,30.790762,嘉铜公路,795480
尚城国际花园,8,25437,0.048516,120.954838,31.429482,北门路1388号,884008
苏锦一村(丹桂苑),1,31818,,120.615194,31.342552,平河路，近江坤路,885391
信达南郡,47,8251,-0.046237,120.811090,30.673787,幸福路188号,582986
海盐金色海岸,48,10978,0.030798,120.967900,30.537590,海丰东路,890506
君地新大陆,1,15193,-0.254599,120.720409,31.367945,唯华路3号,888250
胜利新村,10,14285,0.050754,120.953235,31.426650,北门路,884023
方舟园,1,16666,-0.091177,120.733400,30.771915,友谊街230号,890188
西塘新村,1,16866,0.228441,120.631653,31.280684,东吴北路,887631
大德玲珑湾,6,10118,0.093011,120.964679,31.410027,萧林路699号,883372
青春驿站,10,20000,0.162318,120.981237,31.423427,富士康路,883955
荷塘月色景苑,48,10217,0.058866,120.887327,30.950897,西汉大道,605852
城南花园,80,8838,0.005461,120.749117,30.757658,城南路237号,889732
融创太湖印,63,8602,0.000989,120.119784,30.949183,震泽路,994850
宝格丽公馆,207,11032,0.003913,120.805966,30.740052,庆丰路,794506
益闵花园,7,10853,0.129227,120.946095,31.289989,新吴街168号,884272
融创石湖桃花源,4,19727,-0.003737,120.608872,31.261439,友新高架，近新郭港,886663
人民新村,2,14444,-0.079883,120.110047,30.880024,人民路432号,939118
中南世纪城(别墅),11,18360,0.044666,120.776976,31.661712,泰山南路,885307
阳光里程,1,15909,0.256734,120.515212,31.869803,百桥路8号,889575
城东公寓,2,10168,0.211486,120.771038,30.773008,城东路373号,889730
骏园,6,9693,,120.764299,30.721477,花园路,889896
雍景湾南苑,90,12852,0.111039,120.971222,31.374079,柏庐路,884290
鑫河湾,4,20000,0.105461,120.926215,31.181492,长寿东路,884210
上海城新天地家园A区,1,5166,-0.021776,120.462175,30.915060,贯南一路,887275
敏华聚珑阁,59,10319,0.012660,120.668874,31.154678,运东大道，近湖心西路,988075
解放新村,40,27222,-0.054956,120.614310,31.290757,解放东路,886015
望河花园,1,8421,-0.220422,120.693734,30.524965,联塘路,891535
放鹤洲花园,28,12209,-0.001554,120.749209,30.748426,放鹤洲路562号,889771
禾东公寓(南区),2,7777,0.077445,120.782999,30.782549,周安路161号,889808
御湖天誉,70,10533,,120.125044,30.947209,安居路66号,939195
滨江花苑,10,8928,0.057695,120.923927,30.846426,中山西路228号,890341
博威黄金海岸,1,13372,,120.992954,31.418972,新纬路888号,883617
星海御景园御府,1,12222,0.111798,120.696392,31.541053,新阳大道56号,885190
中南公寓,9,10204,0.018973,120.791906,30.736512,由拳路2717号,890127
昆山玉兰公馆,341,22686,-0.011848,120.980419,31.359020,长江中路,946535
地中海一号公馆,1,11230,0.098396,120.714872,30.549517,横山路,890527
美迪家园,4,8055,0.089397,120.804225,30.673728,民新路18号,617272
高桥阳光城,52,10954,-0.097768,120.574273,30.547356,乌镇大道，近高铁大道,998685
贵族建材市场,1,6666,-0.233617,120.988764,31.405553,春晖路,884531
江海名都,2,5944,-0.001166,120.751310,32.099276,育才路,918446
阳光小区(南区),1,8988,,120.744388,30.792239,同心路422号,890294
东渡海派青城(别墅),2,34653,-0.001958,120.691920,31.435863,聚金路,889149
新城翡翠湾,4,13333,0.082224,120.885875,31.392568,古城路668号,884185
合生国际花园,6,9411,0.034517,120.994570,31.467101,迎周路99号,883526
垂虹家园,1,10000,-0.126714,120.655388,31.159332,花园路2355号,886874
阳光家园,3,10000,,120.940306,30.523809,百尺北路3号,890513
向阳新村,6,9852,-0.073189,120.553259,31.871107,梁丰路，近河东路,889546
盛大花园,22,9354,-0.020113,120.736408,30.780869,百墅路437号,890250
御景澜庭,1,11702,0.024066,120.871583,32.059051,友谊路，近永和路,917841
明珠花园,6,7000,-0.379653,120.789202,31.055971,西鹤路91号,887164
依山蝶院,2,9318,0.020368,120.719772,30.532425,碧云南路,892194
淀山湖上海岛庄园,24,17500,0.081582,120.945960,31.155139,锦商公路,883395
绿城玫瑰园(别墅),5,72217,0.032158,120.853176,31.440633,湖滨路3888号,884626
柏庐天下,137,8750,0.001947,120.962613,31.356300,普陀山路,883292
亚太花苑,11,10512,0.124692,120.820765,30.750167,凌公塘路2758号,890068
鸿悦府邸,3,5477,-0.009673,120.541941,32.146568,石庄路88号,995411
百岭公寓,3,17857,,120.966093,31.403395,紫竹路,883287
华盛广场,2,7272,-0.063007,120.788210,30.731596,商务大道,890146
云东公寓,80,11191,0.046228,120.798955,30.733580,由拳路，近双溪路,952907
诚恒世嘉,63,9139,-0.020262,120.725149,30.890554,北虹东路129号,797046
日月城三期中央世,1,11627,0.036090,120.118787,30.888527,外环北路742号,939122
瑾润九仰周庄,2,14285,0.012403,120.853942,31.124636,全福路,883724
天玺别墅,12,11617,0.067347,120.117155,30.960338,通湖路500号,939150
嘉宝花园莱茵苑,2,30859,0.228610,120.647479,31.269742,宝带东路350号,887497
高浜三村,1,12285,-0.284216,120.695008,31.352132,高浜街,888758
融创苏州壹号院,4,22222,0.064017,120.622243,31.191287,金碧街，近永旺路,888087
莲花小区,245,10869,0.007976,120.994401,31.054442,练西路2755弄,306889
凤凰城,15,7045,0.147207,120.409135,32.309431,绘园路489号,926274
中信花园,3,7878,-0.023730,120.930827,30.852600,车站北路,798066
光明御品,9,11217,0.047730,120.054118,30.904341,环太湖路,994847
爱法山水国际,22,6818,-0.013885,120.460022,32.520510,黄海大道西1号,925932
清水依瓦诺,2,18716,0.237946,120.982636,31.200083,锦淀路88号,883970
胥江一号别墅(别墅),18,12600,-0.043097,120.493069,31.241010,胥欣路221号,887902
富华苑,1,43396,0.058801,120.662577,31.304040,机场路1号,888345
嘉州美都二期欢快园,1,11590,0.074541,120.738604,30.783408,百墅路,926314
红旗新村,1,25142,-0.070124,120.613326,31.306832,三香路40号,885938
吴江上海城,1,14090,0.324248,120.641152,31.182029,仲英大道1088号,886824
一品江山,1,11666,0.049762,120.917869,31.943340,常青路,917660
东方名嘉(东区),3,13936,0.349342,120.939419,30.839014,晋阳东路,890353
新城域,59,8761,-0.095447,120.970059,31.339016,长江南路88号,884191
金城商苑,5,12725,-0.039115,120.964014,31.386146,人民南路34号,883686
大众湖滨花园东区(别墅),22,16402,0.010100,120.958678,30.826827,之江路,890347
金龙花园,1,48545,-0.006142,120.573762,31.295321,滨河路188号,886577
亚福江南春晓,8,8333,0.001683,120.902329,30.890640,窑兴路,635024
月河公寓(北区),1,6785,-0.167382,120.753124,30.777469,同乐路272号,890106
紫金花园,1,6989,-0.035601,120.859477,30.536435,招宝路300号,940420
梅花新村,6,27500,-0.031929,120.637143,31.344447,官渎路,885411
放鹤洲花园(北区),3,12083,,120.747682,30.749446,望鹤路36号,889772
博悦城,37,5675,-0.129658,120.969667,31.362492,中华园路,989846
淀滨新村,21,12923,-0.006572,120.973268,31.071199,岑中路96弄,652346
缔艺家园,13,8979,-0.031600,120.671071,30.520725,联合路525号,925380
正荣悦棠湾,149,9834,-0.005511,120.651922,30.893640,中心大道，近南环路,1022394
新桥花苑,6,13684,0.352976,120.956100,30.519064,新桥南路81号,890498
嘉华春晓,11,10731,-0.008684,120.939936,30.824398,农商路163号,890369
新东方商厦,1,9000,0.032821,120.755730,30.771434,禾兴南路833号,927339
皇马公寓,3,10000,-0.050603,120.725547,30.773114,常秀街,798238
七星花园,29,6845,-0.037136,120.829406,30.816761,兴星路,889948
兰花园,1,14154,,120.857140,31.123472,全功路202号,884684
都市华庭,1,5822,-0.167691,120.566025,32.386636,大司马路,918293
优山美地花园(别墅),1,17511,-0.201905,120.921942,31.944042,星湖大道1888号,917667
朝阳新村,8,15443,0.074819,120.963697,31.376115,合兴西路,883350
月河公寓(南区),1,7142,-0.077380,120.753214,30.777075,同乐路,890105
融创太湖印(别墅),16,9176,0.079275,120.120611,30.947999,震泽路,994849
天地华城,37,15581,0.154918,120.924757,31.388292,前进西路1188号,884094
长泰淀湖观园(别墅),109,27696,0.205065,120.974260,31.175128,锦耀路333号,884353
南浩街小区,1,13026,-0.269802,120.616037,31.308116,南浩街,885963
快乐颂,1,12727,-0.286163,120.931352,31.405573,园路2115号,883766
三香福郡,3,15483,-0.104356,120.598115,31.297508,桐泾路717号,885967
南通壹城九间堂山居,2,15277,,120.916429,31.950402,工农南路18号,917625
金域世家,140,11123,0.022945,120.664962,30.532158,硖仲路499号,1018750
丽景苑,13,46262,0.030587,120.638735,31.314705,干将东路636号,885861
周庄万盛园,10,11823,-0.024666,120.865228,31.115954,全福路138号,884388
星城洛洲,1,13095,0.053839,120.701179,30.518315,海州东路,891727
景尚墅,2,10625,0.225066,120.709216,30.783534,秀庄路,890226
江南新家园,34,6752,-0.160930,120.826554,30.824094,湘家荡大道,889873
禾众商业广场,18,9600,-0.015284,120.901916,30.835526,城西大道,890453
海景苑,9,7865,-0.055822,120.965404,30.533612,城东路,890475
逸景湾,1,9677,0.010231,120.946261,31.411153,萧林路,884273
南湖小区,86,8196,-0.045756,120.773893,30.754450,菱香路40号,889937
明珠花苑,1,15121,0.326869,120.856803,31.030501,临沪东路259号,887165
南方大厦,27,8766,-0.004486,120.568514,30.634042,永兴路2号,993022
锦荷佳苑,7,12500,0.001201,120.783843,31.649423,富泰路,884944
水岸家园,2,28519,-0.032319,120.612939,31.344893,总官堂路1160号,885424
盛泽国贸中心,1,9142,-0.078056,120.637848,30.903818,市场西路599号,1022391
淀湖芳华里,36,12222,-0.044783,120.992498,31.195575,新乐路2002号,883389
馨逸家园,59,11724,0.010341,120.928929,31.285143,江浦南路,884207
国贸仁皇,5,8428,-0.065839,120.084163,30.911713,青太路1455号,938994
枫泾新村三区,3,13333,0.001578,120.760649,31.653148,枫泾路,884807
西园新村,1,29859,,120.962094,31.386863,前浜,884546
智富城MIMON,7,7338,-0.043719,120.695384,30.765529,秀清路626号,890325
金溪三村,63,11475,-0.045420,120.930354,31.042053,金溪三村,818152
青城之恋,2,11724,-0.075540,120.968514,31.417216,萧林路,883950
久久小区,145,8333,-0.015361,120.795205,30.734400,双溪路,889891
爱丁堡(别墅),3,37790,-0.071932,120.733455,31.489335,湘太路98号,889182
大树花园(北区),28,7580,-0.073350,120.718791,30.768959,吴越路378号,890181
荣盛观湖景园,75,7954,-0.000628,120.833662,30.823423,兴民路,991787
朗诗未来街区四期,1,28953,0.100247,120.747966,31.379596,夷浜路,888254
柏盛园,3,12300,-0.012524,120.971707,31.370873,柏庐南路,883294
中央广场,1,11714,-0.154346,120.547545,31.016448,横扇大桥路,887134
托斯卡纳东泰花园,5,11154,0.329757,120.468021,31.139707,新市路518号 ,793145
嘉兴世界贸易中心,3,8717,0.049862,120.802746,30.743694,广益路，近云东路,927337
凌波苑,5,7444,-0.236121,120.774213,30.783640,凌塘路319号,889907
春江花苑,25,10000,0.090512,120.630413,30.496143,庆东路，近硖斜路,925378
天欣花苑,10,6355,-0.003294,120.820319,30.900832,兴贤东路,799974
太湖城仕公寓,104,13978,-0.007667,120.398422,31.224379,墅里路,887997
力维佳苑,1,9411,-0.204615,120.417602,30.874971,大中路218号,939264
春晖锦苑,17,9000,-0.111638,120.994015,31.402646,春晖路,883364
万联城,116,10526,0.128552,120.933918,30.824594,嘉善大道688号,890458
苏园,1,15970,-0.063123,120.520606,31.275323,向阳河路18号,887849
盈和花苑,3,8118,-0.144611,120.961265,30.917322,兴学路329号,607867
万达华府,44,13325,-0.094092,120.839077,32.041499,江海大道336号,917824
金洲海尚,78,11453,-0.024696,120.941722,30.548217,百尺北路，近华丰路,1010358
中梁吴越首府,1,11011,-0.130596,120.729248,30.749459,桐乡大道，近九九大街,927345
花园社区,2,10804,0.260530,120.743164,30.777860,东升路,889824
康桥名园,13,10112,0.049943,120.453944,30.448584,开元路,890957
盛世豪庭,4,12000,0.073922,120.703576,30.764772,聚贤路68号,890253
绿地江南华府,1,12820,-0.114029,120.653211,31.127313,中山南路,887066
翡翠名都(商住楼),6,10500,0.022595,120.985320,31.369811,合兴路，近长江南路,946537
新溪新村,15,10000,-0.343229,120.935139,31.725937,新溪路,885177
大地公寓,5,6808,-0.043148,120.755515,30.761781,砖桥街45号,889741
华府庄园,1,12465,,120.859970,31.393648,马鞍山路1999号,883595
梅湘园,2,10000,,120.830407,30.803162,灵湖东路857号,1024165
太湖花园,3,10526,-0.047335,120.108034,30.901814,太湖路699号,939142
旺角维多利亚花园,1,12400,0.272839,119.911700,31.025707,花菇山路,939560
春馨园D区,1,11607,-0.151473,120.567058,31.334883,春馨园路，近鹿山路,885354
丁香花园,6,8461,-0.032807,120.941928,30.858361,施家北路378号,941370
阳光世纪花园,85,10347,-0.016819,120.987280,31.401060,长江北路99号,884250
宝带一村,1,18518,0.113530,120.647454,31.272766,宝带东路,887437
水晶湖畔,27,13840,0.051911,120.906704,31.091494,张元东路2号,465974
海韵江南,1,13461,0.201553,120.918111,30.517462,环城南路，近楞港路,1010355
南石皮弄小区,1,40476,0.181850,120.641923,31.302156,南石皮弄,886209
浦东街40号小区,1,11866,0.075208,120.951352,31.291853,浦东街40号,989794
晴湾佳苑,3,12432,-0.001205,120.722802,30.755420,文昌路1299号,798052
秀水人家,22,6470,-0.314619,120.766418,30.775922,青龙街42号,890062
诚恒世嘉,3,7954,-0.103977,120.725440,30.890953,北虹东路129号,1012472
皇冠花苑,4,8099,-0.058694,120.773082,30.754569,菱香路34号,889832
苏通壹号公馆,2,11442,,120.895910,31.959978,江安路66号,917633
尚品公馆,56,8620,-0.015645,120.838711,30.578030,大洋东路8号,793572
新城海上风华,32,10933,-0.199810,120.926520,30.827400,世纪大道，近车站南路,952781
嘉城绿都秋菊苑,1,10555,,120.789067,30.779465,宜城路,889858
东方花园,1,4230,,120.590042,32.401666,中山东路,918283
新怡花园,1,21250,,120.527884,31.271529,金山路,887898
都谷花苑,3,8333,0.205759,120.685611,30.546365,文苑路650号,890536
龙泽园,8,11204,0.140472,120.721008,30.872776,闻川路,795318
公园道1号,120,11957,0.022665,120.699142,30.499960,江南大道，近海昌南路,892056
创业公寓,91,11053,-0.034629,120.784988,30.775423,创业路,889734
金凤城(别墅),11,10756,-0.032212,120.805030,30.337892,凤凰路38号,917183
万城理想公馆,74,10526,0.023333,120.667362,30.531750,硖仲路，近双联路,917054
钱江君庭(北区),1,10453,,120.567984,30.408870,中新路79号,914291
万城明月公馆,40,9702,-0.013423,120.669092,30.522085,广顺路，近联合路,917184
花苑新村,47,11767,0.019848,120.521679,31.265741,花苑街,887764
中天观庭,17,7096,-0.017855,120.395605,31.954593,镇山路，近长江西路,889640
海德公寓,2,5000,-0.309488,120.563980,30.627280,梧丰路511号,992994
梅园新村,1,10631,,120.592495,30.979081,下塘街,887224
观湖壹号,1,15055,0.021509,120.910478,31.410700,萧林西路,883495
富康苑,1,15217,-0.044398,120.792413,31.634344,香榭路18号,884816
铂金府邸,42,13200,0.154452,120.809590,30.745707,中港路619号,797985
森隆满园,1,10204,-0.012866,120.935652,31.293709,京东路,883993
中南世纪新城,1,15151,0.182471,120.920737,31.991142,观新路，世伦路,917608
盈都江悦城,1,9144,-0.073650,120.405081,30.345972,春潮路,892180
大树花园(东区),7,8125,-0.050485,120.718930,30.767443,蓬莱路61号,890180
绿杨一村,1,9740,0.136390,120.669124,30.898474,绿杨路,887312
耀城广场,1,10312,0.029142,120.736189,30.764976,中山东路,890078
凤凰名邸,19,9322,-0.003314,120.951314,30.586988,盐佳路,1010371
摩卡小镇,4,12000,-0.027710,120.966796,31.439740,紫竹路,883895
金汇智博广场,3,7800,-0.108775,120.934809,30.514062,百尺南路,890510
东茂商业广场,172,10877,0.005082,120.647267,30.909754,舜湖西路，近西环路,887365
金凤凰小区,2,13333,0.046711,120.971069,31.385457,集街21号,883691
吉水花园,2,11011,0.346253,120.744411,30.760323,吉水路341号,889837
左岸香颂,2,20500,-0.017682,120.770085,31.344601,钟南街388号,888638
沁园,16,31818,-0.001726,120.951045,31.417066,水秀路1209号,884553
景湖花园,104,12688,0.264375,120.803560,30.760243,云东路62号,889890
祥生玖熙花苑,755,11375,-0.025446,120.763161,30.716403,新气象路,890153
放鹤洲花园(南区),1,17115,,120.747323,30.748178,望鹤路99号,889773
嘉辉Loft公馆,145,9505,0.024300,120.789773,30.774693,湘溪路76号,927331
领御,1,6375,-0.284913,120.980157,31.388412,前进中路283号,883819
丽都名苑,1,6842,0.023026,120.394963,30.954509,新村二路,887192
巴比伦国际广场(商住楼),11,14285,-0.016997,120.959108,31.366679,人民南路998号,946585
国际华城,425,12689,-0.003064,120.984394,31.092741,沪青平公路7502号,862559
大华城市花园,4,11000,0.002369,120.760840,30.741471,会展路257号,889742
海盐金色江湾,760,11625,-0.024912,120.961207,30.546897,新桥北路,1010370
商盛秋居(南区),1,8823,-0.198346,120.936098,30.863089,谈公北路,890410
三千邑,8,13861,0.130905,120.673633,31.183751,江陵东路689号,887039
华玉佳苑,1,11235,,120.797802,30.789472,鸣羊路,890207
爱丁堡,2,11214,0.000244,120.733544,31.489701,湘太路98号,889179
世茂尚景蓝湾,24,9832,0.003573,120.788409,30.711942,五环洞路88号,440697
教师新村,3,9160,0.252393,120.954919,31.406447,海峰路,883682
满庭芳,2,7971,0.025341,120.546743,30.640278,凤鸣路21号,892488
和融优山美地公馆(别墅),1,16176,-0.120392,120.669582,31.289947,独墅湖大道,888467
芝溪花园,5,8548,-0.121299,120.967626,31.609806,芝溪路,885256
嘉宝花园一期(别墅),1,30000,0.071429,120.647862,31.275341,迎春路174号,887704
绿景苏州公馆,4,11666,-0.085952,120.601576,31.220431,塔韵路199号,1002470
崇文府第,7,9888,0.000202,120.938103,30.829121,阳光东路383号,890344
吴新小区,1,7555,-0.238484,120.657109,31.180345,新吴街,886826
海韵华庭,1,9534,,120.952148,30.542992,长安北路333号,890477
鑫苑国际城市花园,20,18133,-0.003243,120.568911,31.322939,华山路8号,886535
大柳枝巷,1,15891,-0.141000,120.641860,31.322046,大柳枝巷,885819
如意公寓,1,8163,,120.669130,30.920412,如意路12号,887367
太湖胥香园(别墅),1,16170,0.231906,120.484848,31.230288,子胥路,887954
中央花园,6,8571,-0.016862,120.629583,30.673005,兴旺路19号,926331
明珠花园,18,7442,0.251598,119.924021,31.000952,海兴路,939544
枫杨坊,27,6045,0.006242,120.779983,30.764849,天竹路71号,889777
盛华园,1,27049,0.041508,120.587604,30.638775,利民路,892506
太湖樱花园,1,18867,0.235722,120.489937,31.244623,孙武路,887855
万丰苑小区,1,7280,-0.000412,120.922097,31.369583,中华园西路,884127
南街小区,2,11250,-0.000711,120.958497,31.383959,南街,883901
凤凰花苑,18,10204,0.101944,120.929017,30.624229,嘉盐路,614808
时代广厦,1,7833,-0.282627,120.693782,30.528707,海昌路192号,891426
中梁秀湖壹号院,51,10625,0.000188,120.685475,30.780036,秀园路,890333
北大金城,186,10852,0.016532,120.919038,30.861928,体育北路533号,439978
合景峰汇国际天汇,7,15555,-0.037319,120.613019,31.369989,阳澄湖西路,888950
伊顿花园,1,24242,-0.003822,120.739437,31.313430,南施街1号,888611
幸福未来花园,1,13043,0.003153,120.430428,31.351459,富春江路,886758
金凤凰温泉逸墅,52,9068,0.015340,120.638151,31.791465,金谷路1号,804644
双龙景苑,77,6000,-0.145786,120.926607,30.707550,平林路,889977
云梨小区,2,8563,-0.022712,120.667634,31.165537,运东大道763号,887035
绿杨新村,1,8125,0.300080,120.670633,30.896425,绿杨路,887311
南湖秋月,1,11023,,120.862609,31.116187,富贵路2号,884576
学府花苑,2,30927,-0.052482,120.586850,31.265245,学府路,886660
环球公馆,1,9236,0.076457,120.725239,30.756713,文昌路1185号,944521
中南世纪城,6,13845,0.068369,120.646623,31.135135,中山南路，近长板路,887080
大发大小区,1,26987,-0.370290,120.568063,30.645505,茅盾东路,892439
黎明苑,2,9550,0.098080,120.821126,30.715118,东余线,889903
新都汇,1,13125,-0.104340,120.957429,31.292647,新吴街19号,884552
茶香坊(东区),4,7945,0.138252,120.798530,30.793854,章园路559号,890162
皇都花苑,33,11274,0.001066,120.793868,30.757285,南溪西路2219号,889831
化工新村,1,18269,0.087505,120.629832,31.295100,西二路,886145
万科新都会,27,17021,0.009969,120.415426,31.350758,武夷山路,886756
永福花园,7,9176,-0.041771,120.922842,30.841239,晋阳西路,890437
怡佳苑,12,57031,-0.066474,120.552768,31.885296,人民路,889583
博雅苑,3,29191,0.004819,120.612016,31.273033,宝带西路858号,886411
绿城安吉桃花源,9,12857,-0.171265,119.638616,30.582754,梅灵线,939678
金色华庭,12,9662,0.001140,120.727854,30.632714,兴乐路344号,926313
紫藤花墅,1,13725,-0.057478,119.878998,31.013360,五峰路288号,994853
玉石花园,1,8589,0.211595,120.911885,31.505169,玉石路,884315
枫丹御园,5,12902,-0.023981,120.928903,31.177136,环湖北路118号,883444
碧桂园凤凰岛,5,18181,0.192901,120.873310,31.246014,湖滨路68号,888124
苏州吴中万达广场,10,11333,0.020348,120.614096,31.259948,友新路，近石湖西路,887689
凤凰城,6,9159,-0.380060,120.983663,31.420095,长江北路288号,883452
佳源东方都市(别墅),21,11692,0.032497,120.821185,30.737343,亚欧路,927326
绿洲华庭,5,10357,-0.317148,120.639312,30.908196,舜湖西路，近宝龙桥路,887313
缇香镜湖湾,7,15666,0.105887,120.536846,31.841373,港城大道,805458
天际花园,1,13333,-0.243904,120.104515,30.900051,安吉路188号,939147
平湖瑞园,3,15053,,120.860762,31.246098,湖滨路188号,888167
紫金艺境,22,10434,-0.010245,120.791935,30.734955,乌桥路100号,890156
金汇智博,4,7777,-0.173363,120.934809,30.514000,百尺南路，近环城南路,890509
1号公馆,12,8000,-0.335383,120.589161,30.632833,圆明路403号,992977
石雪公寓(南区),2,9160,0.079807,120.759463,30.716735,石隆路103号,889969
祥生悦澜湾,1200,12289,0.000407,120.966466,30.536712,城东路,994851
中南世纪城南区(别墅),1,13333,-0.238288,120.646842,31.133036,中山南路,887083
天润周庄,2,14736,0.231078,120.874302,31.124906,周商公路1号,884103
青年公社,16,12792,-0.015091,120.809407,31.329555,青丘街,888673
望鹤苑,8,11555,0.022114,120.747374,30.747447,中环南路,890012
维纳阳光花园北区,1,15024,0.000244,120.760052,31.379315,科能路80号,888279
爱尚公馆,115,7826,0.005267,120.776996,30.792913,中环北路，近塘汇路,890326
兰亭御园,6,15000,0.018054,120.914852,31.413793,林荫路777号,884469
九扬香郡,1,14285,,120.938584,31.387076,前进西路1168号,883740
明丰环湖花园(别墅),1,13114,,120.864245,31.042316,城司路666号,417641
花样年别样城(南区),3,10285,-0.093353,120.427145,31.229725,伍相路3号,887761
东大街如意佳园,40,7526,-0.085318,120.472706,32.558567,凤山北路，近河滨东路,917957
毛纺新村,1,10869,,120.773721,30.758095,纺工路,889924
塞纳蓝湾,119,12591,0.043639,120.905387,30.823632,世纪大道,652309
东苑怡景花园,11,14035,0.133867,120.880339,31.287503,机场路,888137
汇景公寓,3,10500,0.033160,120.969399,31.366054,衡山路,883624
嘉兴龙鼎万达广场,275,11923,-0.013813,120.724729,30.758614,龙凤路,890151
麟湖公园壹号,3,9456,-0.069108,120.763834,30.833528,奥星路155号,890328
丰泽湾花园别墅,49,17154,0.004362,120.938791,31.127482,锦商公路4781弄,8732
锦湖花园,1,11290,-0.273675,120.773684,31.686265,泰山北路198号,884946
国际中港城,4,9770,-0.135704,120.799201,30.744628,广益路555号,890148
春江花苑,41,3823,0.321923,120.584407,32.111654,纬八路,918279
御上江南瑞园,6,11807,0.022163,120.825732,30.738053,亚欧路656号,890098
中山花园,3,10294,0.194200,120.719598,30.763871,吴越路88号,890315
绿洲华庭(别墅),1,27777,-0.216777,120.640103,30.907438,舜湖西路,887359
金城花园,51,10690,0.018143,120.529304,31.882523,暨阳西路68号,889368
东方名嘉(西区),10,11206,0.048858,120.934785,30.837153,嘉善大道,890352
大树花园(西区),4,8924,,120.717151,30.767225,新秀路256号,890182
金山大厦,2,16129,0.189630,120.965225,31.382775,南城河岸3号,884415
中南闻荷府,358,10954,-0.006034,120.727367,30.880202,滨河东路,991006
上城春天里,2,8947,0.004716,120.922953,30.518983,曲秀路336号,1010362
西门新村,8,14516,-0.153339,120.541308,31.872307,梁丰路688号,889532
南桥温馨家园,2,6666,-0.147788,120.946248,30.875243,外环东路,502616
中南景苑,2,8742,-0.279504,120.699646,30.522568,硖南路,891959
香榭水岸,4,6888,-0.123377,120.705445,30.766754,新平路88号,890269
保利雅苑,8,23200,0.010981,120.572718,31.294940,玉山路38号,886559
曹胡徐巷,1,13000,-0.040520,120.635945,31.322975,曹胡徐巷,885815
蓝光名仕公馆(别墅),4,9153,-0.042573,120.700729,30.751474,文昌西路,800752
苏州桃花源,1,41379,-0.122359,120.694287,31.297106,高和路,888730
蓝天嘉苑,10,7857,-0.003551,119.882149,31.008665,画溪大道,939530
青剑湖花园二社区E区,3,12916,-0.269126,120.709121,31.361177,唯和路,888267
南仓街小区,2,14545,0.038929,120.644244,31.317454,仓街,885868
金科世界城,1,10000,,120.553923,32.381147,宁海西路168号,926280
青江秀韵,1,13793,-0.099262,120.981750,31.394378,玉龙路99号,883956
滨江丽景,27,10348,-0.025061,120.976049,31.399132,永芳路,883327
商盛秋居(北区),3,8088,-0.102829,120.937387,30.864499,谈公北路,890409
倚林佳园,2,10840,,120.919873,31.179927,锦虬路,884270
青龙新村,1,13972,0.088416,120.789701,31.630478,富兴路,885058
阳澄湖滨花园大厦,1,14430,0.159688,120.803354,31.384294,阳澄路202号,888235
秀水瑞苑,1,10204,0.236099,120.624995,30.801293,蓬莱路,794262
月亮湾(别墅),5,8857,-0.225177,120.731047,31.263116,康力大道588号,887183
碧桂园翡翠湾,1,9662,-0.013780,120.081540,30.844649,田园路，近二环西路,1030268
恒大绿洲,172,8876,-0.031850,120.763610,30.822442,正原北路,890198
豪得别墅,1,10558,0.025746,120.644179,31.770722,凤恬路68号,889294
金色港湾,4,11125,0.049034,120.995688,31.395472,桃花江路181号,883701
幸福新村,1,10487,0.010114,120.573222,30.633008,幸福路，近振福路,993037
常和景苑,1,6086,-0.071548,120.924752,30.521733,曲秀路,890463
万科金域缇香,3,12631,-0.034770,120.697690,30.790282,成秀路88号,890265
南龙房开,30,6476,-0.021529,120.849630,30.898276,兴洪路,378211
新城天地,69,14208,0.208617,120.976082,31.377858,柏庐路,884189
水云庄园,3,10233,-0.011400,120.951710,30.546043,长安北路488号,890491
青晨涵璧湾,15,26911,0.009661,120.984835,31.061093,练西公路3585弄,818517
常秀景苑,1,7747,-0.009208,120.928774,30.520512,中兴路368号,1010351
宏润花园,43,11612,-0.174757,120.821682,30.741504,亚欧路,889818
登云家园,1,9630,,120.651357,31.410688,如元路858号,888812
云澜湾七里别墅,448,13888,0.023434,120.984242,30.819913,大云云澜路888号,890444
旺家园,6,6410,-0.171299,120.845425,30.913203,洪兴路205号,650752
宏和珈都,40,4772,0.002942,120.267702,32.670016,文化路，近白古线,1020805
中朝御锦园,1,6721,-0.366003,120.692747,30.516372,海州西路168号,891897
富成花苑,1,24357,-0.320567,120.658935,31.179669,交通北路87号,886796
承安新都会,57,10758,-0.130315,120.091853,30.850348,二环南路，近夹山路口,1030279
绿溪玫瑰园(北区),6,9113,-0.032385,120.757561,30.743072,会展路98号,889923
天润尚院,83,14336,-0.014606,120.874324,31.126558,周商公路1号,884102
百合苑,8,7333,-0.271363,120.859037,31.377600,君子亭路140号,883284
名典公寓,31,11250,0.014885,120.741301,30.765561,中山东路1276号,889930
洪兴国际广场,43,9240,0.095885,120.703622,30.769045,洪兴路，近聚贤路,991002
都市文涛苑,6,8522,-0.045795,120.784197,30.742899,中环南路136号,889765
丽景江南,1,10400,-0.019977,120.998995,31.416733,青阳北路198号,883804
星洲国际花园,1,10638,0.007864,120.075841,30.869346,西塞山路188号,939186
越秀银座商务中心,1,9000,-0.100000,120.739452,30.768348,越秀北路154号,927340
天都花苑(南区),1,11956,0.000753,120.897858,31.991688,沿河路，近工农南路,917240
荣盛香韵花苑,23,12113,-0.067944,120.770778,30.780674,凌塘路,992976
佳源罗马都市,44,8750,-0.081172,120.549718,30.637551,复兴北路128号,892544
大树绿苑(南区),4,10344,,120.836255,30.822079,潭星路147号,889746
桃李春风景苑,67,9213,0.005896,120.798747,30.345156,钱塘江路,1005437
星城铭座,19,10000,0.002707,120.493428,31.245856,孙武路602号,887900
大树英格澜,114,10574,-0.020200,120.788779,30.708394,纺工路,778364
朗诗国际街区,4,57142,-0.070439,120.748758,31.311159,津梁街8号,888541
中达美林(三期),2,13258,0.312413,120.958934,30.552420,丰潭路,796261
紫薇花苑,3,13943,-0.009308,120.459710,31.430415,御亭路,889024
明珠花苑,2,11428,,120.833485,32.356111,三三四省道,918228
金枫美地,2,16088,0.055122,120.541600,31.260421,金枫路,887774
怡和园,9,8192,-0.073513,120.790902,30.755863,景宜路425号,890081
新城香溢紫郡,5,8861,-0.040236,120.849325,32.073347,通宁大道，近永兴大道,917762
东湖金悦,26,10670,-0.017811,120.592460,30.634900,振兴东路329号,992988
周庄CBH,12,18181,0.180125,120.855411,31.120732,富贵路,884490
怡景苑,6,8863,0.034914,120.748515,30.776254,同乐路,890083
金贸中心,6,9803,0.006468,120.719289,30.541469,石泾路15-17号,1026578
星月花园,1,9175,-0.019031,120.926065,31.966779,通富路47号,917659
星雅汇,29,10000,-0.052582,120.747291,30.745041,清华路245号,927352
新锐公馆,28,8755,-0.024022,120.728574,30.732003,骏力路137号,944518
伊顿花园(别墅),14,24615,0.005022,120.736549,31.313862,南施街1号,888652
嘉城南都苑,10,10451,0.011126,120.742488,30.745082,城南路,889860
江南明珠苑,15,12156,-0.083120,120.982022,31.411384,长江北路198号,883675
中楠锦绣嘉园,11,10285,-0.000389,120.998493,31.401800,昆太路,884378
海宁洛塘公馆,91,10736,0.033301,120.629617,30.495679,硖斜路，近白狞港,1032298
恒大御景,126,9775,-0.041667,120.967946,30.544005,海兴东路,890481
中环广场,4,8333,-0.053928,120.741428,30.748205,中环南路，越秀路,1006359
人民南路小区,2,16363,-0.245979,120.634883,31.290936,人民南路,886244
湖滨雅园,2,15789,0.028398,120.864851,31.032742,浦港路568号,431043
观景府,19,8636,0.005941,120.435301,30.853436,嘉风路,939232
西小区,10,8301,-0.162699,120.686699,31.169109,云梨路,887018
赞成学仕苑,83,10588,0.021121,120.778020,30.747518,纺工路1166号,890116
怡苑洋房,3,7070,,120.940149,31.418136,环庆路,884265
旭辉百合宫馆,3,31333,-0.042536,120.524928,31.351166,新丰路,886714
杉欣花园,139,11290,0.298000,120.989612,31.393192,同丰西路,883997
彩虹岛花苑(别墅),6,11727,0.053828,120.869267,31.060598,彩虹路2号,887332
开元名都,133,13350,0.047016,120.676821,30.498522,江南大道2388号,892110
衡山城,92,12564,0.197256,120.961430,31.365346,中华园路1518号,883545
恒都香缇溪岸,8,9659,-0.018394,119.668150,30.602097,浒溪南路,939641
群利景苑(南区),2,10526,0.133656,120.716136,30.524232,塘南东路621号,891367
中楠穆溪左岸(东区),1,11567,0.333218,120.749956,30.799768,禾兴北路1135号,890314
东苑新村,1,10000,0.026589,119.980064,30.541838,曲园南路,939364
锦隆佳园,3,11568,0.204373,120.942267,31.417999,寰庆路,883714
湖畔花园,2,28040,0.304550,120.733830,31.160629,环湖西路,887115
花园城,2,19811,0.262973,120.568410,31.864409,沙洲东路,889336
金凤城,15,9803,-0.065134,120.805059,30.339178,凤凰路38号,952790
三星苑,6,30873,0.338522,120.660115,31.325390,现代大道,888412
碧桂园滨湖城,11,12424,-0.053337,120.345077,30.431458,人民大道,925376
锦绣苑,1,5952,-0.371953,120.571067,32.395336,锦绣街,918353
江新家园,1,10420,-0.080886,120.662008,31.162760,云梨路,886903
圣日华庭,1,8676,-0.290481,120.970902,30.914411,姚庄大道58号,890411
临湖小区,1,4709,-0.275538,120.472587,31.131092,腾飞路,888046
涵园,12,57082,-0.123864,120.298926,31.085687,石公路9号,888106
彩虹公寓,2,13333,0.134144,120.767685,30.776128,青龙街95号,889725
尚东国际,1,9550,-0.127934,120.661061,31.164293,通运路155号,886995
钻石公馆,5,22058,-0.021818,120.632229,30.672841,齐宏路288号,892536
日月星城,6,10289,-0.006757,120.985950,31.368201,长江南路1138号,883982
南洋公馆,2,7418,0.189735,120.291574,30.614928,南洋路,939343
金泰花苑,9,11250,0.004554,120.971478,31.616012,集贤路18号,885344
白金公馆,4,7111,-0.209889,120.721116,30.502610,碧云南路，近城南大道,892042
枫景苑B区,5,8192,-0.107139,120.962014,31.354442,雁荡山路,883446
九城嘉佳家,85,9325,0.019292,120.822169,30.746977,亚欧路,794314
明光和天下,3,9090,0.081757,120.607147,30.679038,凯旋路,892535
永福花园,6,7222,,120.690279,30.533670,工人路365号,891826
青年园,1,13333,0.153473,120.866376,32.012866,莘园路,917316
绿城花园,1,21333,0.105280,120.658065,31.320089,飘一路17号,888394
常熟玲珑花园(别墅),2,10750,0.000838,120.851783,31.561755,金唐路128号,885348
嘉怡苑,1,48780,-0.106822,120.683017,31.313621,金鸡湖路8号,888364
大成郡,1,13262,0.000244,120.535364,31.263886,金枫路980号,887733
泰安新村,2,24057,0.013268,120.759609,31.657272,泰安街,885120
亿丰财富公馆,1,8566,-0.143350,120.077942,30.855191,港南路，近二环西路,990891
丽景花园,17,8823,-0.002374,120.990092,31.390020,前进中路,883803
盐平春晓苑东区,1,8221,0.296892,120.960588,30.539131,海丰东路，近新桥北路,1010366
江南春堤牡丹苑,10,9459,0.126071,120.965097,31.312484,俱巷路913号,883669
东苑新村,5,7435,0.058363,120.570516,30.632955,和平路,892444
南湖星辰湾,1,10891,0.177787,120.772713,30.789101,锦绣路199号,798058
绿岛雅苑,3,8088,-0.034614,120.555787,30.654190,庆丰北路,892485
花好月圆,11,17500,0.018093,120.623815,31.379931,齐门北大街1259号,888829
鸿翔书香苑,2,10000,,120.680478,30.528317,文宗路96号,890604
天成丽景,1,6818,,120.915856,31.505899,中华路，近茆沙塘北路,884093
金色港湾,20,11876,0.022074,120.455406,30.454675,修川路,798198
红丰新村,1,10329,0.239530,120.098912,30.865454,红丰路,939011
优优滨海,120,10574,-0.039164,120.967627,30.546657,盐北路，近滨海大道,890515
海宁百合新城(东区),1,9301,0.000215,120.694141,30.505745,文苑南路,890543
老年公寓,12,7348,-0.014485,120.741913,30.780210,东升中路,889902
河畔花园,2,14107,-0.083664,120.552097,30.643995,茅盾西路215号,892454
上郡花园,4,9722,0.002268,120.997197,31.272704,少卿西路，近宏洋路,926377
金山苑,2,16000,-0.025341,120.790599,31.642340,香椿路,884925
虹兴小区,2,11000,-0.116537,120.656566,31.156475,花园路2268号,886888
水韵金城,9,9602,-0.074149,120.940995,30.882028,木业大道643号,556488
赞成清华府邸,12,9795,-0.024014,120.743782,30.744358,城南路1038号,890115
中山名都,2,11000,-0.032627,120.752605,30.769118,中山东路639号,890128
丹桂名园,1,6304,-0.364836,119.927989,30.998014,长吕大道,939462
友谊家园,1,28977,0.123052,120.879683,32.036663,濠东路228号,917398
凤凰公寓,5,9545,-0.027212,120.569908,30.633805,振兴东路，近人民路,992989
朗晴园,1,9714,0.008199,120.940716,31.402579,虹桥路655号,883793
丽水湾(东区),2,12295,0.384884,120.964356,31.243084,商鞅湖路,989826
旭辉御府,3,17619,-0.004633,120.553522,31.322685,长江路,791965
曙光新村,7,16010,0.229874,120.634338,31.320975,临顿路,885772
花亭小区,1,8595,0.000171,120.923855,30.849966,花园路,890365
金都佳苑,3,12022,0.154186,120.697613,30.761723,秀清路368号,890222
兰庭小区,1,9250,0.053531,120.896468,30.946371,西园路319号,941379
海悦花园三区,1,21123,,120.757098,31.324819,钟园路，近琉璃街,888624
百合花园,76,9325,-0.036674,120.563107,30.645698,中山东路,892429
金凤城,31,9092,-0.290020,120.804814,30.339630,凤凰路38号,917182
新雅公寓,4,10000,0.377221,120.766175,30.769058,中山东路39号,1006364
太湖纯水岸,17,14652,0.090179,120.431176,31.229758,伍相路1号,887998
中南世纪花城三期,2,13411,,120.921844,31.985460,世纪大道，近世伦路,917620
莲花新村一期,1,11935,-0.057416,120.598139,31.327902,玻纤路108号,885538
华润橡树湾,1,14026,-0.001166,120.955287,31.937197,复兴东路588号,917696
春天花园,1,9851,-0.239657,120.584693,30.634089,振兴东路,892438
北城新境,6,10847,0.014592,120.955218,31.454996,迎宾中路,883307
中天锦绣诚品,102,11386,-0.004372,120.685595,30.545193,隆兴路89号,1026580
建成丽园,1,4891,0.081362,120.578104,32.281848,如港公路,1010377
四海家园,2,7051,,120.949359,31.935878,复兴路,917688
罗星公寓,6,13676,0.337375,120.938936,30.843486,罗星路,890399
东鼎名人府邸,1196,11666,-0.016689,120.912548,30.887146,善西公路,780044
绿地新里铂克公馆,7,26829,-0.014546,120.744709,31.699242,深圳路,885000
赞成学士府,7,9444,-0.017785,120.133449,30.882939,二环东路,939201
碧桂园十里江南,337,15600,-0.005292,120.874211,31.094671,张园东路1450号,887140
名人华城,5,7692,-0.218928,120.996014,31.278103,宏洋路,883888
梦兰苑,2,17629,0.232487,120.796387,31.629329,梦兰北路,885006
信远朗庭,6,9473,-0.045061,120.734696,30.787977,中环西路2346号,890277
绿地太湖城,8,12727,-0.024003,120.605416,31.132782,东太湖大道8899号,886853
西湾新村,1,10743,-0.270424,120.979006,31.386352,珠江北路,884143
水秀江南,1,12232,-0.021440,120.950034,31.415366,水秀路1207号,884674
东欣新村,1,8823,-0.287376,120.509587,31.258774,灵天路,887739
风景英伦,1,17692,0.397141,120.924809,31.410669,萧林中路,883443
茶香坊(北区),2,9659,0.145789,120.797806,30.795018,章园路,890161
虹桥小区,2,17732,0.232245,120.594514,31.315162,金门路778号,885518
西塘小筑,74,25450,-0.113624,120.630167,31.282214,西塘北巷12号,887630
南溪花园,55,9186,-0.039222,120.775393,30.763175,纺工路262号,889940
西门北村,22,13600,0.289711,120.544705,31.871761,龙须弄，近梁丰路,889530
大树金港湾,5,8181,0.006149,120.745204,30.738607,由拳路499号,889745
常绿景苑,3,9117,-0.039406,120.924286,30.515735,河南西路298号,890465
建涛御花园,38,9513,0.017869,120.934177,31.282940,海虹路,883664
龙隐水庄,5,9726,0.146664,120.847106,31.138150,大学路66号,883828
金塘园,5,25454,0.294315,120.986567,31.414867,金浦路,883706
君悦豪庭,15,11979,0.056908,120.985014,31.381082,长江中路168号,884622
嘉都名苑,9,10314,-0.067282,120.922116,30.850030,花园路55号,798192
保利山庄,3,8638,-0.161799,119.736734,31.128418,s301,939452
景润苑,1,8668,-0.125240,120.374074,30.446150,石桥路,890895
万达公馆,409,11904,-0.006676,120.803298,30.742026,广益路,1006353
翠湖苑,3,7075,,120.586082,32.401343,中山东路，近万寿路,926282
如意新村(别墅),1,4906,-0.140354,120.670129,30.914694,如意路,887360
祥生悦山湖,3,12272,0.027634,120.090446,30.921637,德清路，近同心路,990886
保兴里30号院,1,15000,-0.162152,120.624099,31.291304,保兴里30号,886006
紫云东郡,7,16043,0.233128,119.723317,30.630884,后寨路777号,939714
富力湖州壹号,90,10238,0.003479,120.153125,30.858282,湖东路,994846
万科金域蓝湾,2,24226,0.048972,120.869286,32.055436,永怡路558号,917827
嘉盛龙庭,10,8333,-0.001199,120.705880,30.772105,聚贤路,890213
镜湖花园,41,9523,0.049366,120.678194,30.920933,如意路418号,887304
大众湖滨雅园,5,15789,0.001078,120.864543,31.032656,浦港南路568号,887144
新湖明珠城聆湖苑,8,16477,-0.004952,120.647899,31.191294,柳胥路,886813
嘉兴总部商务花园,46,6202,-0.261930,120.824534,30.745164,广益路,889867
阳光公寓,1,14023,0.001679,120.892976,31.998553,工农南路185号,917258
西湖苑,1,16811,0.170194,120.529211,31.858281,西湖苑路,889529
万科海上传奇,293,17206,0.002476,120.741272,30.743001,城南路1155号,798055
南港悦府,14,12500,0.258685,120.479255,31.003404,沿湖东路48号,800129
东山天境,1,20000,,120.425196,31.098930,湖滨路1号,658045
人民路222号小区,2,21818,,120.634472,31.290023,人民路222号,886239
海湾公寓,1,6718,-0.234154,120.547330,30.650146,求是路243号,992995
御景豪庭,16,8764,0.038389,120.539980,31.016826,商业街315号,887133
东方丽池,2,10000,-0.002295,120.984942,31.366453,庆丰西路298号,883407
广宜文苑,13,9887,-0.000708,120.790789,30.744291,景宜路1055号,889802
金山别墅,5,16332,-0.119521,120.518638,31.279336,灵天路,887779
龙熹园(A区),2,10882,0.134842,120.900347,30.894630,窑砖北路79号,890451
利铭花园,29,6958,0.230416,120.268921,30.725610,莫墙线,995195
亲亲家园,6,7567,-0.001847,120.728126,30.730857,骏力路211号,889949
明华月亮湾花园,2,15312,0.033408,120.433033,30.863374,嘉业南路318号,939274
华章御树湾,4,10977,0.036838,120.829547,30.747963,智慧路,889829
富民新村,3,7706,-0.137549,120.937565,31.926210,厦门路,917707
金茂花苑,3,9012,0.175427,120.367150,30.639654,河山大街132-138号,926330
汇金广场,1,8333,0.106053,120.592943,32.111819,长江东路,918328
星光耀花园,6,11944,0.039422,120.552755,31.361465,虎池路1588号,885364
泰和苑,10,11794,0.001019,120.956330,31.379331,朝阳支路63号,884082
雅苑,2,20000,,120.455259,31.283930,藏北路22号,887909
绿城玫瑰园昆山市,3,19953,-0.004242,120.850477,31.442726,湖滨路3888号,883839
怡南花园,4,7934,-0.005640,120.748357,30.752509,城南路516号,890085
平安家园,11,14830,0.139630,120.775429,30.790405,塘汇路,890248
柳桥长安华府,5,10408,0.237192,120.456736,30.448205,修川路630,925374
越秀里小区,2,10000,-0.003885,120.740390,30.762323,吉杨路280号,890109
阳光城愉景湾,3,41666,-0.012397,120.723373,31.252114,东方大道，近星湖街,887425
徐庄公寓,1,10000,,120.648497,31.382145,依福园路,888902
郎诗未来街区,3,29444,-0.028507,120.756045,31.376547,青澄路9号,888251
港湖花园,1,7865,-0.076661,120.108392,30.893715,太湖路388号,938988
景辰大厦,6,9456,0.227161,120.931777,30.824494,嘉善大道666号,941369
状元新村,1,21882,0.326212,120.956991,31.386820,状元泾路,884398
新贤园小区,27,7647,0.013653,120.807775,30.669947,五星路,890051
创都国际名城,2,8474,-0.180385,120.715938,30.641450,梅北路666号,890171
锦溪江南美墅(别墅),5,9157,-0.056174,120.024239,30.671625,建设路1号,939058
莱茵河畔,5,14000,0.202646,119.920406,31.044107,锦绣路，近合溪新港路,1006347
文星花园汇龙苑,6,8627,0.005947,120.779803,30.748212,凌公塘路773号,890026
天河理想城,197,9211,-0.006739,120.084654,30.847662,田园东路77号,939146
唐韵花苑,148,10206,-0.009703,120.623420,30.795529,兴镇路，近虹桥路,991003
新城花苑,1,6776,-0.072094,120.564193,32.508335,南新路,917939
绿港嘉苑,1,8854,0.063160,120.697033,30.492976,海昌南路，近长丰路,952806
万丰公寓,1,10675,-0.217052,120.928586,30.714300,万丰路,890005
茗景苑C区,1,7728,-0.090824,120.909638,31.352488,大众路，近姜巷路,883892
乌镇悦景庄,2,19117,0.018433,120.529072,30.740567,子夜东路1508号,993030
五峰山枫林山居,2,14141,0.317280,119.585216,30.602462,306省道,989734
长江城市花园,26,9715,0.224540,120.562025,31.865005,沙洲东路20号,889613
翠堤紫府,1,7291,0.100694,120.622228,30.798635,虹桥路495号,890177
天顺花苑,2,5800,-0.106593,120.577823,32.107881,长江路，近通江路,926268
巨匠义圣名苑,10,10112,-0.000099,120.734058,30.743555,中环西路,889893
优优学府,33,12386,-0.090268,120.174538,30.854018,草荡漾路，近小山路,1033219
加州阳光城,11,8666,0.016659,120.971799,30.913332,洪福东路666号,527415
古荡佳苑,21,8352,-0.056484,120.945976,30.544962,华丰路,890472
翡翠湾(别墅),1,13937,,120.719829,31.633639,环湖南路，近尚湖中央大道,885313
雍景湾西苑,9,16129,0.277241,120.970969,31.377397,柏庐中路,884291
中秀苑,1,6463,,120.740864,30.776724,洪波路675号,890132
向阳花苑,1,11000,0.064757,120.640632,31.969271,锦店路,889545
万科悦中环,315,11355,-0.010155,120.731320,30.772947,中环西路，近洪殷路,890330
鑫茂东苑,101,8923,0.159886,120.988372,31.476689,鑫茂路360号,884669
世纪嘉园,3,6880,0.064851,120.729770,30.764057,中山西路658号-672号,890255
绿城柳岸禾风,47,13055,0.226974,120.786651,30.796141,塘汇路，近茶园路,1012476
海风苑,1,6552,-0.133333,120.964077,30.526394,城东路,890473
新虹桥花苑,1,7040,-0.218212,120.770545,30.775827,城东路,905025
佳源英伦都市,228,9182,-0.007459,120.821434,30.746947,新风路,939499
禾旭华府,2,4634,-0.005152,120.173321,30.788846,袁家汇路,939233
蓝天嘉苑,18,9101,-0.045817,120.756639,30.738430,新气象路929号,889901
紫金南苑,5,7671,0.010871,119.905667,30.999503,紫金路,939612
金都花园,1,9285,0.057517,120.959240,31.411565,北门路,883689
锦绣家园,3,7215,0.047546,120.584717,32.109432,纬三路18号,918352
水木晶华,28,10000,0.024905,120.956033,30.839593,晋阳东路859号,890414
财富之星,2,9181,0.093236,120.442264,30.468367,环镇北路311号,952788
太湖黄金水岸(别墅),4,14678,-0.163599,120.472146,31.227294,环太湖大道,888027
中都华庭,1,8404,-0.008728,120.956360,30.785029,康兴西路，近云溪北路,952782
天凝金水湾,11,8602,0.029933,120.819726,30.898785,兴贤东路,556918
虹桥花园,13,11818,0.080849,120.945204,31.391721,马鞍山路231号,883556
云谷周庄(别墅),11,10752,0.007591,120.868652,31.154685,大桥路1688号,884338
SOHO宜家,1,5757,-0.309960,120.731428,30.754403,中环西路342号,927341
中兴公寓,2,10000,,119.974499,30.531013,中兴南路568号,939447
合景领峰,10,14957,-0.002135,120.534404,31.279879,金枫路268号,887755
中南世纪城(别墅),2,13600,0.006811,120.648475,31.134923,中山南路,887086
顺城锦湖湾,6,11000,0.023256,120.915482,31.177596,长寿路,884066
碧水云天,73,12533,0.010400,120.834656,31.024821,新友路,941272
恒熙湖庭,2,19444,-0.105529,120.685565,31.288445,通达路1988号,888703
花园新村,2,15000,0.017225,120.979385,31.378815,环城东路,883587
锦江苑,2,15841,0.148981,120.865595,32.034008,钟秀中路,917386
湖墅帕提欧,1,15117,-0.110735,120.853711,31.401495,湖滨南路288号,883565
华庭现代城,5,8750,-0.003871,120.698095,30.516210,海昌路,890671
南庭嘉园,3,18260,-0.029033,120.955274,31.370491,衡山路,883903
广益大厦,253,10000,-0.003786,120.824420,30.745707,亚欧路465号,912651
金鼎广场,1,9525,0.166912,120.759564,30.771516,建国南路400号,1006366
青剑湖花园二社区D区,1,12648,-0.283615,120.709696,31.363952,亭新街,888266
吉翔澜山,49,10222,-0.018154,120.711153,30.547281,碧海路,925385
海宁江南世家,22,10204,-0.008743,120.699938,30.499938,海昌大道,892083
盛大开元,3,11000,-0.000273,120.570114,30.624814,人民路,892503
新城丽园,13,10227,0.191125,120.989286,31.365254,庆丰路,884188
嘉兴苑,7,10000,-0.036702,120.958786,31.425531,北门路1209号,883651
桃园新村,5,9833,-0.028648,120.960701,31.385491,中山路,884088
杉杉in象,177,11111,-0.001707,120.732647,30.780637,中环西路，近东升东路,890329
万通城,1,8333,,120.943991,32.026681,太平路,917589
秀景苑,1,8988,-0.060324,120.798466,30.670390,贤埭街,890059
景华城,1,15238,,120.845748,32.017635,任港路50号,917310
圆梦天地,3,6734,0.038717,120.901344,30.947109,西园路88号,804441
月浜一村,1,12714,-0.279986,120.640896,31.276071,月浜街,887673
嘉悦大厦,194,10319,-0.000194,120.740188,30.765507,中山东路1292号,991788
石榴坊,7,8033,-0.006923,120.779360,30.760274,农翔路,927324
雅苑,5,11235,0.304272,120.437662,30.814104,兴横路,939310
盈湖花园,155,8461,-0.035564,120.939845,30.828816,农商路333号,890435
东园一村,1,9207,0.226946,120.317990,31.136499,东园公路,888102
东方润园,13,10800,-0.010627,120.928365,30.707788,平林路928号,889755
弘信观湖,25,10679,0.065981,120.762504,30.831289,奥星路191号,610586
新城金樾,918,10000,-0.004579,120.979782,30.681138,九场公路，近S202,1023925
镇南新村张家港市,2,4638,0.000244,120.681929,31.972291,人民路,889623
天香花苑,15,9739,-0.028529,120.857107,30.751663,天明路478号,889996
金陵花园,1,11428,-0.265411,120.800569,31.365569,金陵西路,888204
紫阳公寓,1,7444,-0.019623,120.757476,30.761888,环城南路303号,890140
乔克国贸中心,68,13942,0.136957,120.932108,30.826874,嘉善大道518号,941368
海宁百合新城中区(别墅),1,12048,-0.234756,120.690607,30.503788,文宗南路185-1号,890548
正大家园,1,10208,,120.652587,31.173598,中山北路113号,886992
金溪五村,22,16857,-0.056582,120.931755,31.040830,培育路125弄,818155
竹园四季花城,11,11360,0.129499,120.964497,31.399577,紫竹路,884396
锦绣家园,14,10090,0.313973,120.646561,30.985421,学才路29号,887217
招商雍华府,5,37078,-0.008901,120.535459,31.276886,金枫南路8号,887920
雪松里,6,7272,-0.181818,120.935423,30.844455,谈公南路,890428
华润国际社区,2,14756,0.021813,120.935438,31.390908,鹿城路218号,883776
万盛家园,1,12000,0.298982,120.703077,30.751711,文昌路2333号,890008
旭辉朗香郡,16,10447,0.023915,120.694416,30.757351,秀园路,791966
商榻老街小区,100,9929,-0.059885,120.934063,31.127372,商榻北路278号,652550
裕丰大厦,1,10975,-0.204941,120.952907,31.410086,萧林路1023号,884496
双洋湖水秀庭院,7,9206,-0.286025,120.958657,31.250267,天盛路68号,884054
尊贵丽景家园(别墅),1,8770,,120.932125,30.706765,盐丰北路19号,890144
山湖花园弘雅苑,1,11851,0.091252,120.693091,31.154010,庞东路，近湖心东路,887020
洪兴花园,1,8666,-0.243540,120.724383,30.768989,常安街208号,890204
虹桥世家,2,14392,0.000244,120.595507,31.310827,虹桥路6号,885517
景江花苑,11,8896,0.044435,120.965601,30.914956,新景南路192号,617044
乌桥水岸花园,3,10750,-0.000465,120.660241,30.925619,盛泽大道，近盛泽西路,798915
佳源优优华府,810,11368,0.024883,120.716681,30.722345,嘉杭路，近开禧路,927358
三元新村,6,31190,0.001381,120.583281,31.311355,金门路,885572
水岸华庭,1,12380,-0.238060,120.535895,30.635933,和远路，近和悦路,993027
中远华城,1,7878,,119.928844,31.042081,发展大道,939608
豪天花苑,234,6354,0.008251,120.591509,32.110665,长江东路,918311
香缇御峰,1,12258,0.163771,120.783457,30.719572,纺工路,890040
S半岛清水湾花园,1,17857,-0.021427,120.629560,31.246690,澄湖西路111号,887433
名都绿洲,2,8947,0.016012,120.704901,30.765537,聚贤路,890243
首开幸福广场,1,11111,0.009815,120.628834,31.227646,邵昂路，近兴昂路,1002469
怡苑豪宅,68,8333,-0.005134,120.766058,30.773638,解放路69号,890086
平湖塘花苑,237,8695,0.038953,120.856508,30.747226,天宁路,889946
象屿珑庭(二期),50,12285,-0.011427,120.955062,31.364081,珑庭路,989806
达多灏庭,1,11428,-0.012358,120.089403,30.869502,红旗路,938953
恒隆商业广场,6,10000,0.112471,120.908700,30.946854,祥符路，近南苑路,941373
南塘琴园,2,9362,0.156578,120.943930,30.519677,朝阳西路94号,890488
万豪佳园,3,7420,-0.050908,120.973252,31.613411,支塘集贤路,794389
阳光新天地,1,11000,0.080869,120.660530,31.139218,花园路1888号,887077
嘉宝花园一期,3,28480,-0.000632,120.646847,31.275758,迎春路174号,887501
绿城百合园,9,12397,0.236412,119.909390,31.010923,县前西街189号,939540
金都花苑,3,5714,-0.208806,120.373693,30.442504,天顺路177号,890745
阳光天地,9,14000,0.076923,120.701535,31.251875,环湖路,887409
澳洲花园,58,9354,-0.237404,120.965784,30.916477,新景南路,890335
翡翠公馆,271,11965,0.004576,120.944333,30.875380,申友路1号,908960
幸福花园,1,6036,-0.082953,120.685220,30.534756,西山路858-860号,891769
嘉裕广场,19,12532,-0.007877,120.991276,31.404928,春晖路,883654
新康花园金碧苑,1,17307,-0.224041,120.601255,31.288296,桐泾南路181号,886061
金都景苑,25,8287,0.020190,120.724713,30.764066,中山西路958号,798057
桃园小区,3,11470,0.035853,120.949667,31.236482,桃园路，近洛阳西路,884512
水榭蓝湾,33,9264,-0.002906,120.919513,31.181217,长寿东路,884061
维达一村,1,6547,0.262194,120.643296,31.820531,人民路,889522
瑞香花园,5,11282,,120.928218,30.854368,瑞香路16-18号,890407
跃进新村,6,13696,0.077492,120.966516,31.374740,跃进路,884332
东湖新村,3,13989,-0.078883,120.635108,31.232106,盛城路,887451
凤凰新城,23,4347,-0.069364,120.364974,32.649469,墩头路,926351
星光汇商城,4,12651,-0.003348,120.682131,30.498272,江南大道,892166
好第坊,56,7000,,120.831449,30.743293,中环南路,767010
合景峰汇一期,1,18750,0.072900,120.611207,31.370158,人民路,888958
东苑村,1,12564,-0.145887,120.636089,31.276979,东苑路56号,887461
福临新家园,1,7777,0.345967,120.754484,30.786344,禾兴北路389号,797420
天目新村,1,6947,0.082256,119.703342,30.633532,天目中路,939698
南方大厦,17,7600,-0.067828,120.885968,32.038840,工农路108号,917388
四季花园,1,9523,-0.143076,120.523141,31.878887,百桥路，近暨阳西路,889495
德信泊林公馆,13,9659,0.004785,120.966158,30.533547,城东路,890468
兆丰嘉园,1,15142,0.009198,120.887671,31.992270,洪江路85号,917253
正荣悦岚山,6,10093,0.012235,120.482621,31.389657,真山路,886728
金洲海景,304,10631,-0.012448,120.969418,30.548988,盐北路，近滨海大道,940422
高新花园,2,10000,-0.010391,120.656419,31.149542,体育路358号,886882
绿色家园,3,13488,-0.277867,120.084744,30.891305,山前路118号,939084
攀华国际广场,2,9019,0.040014,120.576089,31.844886,东南大道,889454
木浪小区,1,10000,,120.652846,31.174503,木浪路246号,886939
东湖金悦,171,8004,0.014963,119.991154,30.989926,滨江大道,946359
绿都姑苏雅集,19,39583,-0.011710,120.632247,31.295494,人民路，近东二路,1024528
华阳花苑,1,18269,-0.276504,120.639643,31.328822,东北街59号,885848
假日半岛(别墅),32,10752,0.022539,120.868355,31.121194,全功路,883660
合景峰汇六期,2,19000,-0.085879,120.607138,31.371959,文灵路,888952
合悦江南,27,12579,-0.119241,120.572686,30.545333,悦容路,892450
丽江苑,2,18088,-0.207987,120.755750,31.676388,长江路286号,884976
恒隆商业广场,14,8920,-0.028428,120.703964,30.784778,东升西路1229号,911217
仁宝新天地,129,8956,-0.013113,120.957675,31.369061,衡山路1399号,883979
南通东苑小区,3,16477,0.006844,120.884491,32.025843,人民东路,917471
新华新村,1,9218,-0.224139,120.675928,30.909228,东方南路，近舜湖东路,887364
禧悦,272,23487,0.019555,120.570238,31.297512,滨河路999号,886612
御溪雅苑,6,16283,,120.919095,31.177596,环湖北路168号,884467
金泰城,58,19926,-0.013222,120.701085,30.505176,新苑路,1015057
文苑小区,3,6013,-0.184125,120.121842,30.869363,外环东路,939167
锦绣江南,4,10000,0.008166,120.608934,31.075803,同心西路88号,887128
碧悦湾,30,9795,0.013188,120.939673,31.300015,振新西路999号,883324
佳源优优中环,538,11885,-0.000799,120.786945,30.776975,中环东路，近长安路,1024177
枫泾新村一区,1,20000,0.210287,120.762342,31.653432,枫泾路,884809
枫景苑A区,83,9027,0.020923,120.966585,31.353207,柏庐南路,883445
万达广场住宅,8,16666,0.008838,120.621754,31.348985,人民路3188号,885436
金汇奥园,27,9260,-0.063511,120.958892,30.536915,海丰路，近新桥北路,890508
嘉兴日报宿舍,1,10625,0.342112,120.699936,30.763519,中山西路265号,890215
京昌苑,1,10537,-0.158454,120.781525,31.600064,湖山路,884795
颐和花苑,7,7051,-0.133677,120.701471,31.812412,永进东路15号,889587
格林悦城花园,1,11403,0.088072,120.683525,31.189091,淞兴路2号,988071
蓝金苑,1,5670,0.002830,120.652258,30.425961,广场路，近镇中路,892123
格林春天,22,10472,0.032233,120.928175,30.852383,车站北路118号,890362
滨江花园,5,14711,0.020356,120.978670,31.406441,汉林路,883325
中良新塍花园,13,9385,0.033190,120.616915,30.795233,兴镇路,780835
伟业银座,1,8275,-0.011940,120.668298,31.167906,云梨路,887032
庆盛名邸,1,10169,-0.049626,120.921675,30.516465,曲秀路311号,1010361
中兴小区,1,8045,-0.152623,120.545268,31.177813,中兴路,888085
中海御湖熙岸(别墅),7,57777,0.028317,120.690420,31.304078,金鸡湖大道,888475
碧桂园,161,13437,-0.056920,120.468703,31.379205,华通路299号,886669
华敏世家花园,3,12342,-0.006600,120.991774,31.388780,前进中路,883600
庆丰苑,1,18571,0.339996,120.809066,30.759346,南溪东路96号,889958
望江新村,133,6769,-0.011680,120.891890,31.278860,震阳路126号,884130
上海威尼斯花园,132,17024,0.002060,120.927180,31.072862,沪青平公路8600号,8734
富贵景园,1,15944,0.235777,120.858824,31.121503,富贵园路,883468
久强幸福湾,1,6489,,120.637305,32.396047,双群东路，近中山东路,1010393
金大元御珑宫廷,16,62337,-0.002863,120.919393,31.415422,博雅路，近萧林西路,884483
清水湾(别墅),1,16733,-0.081160,120.928420,31.404910,花园路2813号,884637
星宝花园,1,11000,-0.041812,120.666398,31.139840,长板路,887076
桃花源,12,23000,0.191031,120.957789,31.401073,娄苑路818号,884086
锦都名邸,40,9866,0.162347,120.642550,31.965967,永新路,889390
宜家公寓,2,38978,-0.215324,120.667477,31.314790,苏茜路98号,888449
优优湘洲,18,10156,0.094515,120.364676,30.582019,公园路128号,996025
金湾别墅苑,1,7000,,120.454609,31.924889,塍西路69号,889383
聚成广场,1,8715,0.067753,120.740833,30.740087,城南路，近由拳路,927355
中梁壹号院,20,9684,-0.068488,120.710100,30.500543,江南大道，近农丰路,952796
湖畔御园,29,8916,0.014681,120.643820,31.774193,西凤路,801523
合兴苑,2,8717,-0.176943,120.977852,31.371721,合兴路343号,883530
海盐金色海岸,24,11823,-0.004840,120.967859,30.537590,新桥北路281号,890507
春波景苑,3,7647,-0.121842,120.769236,30.775753,大新路193号,363888
阳光水岸,8,11153,0.121806,120.131710,30.866528,湖东路,939188
万科吴越,75,11445,-0.013872,120.718305,30.772683,吴越路536号,991000
云川名都,1,13333,0.224897,120.616798,30.496363,云川路,891856
白鹭名邸,1,12750,,120.930947,31.430211,玉湖北路288号,883279
果园新村,1,14000,0.084431,120.768755,32.043603,果园路,917736
姑苏院子,13,40000,-0.015966,120.592866,31.322892,西园路66号,885620
丰泽园,1,14767,,120.854209,31.436080,湖滨南路680号,883440
纳帕尔湾山庄,62,12852,-0.012752,120.996508,31.194851,新乐路1666号,883898
景华园,1,7727,-0.122630,120.450720,30.451851,景华路178-3号,890883
滨海未来城(人才小区),61,8571,-0.039018,120.952811,30.547694,华丰路，近长安路,941363
梅里公寓,1,8522,,120.638011,31.160483,仲英大道47号,886933
江南岸,1,10352,-0.333720,120.837250,31.032044,临沪东路1222号,450240
金润玺景苑,5,10992,-0.010086,120.637360,32.403794,中山东路，近如泰运河大桥,1030932
凤凰花苑,3,5157,-0.160508,120.635371,31.770144,凤恬路，近凤北路,889260
新都国际,3,9000,-0.012833,120.578504,32.386412,福寿路,918412
优优花园,50,10595,-0.016979,120.764606,30.726095,长水路,890093
聚宝华府,14,8478,-0.033075,120.623509,30.679230,凯旋路,993050
太阳岛高尔夫别墅,4,14285,-0.139043,120.950027,31.257293,碧云路195号,884080
海图公寓,44,10379,-0.121392,120.931694,31.119237,宝银路139弄,8603
瑞丰花园,1,10958,-0.032406,120.851279,32.028132,食品路,917319
腾飞新村,1,7194,-0.040800,120.744303,30.751298,真合路,889988
申大苑二区,1,21200,0.120271,120.753746,31.680198,李闸路,885094
春申二村,1,7000,-0.365079,120.565276,31.438632,春申路,889031
南郊花苑(北区),8,9272,,120.761722,30.725000,马塘路278号,889939
龙山景苑,2,7654,-0.229747,120.785526,30.423539,龙山路，近龙晓路,952792
华萃庭院,3,8076,-0.052224,120.116322,30.957438,浮霞路,939020
苏州福园,4,11662,-0.229384,120.399613,31.302940,塔山路1号,887996
方海大楼,1,5102,-0.103969,120.694400,30.530382,水月亭西路142号,890537
恒润太湖壹号,1,18269,-0.005877,120.435330,31.225818,梅舍路1号,887985
润江花园,13,9000,0.000171,120.951643,30.787413,云寺西路139号,890408
恒基曼城,1,30153,0.213889,120.792267,31.637438,香榭路10号,884849
华发雅苑,6,9278,-0.084649,120.758894,30.732695,珠庵路219号,889826
春漪园,6,11250,0.352326,120.976175,31.374464,珠江南路,883369
中熙梅里江南,29,10000,-0.040491,120.718333,30.641942,梅北路，近梅秀路,1012469
阿里山花园,1,14285,0.062240,120.938382,31.394520,马鞍山路360号,883266
大同新村,1,8823,0.040080,120.964829,31.369128,衡山路,883384
纳帕溪醍,52,23076,0.228754,120.931842,31.149217,锦商路66号,884551
金水湾,1,7840,-0.321212,120.915022,31.936949,常青路,917643
明珠苑,2,10000,,120.964878,30.540130,海兴东路21-2号,1010360
锦溪江南美墅,7,8500,0.105332,120.023943,30.671711,建设路1号,939059
盈都牡丹城,3,9733,0.015865,120.678911,30.540839,洛隆路282号,891812
西门南村,5,16363,-0.053834,120.543685,31.870031,西门路，近盘龙路,889231
金盛花苑小区,2,10000,,120.497495,32.539268,黄海大道,917906
中港白金大厦,244,10000,-0.020184,120.963976,31.933455,长虹路6号,995630
龙鼎国际公馆,76,9045,-0.022902,120.724604,30.758360,龙凤路，近龙舟路,927322
森隆蓝波湾,1,9518,-0.002724,120.942218,31.288125,学士路188号,883992
湖滨花园,1,9886,0.079965,120.773022,30.769976,人民东路132号,890149
明珠花园,1,8287,-0.134788,120.959591,31.403359,花园路761号,883889
枫景苑C区,95,8857,-0.010723,120.960143,31.354543,雁荡山路,883447
鑫苑鑫城,1,12173,0.008534,120.642035,31.427915,南天成路,889143
恒达星湖湾,3,11428,0.138247,120.668504,31.157607,运东大道,887010
银泰花园,1,6666,-0.219072,120.939321,30.864744,谈公北路777号,890434
汇丰新村,1,5000,-0.119253,120.546360,30.626085,校场西路,892465
格林小镇,17,10663,0.048835,120.794128,30.745506,格林路199号,889797
海上新园,4,10000,-0.051593,120.740988,30.743883,城南路,889805
富安御园,1,9444,-0.002219,120.753537,30.784299,三元路818号,889791
淀山湖别墅,128,25000,0.003734,120.924067,31.071855,金商公路1348弄,877245
花语湖,1,9630,0.110400,120.752570,30.797040,禾兴北路,890205
明月社区,1,7032,0.000171,120.744625,30.762090,吉明路37号,889932
江南春堤玫瑰苑,1,9213,0.001958,120.963603,31.314504,俱巷路894号,883668
凤和园,1,7926,0.000631,120.934012,31.507708,中华路，近长江北路,883451
通运花园,1,8750,0.211073,120.637794,30.983029,通运西路104号,887232
金地都会艺境,495,12045,0.038989,120.814447,30.676806,新昌路，近幸福路,944520
首创青旅岛尚,34,13846,0.048622,120.921143,31.162634,同周公路，近溪锦商公路,884049
力宝翡翠花园,1,10000,0.010611,120.793597,30.753939,望湖路585号,889905
爱渡小镇,3,11264,-0.048166,120.851655,31.128203,爱渡路,884691
润土嘉和,22,10416,0.070504,120.927525,30.853665,环北西路115号,790520
佳源优优城南,52,12041,0.069741,120.735666,30.735902,创新路，近城南路,927346
新宁小区,1,5115,-0.001166,120.482497,32.548645,新宁路,917941
碧桂园中央公园,117,10602,-0.043313,120.973605,30.549029,盐北路，近滨海大道,1032296
清水湾别墅,4,17485,0.016511,120.983330,31.195556,锦淀公路88号,884698
淀滨宝岛别墅,29,16265,0.000061,120.930578,31.118617,宝银路175号,817491
德尔金色摩纺,1,9756,0.020289,120.647708,30.903486,市场路1号,887353
晋阳公寓,1,10210,-0.204666,120.930135,30.840628,晋阳东路53,890387
同乐社区,2,6222,0.028260,120.749877,30.775865,同乐路433号,890004
万华金御湾,51,7439,-0.007339,119.941685,31.026258,中央大道,939558
佳源都市(三四期),18,10221,0.093326,120.777200,30.786582,佳园路，近凌塘路,927321
风清云都,1,8089,-0.000371,120.738727,30.773171,洪越路36号,889776
信达东郡,10,11818,,120.792363,30.756810,景宜路,905030
金山苑一区,3,17000,-0.036718,120.790704,31.642429,金山路,884931
狮山当代MOMA,3,26041,-0.157587,120.538871,31.283342,竹园路，金枫路,886640
星城时代商业广场,4,11777,0.001446,120.650619,30.910812,舜湖西路,887342
豪仕登大厦,19,11200,-0.114134,120.733562,30.762848,吉杨路639号,1024169
中梁壹号院(别墅),7,13765,-0.070276,120.710171,30.499392,江南大道，近农丰路,952795
太湖纯水岸二期,10,8478,0.002009,120.419584,31.232902,伍相路1号,887999
得力御龙湾,56,7522,0.009258,119.905726,31.042248,画溪大道2689号,939463
娄邑小区,2,19117,0.003886,120.977288,31.395243,玉龙路,883832
置信公寓,12,11666,0.124000,120.680564,30.763697,洪高路1507号,1012475
紫溪花园,1,7073,,120.754983,30.792344,中环北路846号,890319
佳源东方都市,54,11692,0.108667,120.822712,30.738920,亚欧路,927327
龙渡广场,1,9513,-0.023607,120.355650,30.430001,人民大道2368号,952805
奥斯卡花园,2,10294,0.022651,120.670153,31.170831,运东大道,887006
月亮湾,6,12857,-0.349474,120.958779,31.236010,淞沪中路171号,884452
金色华府,11,9550,0.047609,119.925769,31.026080,长城路，近中央大道,1012330
碧水佳园,38,9375,0.062323,120.889240,31.449526,祖冲之路,883323
美都铭座,40,10112,0.082771,119.924405,31.003582,明珠路61号,939542
中南闻荷府(别墅),59,11235,-0.015251,120.727296,30.879490,滨河东路,991007
金庭花园北区,3,7203,,120.318469,31.139365,东园公路115号,888109
云山诗意,1,14905,0.061156,120.996753,31.412749,横泾路633号,884341
紫轩公寓,3,9848,,120.801602,30.749197,云东路,890139
鑫隆公寓,1,5567,0.000171,120.844985,30.914309,洪兴路,890426
公园一号,33,8088,0.001238,120.391560,30.862361,人瑞西路1588号,939241
嘉辰花苑,8,10483,0.010312,120.947039,30.855605,施家北路,798191
望湖公寓,44,8809,-0.038739,120.763770,30.766396,大年堂前135号,890015
永泰花苑,3,12501,-0.000412,120.981959,31.373703,车站路399号,884527
南郊小区,1,8076,-0.005051,120.699877,30.513200,海昌南路328号,891193
紫金豪庄(别墅),3,9977,0.005442,120.821930,30.709518,民丰路,515443
银河新都,1,11046,-0.286480,120.939134,31.285124,银河路,884277
青龙公寓,1,9718,-0.015300,120.767248,30.775831,青龙街,889950
东润枫景,1,10858,0.343874,120.950301,30.848773,平黎公路,890357
万科碧桂园,52,13953,-0.020017,120.652027,31.226373,兴中路,886817
御翠花苑,26,9230,-0.069744,120.926549,30.705304,平林路969-971号,500443
观音弄小区,1,18088,0.000244,120.639771,31.309263,十梓街,886137
金色海岸,329,10898,0.009681,120.967895,30.537530,海丰路，近海滨大道,890518
海盐碧桂园,1932,10000,0.032311,120.917234,30.522669,出海路1000号,890516
云谷周庄,5,9500,0.062878,120.869422,31.153519,大桥路,884337
锦绣江南(别墅),3,8369,0.156487,120.607770,31.074976,同心西路88号,887137
开元广场,13,16808,-0.008670,120.922324,30.834429,人民大道1023号,941372
二0九弄,1,13366,-0.180854,120.960016,31.404977,北门路209弄,883310
书香名苑,8,9870,0.002132,120.686535,31.542661,新阳大道65号,885109
新南浔孔雀城(别墅),18,14606,0.261530,120.425926,30.844729,联谊路,995199
昌盛花园(西区),5,8232,-0.170863,120.722335,30.789969,昌盛中路,890164
米兰花园,1,8888,0.026802,120.130496,30.888255,清远路1035号,939089
巴黎海琴公馆,101,7777,-0.028846,120.967084,30.530635,枣园东路,890502
嘉善置地广场,232,8639,-0.034101,120.932625,30.840969,嘉善大道399号,890454
楠林水岸,214,12272,-0.033777,120.931882,31.073242,沪青平公路8499弄,8562
菊海雅苑,11,13777,0.254736,120.462253,30.619259,环城南路1088号,892541
朗诗国泰城,3,30994,0.012082,120.572146,31.873526,华昌路,889410
滨湖绿洲,4,11116,0.000225,120.926045,30.819710,白水塘路,890340
水仙坊,18,7384,-0.029188,120.778220,30.758173,南溪西路,927323
格兰春天,12,8564,-0.017382,120.766714,30.814461,天星西路255号,890193
景佳花苑,1,7646,0.000851,120.718898,30.877761,虹桥路,926327
育贤花园,3,4950,-0.001009,120.587851,32.396415,东皋路99号,918427
盛世明珠园,2,19565,0.176913,120.846149,31.132695,淀南路509号,884031
金洲阳光,5,8589,-0.024088,120.945645,30.546548,华丰路，近百尺北路,1010359
中成新世纪公寓,12,8000,-0.019608,120.799125,30.746614,中港路79号,890126
上置香岛庄园,5,11824,-0.013845,120.822815,30.815683,灵湖路,889966
滨海一号,5,10465,-0.099320,120.965231,30.525788,城东路490号,890505
新城市花园,1,11264,-0.035038,120.674372,30.540978,洛隆路,891638
滨江嘉苑,8,9010,0.011223,120.792841,30.343300,新民路，近硖尖公路,952787
苏州城市生活广场,2,12400,0.081081,120.614273,31.348970,平泷路，近花莲路,885448
风和丽苑,3,7303,-0.199671,120.707780,30.508577,钱江东路99号,890538
华天国贸广场,1,8888,,120.727374,30.729375,嘉杭路1071号,927342
锦绣江南,43,8684,-0.030154,120.731495,30.875485,运河东路1001号,656386
金都上品,4,10294,-0.002423,120.922407,30.822638,亭桥南路,890384
新景花园,25,7303,-0.012307,120.936771,32.280264,解放路,918254
叠翠峰,2,14725,0.000408,120.704576,31.255484,郭新东路199号,887391
新城香溢紫郡(南区),31,11607,-0.022486,120.972085,31.335900,青淞路，近长江南路,946584
绿地新都会,4,17767,-0.124322,120.915186,32.027745,人民路718号,917583
新湖绿都,8,8626,-0.014227,120.774235,30.766418,纺工路84号,890050
中南新村,5,7333,-0.120321,120.438877,31.955253,中南路,889633
农房斯坦福德小镇(别墅),77,7995,-0.001499,120.715336,31.925390,乐富路99号,889670
天居华庭,53,14666,-0.002788,120.921105,31.385571,前进西路,884098
汇宏新村,2,11055,-0.216846,120.897443,31.281847,汇宏路,883622
达多龙庭,2,10111,-0.091881,120.094837,30.870772,红旗路384号,939077
东方名邸,9,7777,0.012367,120.935080,30.855117,谈公北路274号,890351
海宁百合新城(西区),1,9375,,120.684956,30.502925,文宗南路185-15号,890544
大新新村,1,25977,-0.311594,120.632294,31.321166,大新巷,885701
东方悦宫,229,10666,0.014553,120.824780,30.686004,余北大街，近东余线,952903
华新花园,1,8421,0.106861,120.719039,30.765692,吴越路158号,890206
金华新村,40,17571,-0.048828,120.931841,31.120776,宝银路21弄,818553
朗诗未来街区二期,3,23684,-0.138889,120.755831,31.376214,青澄路9号,888252
昆城博奥苑,5,11666,-0.067988,120.935677,31.376833,江浦路,883768
天天嘉苑(北区),4,8928,-0.009101,120.748083,30.750987,怡南路162号,889994
新湖明珠城紫桂苑西区,1,15769,-0.013513,120.642663,31.185995,江陵西路,886839
名骏豪庭,1,8080,-0.091624,120.625111,30.798132,虹桥路,762087
天乐苑,6,16250,0.050420,120.732974,30.726786,银河路172号,889991
颐和湾花园,2,18987,-0.000316,120.627606,31.266556,太湖西路199号,887660
保利壹品,2,8557,-0.090841,120.944935,30.535052,海丰西路283号,1010350
万汇广场,65,8786,-0.081006,120.083165,30.869895,红旗路1188号,939160
鑫茂花园,1,11365,-0.000440,120.980793,31.473599,万安路,884212
红星花苑,44,4444,0.247264,120.597151,32.119829,经五路,918317
南城亲水佳苑,1,10224,-0.019751,120.944343,31.297911,商秧路,883899
秀洲小区,4,7222,-0.005234,120.695683,30.755869,秀园路128号,890289
太湖临湖湾,3,15757,0.037942,120.459469,31.133029,腾飞路605号,888059
丁香花园,3,10153,-0.120495,120.726982,30.781867,东升西路229号,890183
新星小区,1,10204,0.147419,120.610955,30.684068,桐星大道,892519
桃源新村,8,10897,-0.051362,120.959706,31.385348,中山路,884090
阳光新城,3,7695,0.037829,120.704980,30.515565,福州路59-10号,891797
绢纺三村,3,9354,0.006347,120.775698,30.760211,纺工路462号,889895
解放新村,1,10377,-0.006796,120.865330,32.014182,桃坞路,917305
景尚墅(别墅),5,11206,-0.098979,120.708955,30.784221,秀庄路,890225
锦和苑(东区),1,10294,0.012193,120.914033,30.832479,子胥路601号,890386
太湖天阕,2,15625,-0.140303,120.448656,31.228428,太湖大道66号,888005
嘉城绿都合欢苑,1,6395,0.000171,120.794088,30.779171,宜城路399号,889855
康来登花园,32,13483,0.038112,120.503318,30.736927,青镇路,996024
幽澜苑,1,9782,,120.930985,30.844675,罗星路64-66号,890438
东城华府,42,8235,-0.158062,119.989281,30.958728,广福路,939466
玉龙新村,2,8407,-0.031786,120.978311,31.393082,玉龙路99号,884310
临江景苑,4,11910,0.011293,120.916631,30.821231,体育南路1558号,890393
明珠小区,2,10204,0.124408,120.923277,30.827242,亭桥南路,890401
怡景苑,5,26984,0.000705,120.633655,31.619952,王家浜路,885212
绿中海,61,32000,0.035465,120.993856,31.369663,朝阳中路77号,883857
荣盛百合花园,90,11299,0.022441,120.794158,30.793711,城东路,1012466
天竹坊,255,7019,-0.002558,120.780315,30.763122,天竹路,889999
宏坝B区,1,7578,0.317455,120.585543,32.394269,宁海东路,918319
桃园新村,4,9096,-0.132841,120.606102,32.305125,园景路,918402
慕容城,16,10222,-0.097555,120.674460,30.542790,富兴路23号,798199
锦盛花苑,2,5288,0.042998,120.692752,32.566616,勤政路，近S221,926344
城市花园,2,6511,,120.557985,32.383222,宁海西路,918277
心泊梅花苑,1,6818,-0.225843,120.931802,31.284020,翰林路，近锦上路,884671
太阳岛花苑,8,11616,0.063055,120.542924,30.916300,双泽路,887266
艺墅家,1,11428,0.102876,120.690047,30.766542,秀园路,890301
金磨华庭,1,4181,-0.335083,120.579745,32.288813,育贤南路，近如港公路,926277
凤凰二村,8,7468,-0.313477,120.099150,30.883850,青铜路,938978
宝石花园,5,6455,-0.054970,120.329400,30.780567,维多利大道,939216
丽景佳苑,3,6818,-0.077901,120.457880,32.540237,永安北路,917915
桂林坊,1,6349,-0.054505,120.781191,30.765743,枫杨路,889803
青成名苑,12,7647,-0.035809,120.393387,30.584109,青石路16号,1034807
嘉汇城市广场,163,9402,0.045768,120.963072,30.841260,惠民大道,801496
颐景苑,1,27272,0.126709,120.874804,31.991930,洪江路156号,917250
新城东苑,1,7432,-0.001166,120.896703,31.994304,洪江路,917247
长新公寓,1,7619,-0.099515,120.749033,30.730787,翠柳路,890119
天华佳园,56,12426,0.077056,120.966205,31.373110,合丰路,884097
天邻湖景,5,17615,-0.034212,120.878957,31.239350,甫澄南路18号,888177
M旭辉城,37,16923,-0.000768,120.959234,30.913100,姚庄大道，近兴学路,1023389
嘉园,3,90225,0.021234,120.643532,31.302637,南石皮弄7号,886158
泓润新城华府,1,9851,-0.196951,120.864132,31.272701,鸣市路35号,888197
时代悦府,3,15617,,120.912402,31.384236,体育场路,884465
光福锦泽苑,5,10280,0.000244,120.398108,31.305591,塔山路6号,887983
繁花郡,1,9600,0.242718,119.673614,30.653175,通凌路，近清政路,989730
百盛花园,6,13157,0.040408,120.785866,30.751850,百盛路,889721
春晓苑,17,10000,-0.019992,120.957695,30.824000,之江路,635121
人民南路37号小区,1,16129,-0.049614,120.965370,31.375279,人民南路,946546
锦都名苑,7,9146,0.037432,120.562410,30.642029,学前路317号,892472
尚湖花园别墅,1,14342,,120.727096,31.633625,环湖南路,885085
钓鱼台别墅,2,15340,,120.703835,31.480110,钓鱼台路1号,889154
阳光花园,1,7384,-0.056358,120.852626,32.029139,孩儿巷北路69号,917343
巴比伦国际广场,12,12000,0.026694,120.958761,31.367202,人民南路998号,883275
雅阁花园,18,39634,0.017378,120.567112,31.297068,狮山路185号,886625
富康花园,4,12112,0.217164,120.953962,31.418400,环庆路,883472
绣东新村,13,8896,0.031301,120.980394,31.391510,同丰路,884228
恒创金色恬园,1,9069,0.043373,120.750186,30.786015,禾兴北路,889816
中行公寓,12,8000,0.055548,120.734581,30.767717,凯旋路,890312
万科中环公园,1470,12134,-0.011406,120.738163,30.789835,中环北路，近城北路,1022024
融悦华庭,1,7978,,120.889551,32.060639,永和路,917813
佳园小区,4,7792,-0.030122,120.720177,30.773250,洪殷路516号,890209
长泰淀湖观园,109,14741,-0.009408,120.973982,31.172827,锦耀路333号,998762
云都花园(别墅),10,13183,0.014858,120.952848,30.787882,云寺西路77号,890442
未来城,141,12500,-0.001199,120.575752,31.869550,暨阳东路493号,889523
万达公寓,46,13571,0.006527,120.780500,31.648506,包家巷81号,885133
巴黎都市,248,12334,-0.018657,120.784979,30.745990,凌公塘路,649803
南浩街5号小区,1,12857,-0.272300,120.615357,31.308463,南浩街5号,885962
绿城春风十里,44,10949,0.111010,120.866473,30.670492,大桥路,795305
枫泾新村四区(12-19),2,17777,-0.052399,120.759086,31.653954,枫泾路,884808
湘湘恬园(别墅),4,8400,-0.002257,120.834857,30.818896,兴民路,952905
昆城国贸,9,9178,-0.077402,120.961141,31.369066,人民南路,884583
咏信水城名邸,1,12359,0.176936,120.852404,31.039605,芦莘大道1000号,887177
仁文公寓,1,22857,,120.659825,31.309064,东环路930号,888409
凤凰国际公寓,1,21190,-0.067013,120.673301,31.321103,苏州大道西158号,888344
城南印象生活广场(商住楼),44,24000,0.011335,120.637222,31.249973,东吴南路98号,887690
湘湖长岛御墅,22,10576,0.006567,120.832104,30.815603,七星路770号,799068
优优花园,55,10560,-0.020997,120.764600,30.725782,花园路，近东升路,927332
秀洲花园(一区),4,7058,-0.053887,120.721080,30.763035,吴越路37号,890288
常乐里,4,10000,,120.961779,31.388976,前进西路208号,883346
罗马假日,1,9165,-0.036784,120.927624,31.406966,花园路，近虹祺路,883838
桐溪景苑,18,10204,0.165239,120.703630,30.488475,丰收路,801890
枫泾新村二区,1,11304,-0.105201,120.762190,31.655026,枫泾路,884806
大树家园,29,10555,0.008793,120.545109,30.652601,逾桥西路,892441
托斯卡纳(二期),173,10505,-0.019049,120.767398,30.833190,奥星路87号,926315
香樟公寓,5,29084,-0.229754,120.667995,31.326547,星明街216号,888433
乐怡苑,1,19615,-0.167021,120.626784,31.311569,干将西路61号,886178
龙庭国际,1,8750,,120.570904,30.648545,中山路298号,892482
香缇世家,1,9266,0.100404,120.783527,30.719379,纺工路,890039
康达公寓,12,11641,0.144304,120.763626,30.767935,秀州路,889897
嘉业商住楼,14,11357,-0.082855,120.431158,30.875647,嘉业路,939243
巴黎春天,2,13249,0.337877,120.694954,31.434105,元春路8号,889129
仁和苑,8,10000,0.110741,120.815146,30.682031,余北大街,889959
盈都君悦,27,10717,0.051821,120.396764,30.360175,启潮路48号,892029
锦上御府,1,8819,0.294057,120.998408,31.276820,宏洋路,883715
苏州凯悦,1,9833,-0.274210,120.635049,31.255929,东吴南路155号,887509
弘阳甪源,9,16752,-0.064420,120.872363,31.284931,甪直大道，近甫澄北路,1005434
港佳公园里,7,13372,,120.983092,31.393633,同丰西路,883484
一品苑,1,7021,-0.301115,120.562969,31.873234,东环路，近暨阳中路,889581
商华新村,10,15463,0.109891,120.929428,31.122566,商榻商周路28弄,559269
府南花园(三区),3,10348,0.124783,120.756587,30.731325,新气象路,889787
万科金色梦想,27,11208,-0.007351,120.690482,30.791467,成秀路355号,890263
雍景湾东苑,8,11703,-0.166394,120.974205,31.373929,柏庐南路1111号,884289
花苑新村,51,7500,0.077741,120.555450,32.389232,桃源路,918322
浒墅人家一区,1,12041,-0.071731,120.498094,31.388695,关署路,886677
雨润天阁,1,7647,-0.250147,120.805877,30.757969,庆丰路665号,798239
新世纪花苑,10,13110,0.134617,120.116371,30.874309,环城东路47号,939179
时代御湖,78,14204,-0.007546,120.973309,31.194803,锦淀路189号,884038
小城春秋,32,12000,0.114724,120.955794,30.831816,福泉山路，近之江路,941364
桃源东湾,2,6415,-0.246004,120.861509,30.671209,凤篂路548号,889985
苹果假日,3,6516,-0.163113,120.807585,30.743202,庆丰路，近广益路,927328
金色港湾,20,8782,-0.082001,119.906528,31.014295,道园路,939512
城市花园,3,10416,0.093888,120.944815,30.521849,朝阳西路151号,1010352
佳源优优秀湖,12,12233,0.002212,120.686930,30.780103,东升西路，近秀园路,926329
文景苑,2,17606,0.157485,120.697023,30.527824,人民路143号,891550
湘湖苑,1,11428,0.082095,120.827612,30.817421,兴星路569号,890045
鹏轩,148,7029,-0.036991,120.955459,31.355770,小渡河路,883923
东菱宝石公馆,2,12650,0.076229,120.816202,30.750789,凌公塘路,889758
中央公园城,1,7368,0.052872,120.680716,30.899405,杨扇路，近目澜路,887351
琴海居,2,9524,0.003213,120.427130,30.380833,港湾路,891338
宝领家园,4,10217,-0.004482,120.967652,31.367216,宝领路51号,884676
中楠双水湾花园,38,10285,-0.003440,120.996377,31.399586,昆太路458号,883951
新亚香榭水岸,4,10000,-0.078426,120.706629,30.766912,新平路，近聚贤路,890331
阳光城翡丽湾花园南区,122,12705,0.000709,120.701389,31.251628,游湖路，近踏湖路,887408
美林青年公寓,1,22282,-0.269897,120.513083,31.366532,鸿福路,886697
阳光昆城,90,10980,0.195091,120.962421,31.406910,紫竹路500号,884249
新城柏丽湾,14,10575,0.012834,120.961945,31.342168,小澞河路,884184
碧桂园天誉,2,9572,-0.181348,120.620769,30.906425,市场西路，近广州路,887281
金水湾花园,1,6101,-0.121779,120.421294,31.959348,天台南路,889382
如皋碧桂园,47,7065,-0.044625,120.569095,32.414074,海阳北路,918381
圣雅园,2,8429,-0.178620,120.986130,31.427199,长江北路399号,884021
柏悦公馆,1,12222,-0.013241,120.553089,31.318928,华山路,886482
弥敦城,2,10937,-0.073293,120.982544,31.360004,衡山路，近长江路,883880
世博帝宝花园,5,14000,0.295457,120.934077,30.828770,嘉善大道,730498
南苑三里,1,20521,-0.264823,120.695455,30.521812,南苑路,891222
鼎昌名邸,8,5238,-0.004372,120.416544,32.311134,人民路64号,926278
嘉辉南湖美寓,48,10893,0.004287,120.787286,30.775387,中环东路,890150
水韵花苑,78,8909,0.004850,120.859871,31.131918,云亭路,884065
新月公寓,58,8923,0.089632,120.707218,30.753640,文昌路2081号,905028
盛和七彩豪庭,1,14268,-0.108219,120.860642,32.016811,姚港路,917324
巴黎都市(南区),8,8292,-0.001445,120.583677,30.652028,逾桥东路,892428
南通碧桂园,10,10000,0.027855,120.958542,31.948101,新开北路,917708
杏园,1,16683,-0.000412,120.966647,31.398634,昆太路,884224
江南印象,205,13048,-0.033015,120.910211,30.946785,南苑路288号,610553
张浦裕花园,20,11261,0.208651,120.935724,31.284597,锦上路,884348
金都花苑二期,11,6214,-0.129744,120.448675,31.944117,中兴南路，近晨丰公路,889703
丽水湾(西区),9,13538,0.150603,120.962395,31.243903,商鞅湖路,883806
万科海上传奇,297,17166,0.010984,120.967917,31.187395,周同公路，近锦东路,993646
怡居苑,1,14197,,120.850325,32.055453,永怡路,917831
山水华庭,1,34269,-0.000175,120.562764,31.275116,长江中路99号,887831
恒盛尚海湾,1,12683,-0.001166,120.889509,32.000269,工农南路188号,917225
格兰英郡,52,11355,0.061460,120.809585,30.747988,中港路628号,889795
泰富世界城,265,9090,-0.031020,120.725378,30.755086,文昌路1299号,927349
新都银座,15,9633,0.011976,120.986409,31.380427,长江南路1233号,946531
巴比伦花园,5,12000,-0.004480,120.987330,31.412614,长江北路289号,883276
盛世钱塘,5,8780,-0.085798,120.966085,30.544082,城东路,890489
悦湖美郡,8,9569,-0.037808,120.541850,30.925854,镇南路958号,800130
昆城豪庭,6,9230,-0.070494,120.977813,31.372821,珠江南路441号,883769
望江水岸,2,7386,0.100253,120.569147,31.969899,滨江路，近港城大道,889521
浦西街16号小区,1,5818,-0.266238,120.951293,31.291256,浦西街16号,989824
书香名苑,4,8818,-0.030243,120.614361,30.494917,云川路,952814
文星新村,11,3076,-0.124395,120.465290,31.917626,文星南路,889526
上海星城花苑,2,12224,0.275725,120.943267,31.290604,新吴街288号,884004
梅谷商城,3,7058,-0.020130,120.927815,30.846853,健康路163号,941371
南方时代广场,1,9643,0.217767,120.414660,30.871051,南林路252号,939275
万科未来之城,67,15000,-0.005635,120.869609,31.339062,晨丰路288号,1032529
中山花园小区,1,5454,,120.851010,31.030375,芦莘大道471号,887179
乐澄花园,2,10416,-0.026997,120.741046,31.499896,城中路91号,889162
南园花苑,2,30588,0.208486,120.645197,31.292605,南园南路,886213
云洲苑,4,8825,-0.072809,120.782315,30.751763,农翔路556号,890112
奥林清华,1,11250,-0.130132,120.639905,31.147082,鲈乡南路1417号,886865
王冠里,1,7954,0.069086,120.742231,30.752930,文萃路,890011
迦南美地广场,32,8809,0.037207,120.770591,30.716350,槜李路,1006358
三景花园,2,10227,,120.786279,30.763907,泾水路216号,889960
德鸿练溪上郡,186,6741,0.013532,120.420436,30.720260,迎宾路289号,939222
印象欧洲,6,15000,0.069214,120.868466,31.338978,晨丰路,884285
中华园,74,8783,-0.059837,120.975454,31.360056,衡山路,884370
锦绣江南,1,8750,-0.125000,120.590753,31.851540,镇中路,889668
海棠花园,2,15129,0.232646,120.966763,31.959648,通盛大道313号,917639
麟湖公元壹号,4,9603,0.109276,120.763550,30.833526,奥星路155号,657163
书香门邸,3,12894,0.214171,120.905626,30.827555,阳光西路,648227
南华苑,4,14711,0.317055,120.935631,31.399694,鹿城路,883900
昆太花园,2,8545,-0.281208,120.989629,31.399269,白塘路38号,883781
唯E都汇,1,9782,-0.174933,120.704412,31.352291,渔泾路,888787
湖畔首府,530,9285,0.017088,120.853830,30.536653,滨河路，近南王线,1010375
水景丽舍,2,21505,-0.094831,120.651499,31.311460,莫邪路788号,886382
汎港润园,34,8617,-0.050573,120.080147,30.864770,二环西路355号,938972
海纳公馆(东区),11,9887,0.064950,120.767314,30.812794,天星西路188号,890194
怡梦苑,2,7272,-0.095297,120.765473,30.773191,解放路3号,890084
中医院宿舍,1,9090,,120.735387,30.767431,凯旋路18号,890317
红星国际生活广场,19,27272,-0.002670,120.558226,31.267213,长江路，近长塔路,887760
育龙湾,1,7058,,120.800449,30.796080,章园路687号,890308
立达汇园公寓,42,9600,0.151217,120.728672,30.769415,常秀街443号,1012471
湖光里小区,10,12588,0.099773,120.958835,31.250298,天盛路68号,883563
嘉善博文府邸,21,11797,0.012053,120.945316,30.844108,环城东路288号,941376
汇金新城,1,15723,0.219783,120.584974,31.875249,长泾路,889349
新城雾山嘉园,1,7789,0.015780,119.690583,30.667500,半岛中路,939705
宏城万华公馆,1,7029,-0.035803,119.677014,30.653155,灵峰北路450号,939643
新阳花园,2,11411,-0.163441,120.967638,31.385371,新阳街,884200
梦想家园,10,12121,0.059806,120.866038,31.034196,浦港路，近江苏路,887250
长新公寓(北区),10,8666,-0.005166,120.747789,30.738915,由拳路,890120
巴黎春天,76,9615,0.017245,120.081127,30.867829,红旗路,938929
星星港湾,1,12396,0.221883,120.429859,30.387203,启潮路,891754
双溪花园,45,8058,-0.046557,120.800387,30.760102,南溪西路2536号,889978
江南摩尔,166,8257,-0.087624,120.715731,30.768868,高层(12-30层),926316
开源公寓,3,9496,0.056105,120.937012,30.862502,谈公北路,890389
拙政别墅,2,44329,,120.637162,31.332225,百家巷99号,607022
万和家园,17,13142,-0.102629,120.966441,31.912501,广贤路,917725
吴江新城吾悦广场,1,17619,-0.010002,120.624082,31.144927,开平路2188号,886864
象屿两岸贸易中心,2,17142,,120.954026,31.363366,创业路，近珑庭路,926374
金域蓝湾,11,10995,-0.100867,120.933610,30.515432,百尺南路,890486
青青家园,2,7226,0.032286,120.983774,32.008989,青年东路,918631
赵厍花园,5,15517,0.159456,120.941955,31.380581,明星路,884355
文星花园海棠苑,5,9991,0.000171,120.775471,30.749476,纺工路959号,890025
朗诗人民路8号,1,56122,0.002949,120.633985,31.287134,人民路，近南环路,886175
绿地香颂别墅,48,45197,-0.044562,120.605876,31.134289,学院路6699号,886854
元一柏庄(二期),2,9500,0.023266,120.717609,30.757085,梁林路158号,890103
上海公馆,10,10784,0.020053,120.976955,31.369594,珠江南路33号,884001
新都汇,1,10113,0.296040,119.933771,31.016721,县前东街,939575
中航樾玺公馆,2,18571,-0.022579,120.439709,31.351308,天佑路,886739
百合春天,20,10898,-0.014202,120.903200,30.827770,阳光西路1283号,611837
御墅园,5,6842,0.072414,120.571647,32.353347,益寿南路186号,918430
竹镜茶语,10,10196,-0.001176,119.875503,31.098995,长达线,939610
祥云花园,5,8631,0.110668,119.708568,30.627744,玉馨路,939704
农翔苑,23,7947,0.013260,120.784275,30.753900,望湖路127号,797422
百盛花园,2,11233,0.001248,120.654826,30.983652,通运东路2号,887211
中奥美泉宫,49,17680,-0.008913,120.076589,30.920657,弁山大道1818号,939207
文曲佳苑,2,7692,-0.050488,120.945597,30.536485,海丰西路208号,890494
兴东花苑,1,9354,0.168082,120.619642,31.896133,农鹿北路，近东七公路,889686
银洲花园,5,16133,-0.009577,120.969833,31.392870,前进西路239号,884284
长泰花园,21,12482,0.004749,120.936223,31.744674,扬子江大道7号,885251
四季香榭,7,8461,-0.067966,120.710974,30.518658,海州东路,892138
钱江君庭(南区),6,38969,0.379727,120.568361,30.406853,翁金线，近三里港路,914290
南苑新村,2,9166,0.000327,120.981408,31.385503,震川中路，近珠江路,883906
悍马盛世嘉园,1,10967,,120.956805,30.545410,新桥北路202号,890479
若为谷月亮湾(别墅),7,10169,0.033540,120.011148,30.756039,妙新线,990897
摩尔公馆,91,8674,-0.017778,120.707374,30.769575,洪兴西路，近殷秀路,890322
如意湾佳园,5,6400,0.050903,120.544311,32.455843,花市路辅路,918385
临湖景苑,1,7733,-0.207766,120.889708,31.465937,临湖路,883816
绿城桂花城,6,9600,,119.982448,30.534345,舞阳街688号,939392
开元悦都,158,9146,0.028218,120.976414,30.680646,曹丰路,993644
绿城花苑,3,6575,-0.285714,120.947103,30.523231,勤俭北路250-6号,890487
紫薇花园,1,8988,-0.277318,120.680328,30.521911,文宗路8号,892014
金都花苑一期,5,4054,-0.110380,120.438598,31.945704,晨丰公路，近勤政路,889704
福馨花园,1,8720,0.049591,120.834205,30.853035,育才路,941365
天馨花苑,7,40698,-0.016065,120.885658,32.024213,平安路,917504
光明新村,19,10000,0.035947,120.867345,32.006905,虹桥路,917281
上河原墅,3,19483,0.000244,120.645626,31.255180,石湖东路,887558
桃园新村,31,11142,-0.007129,120.933209,31.046193,培育路268弄,820209
金科东方水榭,7,15625,-0.011951,120.873321,31.262356,柯福路1号,888198
西马桥社区,1,7258,0.176337,120.750336,30.788530,禾兴北路522号,890035
吉翔澜山(别墅),12,12087,0.087058,120.713440,30.546884,碧海路，近横山路,952802
新公馆花园,8,12666,0.000869,120.951783,31.384555,震川西路,884196
绿洲别墅,1,26478,0.296860,120.734701,31.299690,金鸡湖大道,888568
紫金公寓,2,9512,0.335275,119.906972,31.009044,解放西路,939611
太湖华府,2,12765,0.113194,120.325249,31.140629,大桥路,888116
凤凰花苑,3,11555,0.128528,120.485491,32.537074,宁海南路181号,917874
天和佳苑,1,14555,0.273403,120.879694,31.729162,天字路,885123
信达香格里,2,10202,-0.104852,120.692695,30.761446,秀园路398号,890276
解放四村,1,20476,,120.938282,30.851017,谈公北路,890380
伊顿公馆,82,9969,0.011773,120.428605,31.956734,中圩路，近中港南路,943754
凝欣花苑,2,5681,,120.843494,30.914691,西周路8号,404633
阳光广场月河苑,1,9230,,120.754134,30.779031,禾兴南路1265号,890073
华美小区,1,7317,-0.111907,120.775086,30.779204,城东路792号,889827
丰泽湾,2,14791,-0.274667,120.934548,31.148236,锦商路,883439
大树星岛花园,2,14466,-0.001725,120.955279,30.821788,之江路1号,890345
新城香溢紫郡(商住楼),1,11290,0.085577,120.971796,31.337417,青淞路，近长江南路,884709
铂金广场,1,6363,-0.235124,120.933081,30.821509,环城南路，近嘉善大道,941378
学仕嘉园,1,8108,,120.939564,30.842746,罗星路539号,890427
绿地新都会,11,10000,-0.022769,120.826719,30.745029,亚美路,889919
江南新村,1,14912,-0.320421,120.970817,31.386385,柏庐中路278号,883676
青春里,4,22500,-0.222905,120.961745,31.387899,前进西路218号,883952
格林小镇,12,9600,-0.068233,120.701616,31.535902,227省道,884824
莲花庄小区,2,10000,-0.067512,120.111480,30.866036,莲花庄路149号,939073
隆兴公寓(东区),8,11952,0.297157,120.761321,30.727094,花园路,889910
江南春天,29,12051,0.093359,120.964427,31.415275,紫竹路689号,883672
龙河花园,3,10593,,120.636278,31.119211,芦荡路，近渔港路,887065
新塍佳源中心广场,1,7954,0.048372,120.622725,30.800661,虹桥路581号,1012474
太湖天城MINI墅,1,13911,0.176704,120.424913,31.221944,香山南路,888004
中星城际广场鼎苑,19,12055,-0.000207,120.962030,31.361504,九华山路60号,884381
绿城玉兰花园,8,14299,-0.271166,119.947039,31.014583,县前东街1088号,939541
裕隆公寓,1,9091,-0.210508,120.728755,30.766656,秀仁路187,890311
如意新村,1,4752,-0.112108,120.669123,30.915137,如意路,887320
万达华府,222,11358,0.021495,120.808393,30.740711,广益路,798053
嘉乐城,14,10394,0.241431,120.858299,31.040458,城司路,627853
台昇国际广场悦府,97,11403,0.031386,120.761220,30.729118,花园路,792519
建材新村,1,8181,-0.281864,120.998971,31.367245,昆塔路,883663
世茂蝶湖湾,61,10270,0.017134,120.969312,31.347002,新南中路288号,884042
东升苑,2,7051,-0.005220,120.742879,30.779320,东升东路2006号,889763
和平花苑小区,1,8910,0.371824,120.458843,31.925631,解放路,889302
万润家园,3,9285,-0.041993,120.556093,30.881116,延陵路168号,887268
金星花苑一区,1,23622,-0.015750,120.561958,31.435225,中市路,889050
润家广场,511,10347,-0.051691,120.916018,30.518114,联翔路,1010373
龙鼎瑞园,11,10000,0.076658,120.918292,30.835371,人民大道,890396
芙蓉新村,20,25384,-0.009096,120.626604,31.402850,芙蓉街33号,888814
捷达名轩,1,8133,-0.117704,120.668350,31.164050,庞金路,887014
恒润新新家园,2,17555,-0.191498,120.577805,31.323525,新庄西路,885459
名都花苑,2,9756,,120.561115,31.859676,新市河路75号,889435
恒大龙溪翡翠,2,8133,-0.226975,120.096521,30.872198,红旗路318号,990873
上峰华府,1,9833,,120.679305,30.486935,经都三路38号,925383
水绘曦园,1,6324,,120.572901,32.401277,海阳路,918398
香溪美林(别墅),15,9136,0.345508,120.954331,30.839117,晋阳东路817号,890423
东方丽都,1,7976,0.059230,120.954940,32.137715,东环路，近三总路,918460
亭林山庄,1,16489,0.010355,120.952031,31.391434,马鞍山东路189号,884109
中大未来城,5,21123,0.325489,120.921576,31.388959,共青路,884364
昆山万达广场,6,11487,0.044653,120.997549,31.418372,青阳北路238号,884419
远洋绿洲,3,8500,-0.077991,120.746415,30.761900,吉水路272号,890104
昆山怡馨苑(北区),2,21666,-0.040266,120.961359,31.389976,亭林路86号,884438
大成春天里,5,10140,0.271473,120.679909,30.763306,洪高路1603号,890178
横泾新村,1,14311,-0.239424,120.998171,31.407979,萧林东路,883544
水榭花都,76,10480,-0.011087,120.790543,30.746045,景宜路963号,889980
裕隆府,2,11333,0.121635,120.691379,30.764186,秀园路,890310
海悦府,229,11748,0.036388,120.462865,30.444866,修川路,892096
君临天下花园,6,10227,-0.005156,120.991011,31.412776,白塘路555号,883747
东方都市,59,12500,0.040366,120.724109,30.514979,碧云南路,798254
吉安公寓,4,10000,0.186944,120.744783,30.765056,吉安路15号,889834
金沙花园,1,15384,-0.225026,120.782105,31.563450,沙霞路,884927
东苑新村(吴中区),1,8690,-0.033155,120.873993,31.277852,迎宾路,888136
华盛广场新邻域,3,7500,-0.081445,120.788576,30.732081,乌桥路，近普民路,927353
花样年太湖天城,7,10869,-0.032749,120.423700,31.222382,环太湖大道128号,505193
玖珑湾,17,14838,-0.038803,120.980465,31.374186,车站路388号,883984
龙桥新村,1,9750,,120.634923,30.904757,市场路,887308
海宁碧桂园,50,9844,0.030785,120.346568,30.430613,人民大道,892069
银河景苑,2,8416,0.037731,120.919002,30.844099,体育南路298号,890432
金山苑四区,1,20000,0.070836,120.795129,31.644406,富泰路,884930
御上江南景园,20,11111,0.001262,120.825418,30.741064,亚欧路656号,890097
金桥名苑,4,10204,0.063138,120.863346,30.746797,广益路,889879
亨通嘉园,1,13859,0.324114,120.543157,31.868620,沙洲中路,889309
新海佳苑,3,8888,,120.713599,30.505998,农丰路，近江南大道,925381
新城金郡1期,9,30768,0.233998,120.630045,31.225695,邵昂路66号,887645
人才公寓,1,16666,0.370447,120.592747,31.392853,西横港街,888974
中央花园,1,12755,0.142512,120.743802,30.765360,明月路50号,890133
清华园,9,14833,0.003450,120.999360,31.394115,桃花江路77号,883966
舒院,1,10495,-0.000412,120.959384,31.240451,慈城路88号,884051
江中小区,2,10246,0.000195,120.657314,31.159316,垂虹路52号,886905
禾源新都,8,8720,-0.010945,120.729810,30.711582,开禧路,889813
龙翔大厦,16,9465,-0.078963,120.805699,30.744361,庆丰路1407号,927351
运河苑,30,11413,0.134268,120.452832,30.457092,青年路96号,952811
御龙湾,1,8461,-0.153900,120.123176,30.879803,龙湾路208号,990893
万达华府,5,19230,-0.010242,120.739334,31.690779,富民西路，近珠海路,885328
西环新村,2,28333,0.022631,120.595957,31.286423,西环路128号,886053
御澜湾,8,27222,-0.151672,120.999171,31.397594,桃花江路199号,884510
江南润园,17,8522,0.009716,120.637618,30.798878,润园路168号,890220
同方燕语林苑,1,11794,,120.793496,30.758879,南溪西路2208号,890001
信达翰林兰庭,1,11458,0.048883,120.811254,30.755926,南江路,890052
象屿珑庭,49,12909,-0.027571,120.955043,31.364766,中华园路1555号,884168
香港花园,2,29729,0.234081,120.519065,31.266774,花苑街，近香港街,887885
海上印象花园,2,9425,0.116177,120.942945,31.294426,京东路555号,883511
山水桃源,1,11428,-0.080833,120.693750,31.689838,虞山南路96号,885079
中交美庐城,10,8510,0.101476,120.568137,32.420988,海阳北路，近惠民路,926272
朗诗未来街区三期,2,32467,-0.001108,120.750713,31.379281,夷浜路,888253
赞成新都名邸,2,10114,0.111972,120.761430,30.735264,花园路1151号,798061
自由都市,1,9453,-0.326037,120.993990,31.406998,横泾路468号,884405
绿城龙王溪小镇,23,17553,-0.003633,119.603879,30.602415,苕源路1号,939680
长安佳源中心广场,2,9782,-0.037773,120.447860,30.444181,长安路，近健康路,952812
绿杨新村,1,4658,0.279670,120.595122,32.398041,绿杨路,918371
四季华城,177,10240,0.024000,120.964945,31.364694,中华园路836号,884071
金茂国际,1,5472,-0.183209,120.556051,32.388758,中山西路1号,918348
蓝海LaVíe,18,19347,0.220939,120.985091,31.382013,长江中路,883790
龙庭花园,2,11132,0.054366,120.596130,30.991766,双龙路,887243
四季江南,14,10000,-0.013223,120.918684,30.822539,体育南路1583号,798193
海佳名邸,140,9018,0.008612,120.896546,31.387934,前进西路,883509
望湖大厦,3,8757,-0.081690,120.402844,30.963610,南太湖大道6168号,887207
万丽广场,1538,11320,0.029185,120.690858,30.764750,秀园路698号,991005
景苑小区,1,13354,0.027269,120.613769,31.315737,景德路,885741
银河湾,11,10408,0.002987,120.731386,30.728127,银河路,890087
和风雅颂,1,22000,0.027365,120.916995,31.408636,博士路99,884563
信源亲水湾,103,8529,-0.030575,120.816962,30.745701,广益路,798232
西塘新天地,44,14375,-0.108085,120.887624,30.942249,南苑路,623405
汇金广场,6,8113,0.107577,120.793289,30.743940,广益路247,927315
水岸花园,1,10909,-0.001007,120.977520,31.410156,萧林路118号,884056
嘉辉南湖美寓,13,8450,0.210255,120.787290,30.775335,湘溪路76号,890154
元一柏庄(一期),20,9677,-0.021636,120.720725,30.757734,昌盛南路,890102
梦享城,420,10000,0.017501,120.083228,30.870870,红旗路，近二环西路,1033222
华安豪庭,1,4292,-0.094027,120.695720,32.460427,红旗东路,995408
一泓蓝溪湖墅,3,9230,-0.159610,120.924316,31.174326,五保湖东路599号,884261
西塘河小区,1,14000,-0.275437,120.649992,31.174669,西塘河路97号,886975
奥园黄金海岸,26,11850,-0.000885,120.789423,30.792567,永政路98号,794708
民乐小区,2,23733,0.368054,120.002881,30.545069,武源街,939399
朗峰裕花园,18,15853,0.009488,120.975054,31.369554,庆丰西路573号,883792
景瑞望府,5,8653,-0.360505,120.952369,31.932467,惠泽路18号,917681
莱茵河畔(别墅),16,10349,-0.009286,119.920190,31.046924,锦绣路，近合溪新港路,1006346
东方润园,23,12870,-0.009314,120.945037,30.824936,世纪大道,619539
君子亭花园,1,7833,-0.274386,120.867976,31.379055,君子亭东路,883749
陆家角新村,1,10333,0.009970,120.742873,31.630588,新湖路,884997
江锦云庐,29,6397,-0.059882,119.900943,30.998919,紫金路,1006348
龙山小区,21,12917,0.306646,119.693192,30.617930,直一路,939673
昆山花园,35,10784,-0.049617,120.982304,31.405876,长江北路118号,883774
东方名嘉(南区),6,11607,0.095207,120.938944,30.836028,施家南路668号,890354
西桥新村,1,10892,-0.276471,120.957158,31.381562,朝阳西路,884142
景鸿小区,1,9264,-0.143016,120.558322,30.655318,逾桥中路388号,892474
嘉业阳光假日(别墅),1,17292,0.025805,120.540992,31.286001,珠江路121号,886642
物美大厦,7,7500,0.018745,120.918569,30.841091,晋阳西路558号,941374
万达广场,74,18074,0.047768,120.738647,31.689116,珠海路8号,885334
太湖上景花园,43,26666,0.015190,120.437455,31.228273,梅舍路3号,888118
浙联金座,130,9482,0.085145,120.705234,30.769164,洪兴路2203号,890324
万科城,8,19426,-0.272552,120.516212,31.247161,姑苏路,887864
龙湖时代天街,2,26363,0.121591,120.562671,31.299667,狮山路,886587
绿地苏州ONE,1,11200,-0.256802,120.679169,31.184392,江陵东路599号,988072
西塘南巷8号院,1,28571,-0.043200,120.631651,31.279150,西塘南巷,887629
置地公馆,4,7107,-0.156839,120.934595,30.830520,阳光路，近嘉善大道,890459
昌盛花园(东区),1,7471,,120.724567,30.789015,常秀街,890165
新南浔孔雀城,405,11467,-0.009886,120.425475,30.843790,联谊路,995198
石牌教师楼,1,4761,-0.234443,120.914470,31.509713,文卫路,884451
水月周庄,307,12333,-0.016115,120.866824,31.131208,全旺路88号,884064
东渡海派青城,9,28571,-0.023347,120.691273,31.437637,聚金路,889131
华尔兹花苑,3,14055,-0.230243,120.995744,31.370639,爱华路11号,883593
赞成名仕府,44,10000,0.070893,120.105725,30.922756,安吉路,939200
金盛花园,1,11111,0.284212,120.642833,30.893702,盛坛路,887300
碧桂园云谷,1,8219,-0.163631,120.963523,31.938144,通盛大道，近宏兴路,1016079
锦瑞苑,13,11923,0.272873,120.445176,30.885081,便民路449号,939255
御景湾,3,11617,-0.194550,120.917205,30.830329,体育南路,890440
长广金水苑,4,4938,0.200705,119.713780,31.080395,s301,939601
富力湾,75,13958,0.069661,120.999553,31.170884,万园路88号,999689
新城家园,2,8988,-0.295114,120.959701,31.406076,北门路,884186
苏锦一村(百合苑),2,31490,0.057776,120.616503,31.341935,锦芳街，近平川路,885387
盛世华庭,1,6625,-0.067952,120.548470,32.389520,中山西路168号,918391
金汇奥园,12,10112,0.000198,120.958877,30.536952,新桥北路,890517
水月周庄(别墅),113,13602,0.003023,120.865385,31.130888,全旺路88号,884641
莱茵河畔,19,14444,0.011485,120.897185,31.990235,沿河路1号,917233
中朝悦榕庄,2,9579,0.338410,120.716097,30.510195,钱江东路368号,891920
经房浅水湾,4,10786,0.261078,120.792058,30.799334,鸣羊路,720987
新秀苑,3,6524,0.048112,120.742256,30.778181,东升东路,905027
阳光景苑,2,10208,0.057166,120.620917,30.808484,兴育路289号,890292
东菱梅湾花园,12,14000,-0.002565,120.751714,30.756870,城南路158号,889760
长寿路101号小区,1,5714,-0.272287,120.907710,31.180791,长寿路101号,946560
万科初见,2,8750,-0.058836,120.970358,31.467624,长江北路999号,884428
华丽家族太湖汇景,39,16833,-0.008540,120.445060,31.230049,梅舍路，近蒯祥路,887988
春晓源(东区),8,8888,-0.018334,120.716675,30.773446,洪波路1840号,890174
新湖明珠城大公馆,1,15579,0.208799,120.642228,31.185518,江陵西路,886836
天和人家,2,18842,0.392095,120.647962,31.181550,鲈乡北路818号,886816
嘉凯城太湖阳光假日(别墅),2,13363,0.153176,120.122425,30.957274,梅洲路188号,939035
金色水岸(别墅),1,11182,-0.052732,120.102066,30.891427,二环北路,939052
合景峰汇二期,3,17500,0.018982,120.609995,31.370039,人民路,888949
西城花园,1,8653,0.386477,120.555305,32.379455,宁海西路,918407
花苑二村,10,29921,0.112139,120.520949,31.267870,花苑西路,887762
信达格兰上郡,15,14285,0.029030,120.823948,30.730240,亚欧路，近三环东路,927334
城南花苑,1,6818,-0.184157,120.661843,31.129601,长安路1181号,887045
锦华丽苑,1,9027,0.000665,120.374677,30.433082,双联东路,890837
西需浦新村,2,11666,0.003700,120.969350,31.374974,跃进路,884144
万达花苑,1,12884,-0.232364,120.744462,31.629315,招商南路200号,885134
旺角大厦,1,10000,0.103266,119.910496,31.027674,龙山大道,939559
蔚蓝澳洲中心,80,8936,-0.003901,120.746328,30.740649,紫竹路,991785
锦绣佳苑,324,11515,-0.004496,120.860563,30.539723,招宝路,1010372
象屿珑公馆,67,13333,-0.030750,120.954893,31.362353,九华山路,884167
隆兴嘉苑,59,8426,0.121373,120.701795,30.544956,由拳路,891015
金海丽水湾,11,8142,0.216751,120.452041,32.556914,河滨西路88号,917905
招商公园1872,1,22634,0.224811,120.574527,31.384718,西环路，近永青路,888997
万象北园,1,12000,-0.043138,120.857236,32.025021,万象路,917335
桃源小区,2,8500,-0.278867,120.744348,31.661512,桃源涧南弄,885122
西门南村,7,13958,-0.016973,120.544422,31.870541,长安中路,889531
国际公寓,1,9790,-0.248619,120.630826,30.908955,西二环路,887292
虹桥路12号小区,1,13529,-0.260468,120.593874,31.310461,虹桥路12号,885516
置地广场,2,14000,,120.963823,31.379611,人民南路,884360
虹桥花园,3,10568,0.019782,120.449791,30.437555,汉帛路，近城西路,952798
卡森花苑,5,8960,0.015239,120.684202,30.528416,梅园路228号,890908
北禾春天,272,9261,0.004120,120.731266,30.794309,城北路1574号,890332
和风丽园,138,7640,0.016093,120.774577,30.797100,和风路474号,890196
亭林路194号小区,1,15555,-0.003332,120.960931,31.392881,亭林路194号,884543
巴黎春天,34,10429,0.110348,120.610562,30.674969,永安路,798203
阳光城丽景湾,2,10638,-0.109865,120.851794,31.284077,甪直大道87号,888195
阳光城翡丽海岸,659,10952,0.001371,120.973138,30.545631,滨海大道，近华丰路,1018748
御江南(别墅),5,11363,-0.151508,120.499082,30.739438,青镇路300号,993040
五一新村,2,26333,0.081793,120.896408,31.995932,洪江路，近启印路,917245
育贤花苑,2,5865,0.126801,120.573836,32.296418,振兴路,918428
云都大厦,3,8720,0.040573,120.739392,30.770845,越秀北路306号,890334
新雅花园,1,10740,-0.210490,120.716260,30.544963,硖川路,891653
光明苑,1,10000,0.165094,120.752736,30.774639,城北路97号,889801
华宇林泉雅舍,2,16448,0.000244,120.498962,31.321604,建林路,886685
佳兆业广场,1,32302,0.272554,120.565646,31.285132,塔园路,886571
月浜西公寓,1,12857,-0.258492,120.642622,31.269734,太湖东路,887672
欧洲花园,2,16049,-0.241684,120.672112,31.297077,通园路668号,888396
九龙仓国宾1号(别墅),1,42556,0.228664,120.713935,31.297141,石莲街9号,888504
象牙新村,1,12142,-0.265412,120.591067,31.297476,劳动路,885987
宝马花园,21,6181,-0.001293,120.442023,30.527477,工农路999号,892543
名城花苑,16,9420,-0.042196,120.454213,30.536459,青阳东路,797225
巴黎印象,6,6769,-0.076787,120.731661,30.631475,花园路351号,926318
凤凰城,1,14821,-0.011142,120.773008,31.313562,榭雨街66号,888561
赞山景苑(南区),3,8811,-0.054106,120.719905,30.505463,钱江东路,891870
翰林府第,90,10833,-0.000646,120.775606,30.747650,纺工路1235号,798054
阳光花城,21,20434,0.252390,120.620127,30.679631,凯旋路1398号,892521
绿苑小区,1,10555,-0.133842,120.847173,32.021715,人民西路191号,917359
碧桂园翡翠湾,36,14285,-0.026377,120.558458,31.854055,暨阳湖大道，近河西南路,889642
名仕花园,3,18285,-0.069892,120.599889,31.303703,三香路,885958
同益里,1,22790,0.184265,120.632865,31.311809,草桥弄,886291
上城蝶园,3,9000,-0.054920,120.709597,30.502170,江南大道,891396
常发香城名园,132,11027,0.004098,120.957181,31.367486,中华园路1558号,883344
江南理想,1,20000,,120.905802,31.390038,康居路,883673
阳澄新村,1,9454,0.072125,120.782186,31.560523,阳澄南路,885205
合景天峻,498,11573,-0.030250,120.943759,30.547666,百尺北路，近华丰路,1018747
金水湾,1,34309,-0.004815,120.724323,31.305712,金鸡湖大道,888526
中润嘉兴中心,183,7483,0.002478,120.728086,30.756284,文昌路,927320
花园新村,1,10000,0.018226,120.967805,31.996259,花园路,918634
崇福凤凰城,3,7228,-0.134164,120.428205,30.533301,崇民大道，近崇永线,992985
紫澜别墅,11,10243,-0.086788,120.803065,30.748316,中港路,802035
恒天花园里,15,9267,0.079692,120.968853,30.847843,泰山路81号,727136
幸福里,1,14181,-0.050231,120.559511,31.820439,华苑路1号,889206
汇众佳苑,4,8261,0.312937,120.837585,30.817399,七星路,782040
天虹花园,1,14181,0.030746,120.898559,32.029275,人民东路,917499
翡翠名都,9,10380,0.006301,120.984953,31.369489,长江南路,883435
世茂蝶湖湾(二期),84,8333,-0.010685,120.973599,31.345364,新南中路288号,989818
明珠佳苑,1,16078,0.384602,120.754141,31.677646,李闸路218号,885018
嘉城绿都紫薇苑,1,8235,-0.021507,120.791771,30.774656,湘溪路,889859
华青公寓,1,9555,-0.367554,120.986454,31.395031,樾城路50号,883605
旭辉郎香郡,26,9886,-0.026777,120.694385,30.757483,育英路，近秀园路,926311
中南公馆,41,8280,-0.009569,120.810493,30.744351,九曲路，近南江路,927343
锦华家园,1,9090,0.355300,120.684036,31.076163,学校路,887058
金地艺境,1203,11191,-0.025301,120.761123,30.822724,东方路，近正阳西路,990999
花园新村,2,12500,0.230194,120.921496,30.766786,白马线,889825
香榭水岸,2,13333,,120.939986,31.388613,马鞍山中路,884161
桂苑,4,8113,,120.784431,30.760168,南溪西路1412号,889804
海上湾(别墅),8,27604,-0.002602,120.163453,30.873685,蜀山路1788号,938997
花园浜南村,1,11641,,120.571178,31.864663,沙州东路,889330
世博名邸,11,10555,0.001994,120.934770,30.833378,嘉善大道,890412
正荣国领别墅,11,46521,0.020712,120.708424,31.258310,东方大道,887420
台昇璞悦汇,65,12363,0.088292,120.761230,30.728998,长水路,992975
新城香溢紫郡(北区),1,10000,,120.972311,31.337617,青淞路,884190
滨江丽景,1,8050,,120.390475,30.866905,适园西路999号,939220
君御豪庭,1,9831,0.216017,120.575346,32.383957,福寿路303号,918358
新华新村,1,3191,-0.358722,120.649494,31.973723,永新路，近锦花路,889560
康桥名城,13,9802,-0.026420,120.680393,30.517897,文宗南路18号,890941
江南春堤一期,2,9054,0.003769,120.964451,31.318917,振新东路,883671
尚东名邸,105,9521,0.031805,120.782558,30.789134,中环北路,657418
新城吾悦广场,3,13437,-0.146586,120.549377,31.843691,金港大道，近南二环路,889655
白领公寓,2,24842,0.018449,120.554828,31.284946,枫瑞路178号,886556
祥和花园,2,25000,0.350184,120.990901,31.399261,昆太路528号,884165
东湖金悦(别墅),127,9324,-0.022999,119.990993,30.990111,滨江大道,946358
富力湾(别墅),97,15789,0.097907,120.997577,31.175380,万园路88号,883473
富阳新村,19,12380,0.044373,120.967935,31.377468,跃进路,883478
明珠苑,1,10972,,120.964664,30.539224,海兴东路21-2,952149
梅里春天,26,8888,-0.110666,120.728901,30.634682,花园路，近常乐路,926328
嘉尚年华,44,12000,0.042843,120.972134,30.851012,东升路129号,890460
朗诗东吴绿郡,8,54897,-0.001382,120.644397,31.253430,枫津路,887513
万达华府,30,20224,0.159301,120.611175,31.260957,友新路,887596
盛巷小区,1,10000,-0.006853,120.947111,31.303579,港浦中路,884032
昆城博奥苑,2,12307,,120.935851,31.377094,朝阳西路,883333
东方时代广场,2,10181,,120.676351,31.472838,珍珠湖路，澄阳路,924925
旭辉御府,13,13095,0.166489,120.727252,30.748847,桐乡大道,890067
明鑫凯迪城,9,12857,0.008471,120.939931,31.385595,虹桥路118号,883753
昆山柏盛园,3,12138,-0.000576,120.971974,31.371522,柏庐路,883773
恒励西子花园,1,16037,0.001999,120.649962,31.405205,泰元路318号,888824
景辰家园,4,9000,0.012032,120.931292,30.823742,嘉善大道,890388
香槟一号,1,15076,-0.028483,120.874229,31.264747,柯福路2号,888181
水乡景苑,143,6781,-0.032392,120.848822,30.913576,洪兴路,890456
新华府,1,13833,-0.275228,120.126707,30.874981,新华路515号,990887
时代城,6,8522,0.071007,119.913895,31.003635,长海路,939551
东方时代广场(商住楼),4,13200,0.000531,120.676136,31.472005,珍珠湖路，澄阳路,924926
太湖明珠南泊湾,103,8556,-0.026786,120.411374,30.962085,环湖路,887198
桃源林语,6,9318,0.007242,120.865377,30.670500,大桥路,628030
卓锦兰香,4,11029,0.175424,120.668161,31.159751,运东大道399号,887038
嘉业阳光城,19,10949,0.022267,120.105115,30.888772,凤凰路288号,939037
巴黎都市(北区),26,13258,0.106493,120.583911,30.654195,环城东路,892427
鑫鑫国际,1,8125,-0.024141,120.651670,31.379815,嘉元路2号,888901
维纳阳光花园北区(别墅),3,32180,-0.014999,120.759518,31.378443,科能路80号,888295
香山花园,4,9146,-0.028778,120.412088,31.231698,校场路,888014
水产新村,3,12208,0.096757,120.150576,30.524384,中兴路,939348
春晓苑,4,9662,-0.096165,120.870895,31.713460,寺泾路,884784
朗诗绿色街区,2,41406,,120.536482,31.257577,金枫路,887798
曙光苑,1,32592,,120.576283,31.307966,滨河路,886527
大都汇,1,17500,-0.115134,120.104552,30.877224,劳动路356号,990896
顺城名湾,55,8804,0.073659,120.939273,31.280946,翰林路,884067
乘航新村,3,5714,,120.586399,31.848904,镇中路，乘航西路,889232
中山小区,1,9090,0.253966,120.551601,30.647001,中山西路，近北门大街,993045
太湖黄金水岸,37,12413,-0.050122,120.457616,31.228719,环太湖大道,658770
嘉城绿都凌霄苑,3,8522,0.005664,120.789336,30.776208,中环东路,889856
华府壹区,6,11264,0.011222,120.860669,31.036390,重庆路1号,611100
海派秀城,187,9583,0.010013,120.723013,30.773818,洪殷路420号,890327
碧桂园湖悦天境花园,243,17740,-0.008689,120.863794,31.037428,清河路,941269
吉田国际广场,10,16860,-0.028746,120.968596,31.358068,创业路666号,883632
天星如意湾,1,10204,0.123789,120.762725,30.814281,天星西路505号,793893
金水苑,8,6703,-0.165920,120.594241,32.105796,新城经二路,918349
湘都公寓松音坊,13,7431,-0.056261,120.827646,30.761838,三环东路,890043
太湖之星,4,12307,0.044028,120.364620,31.199195,长沙路,888011
碧水云天,11,12272,0.080853,120.557221,30.653088,庆丰北路399号,892435
湘景苑,4,6888,0.059692,120.832599,30.813648,七星大道,890046
湖畔佳苑,14,36000,,120.590856,31.262451,学府路189号,886652
北港绿苑,1,16000,,120.569278,30.643132,金波路,892432
公园天下,3,43495,0.040974,120.603630,31.285809,桐泾南路28号,886010
普禧观澜,19,17322,-0.037827,120.565101,31.427270,春秋路,889060
中交璟庭,2,11538,,120.622607,31.147016,秋枫街，近高新路,886862
长顺滨江皇冠,1,15000,,120.941361,31.385930,前进西路,884352
孔雀城澜院,25,12920,0.049980,120.915852,30.814112,白马线,890455
太湖颐景,2,18000,0.161740,120.621754,31.193988,永旺路,888080
世纪公寓,8,8604,-0.192643,120.925543,30.848272,桥南路,890413
金山浜花园A区,1,12500,0.006847,120.526908,31.293165,金山路，近渔洋街,887777
嘉业阳光城,4,7840,-0.193582,120.711928,30.767435,新洲路388号,1012468
舜江碧水豪园(南区),1,10227,,120.936694,31.292733,京东路688号,884068
柏庐广场,1,14418,-0.296683,120.970584,31.388538,前进西路,883291
湘湘恬园,271,10057,0.040128,120.834385,30.820291,兴民路,952906
日兴花园,1,14103,0.000244,120.661360,31.345169,扬东路,888410
金凤花园,1,5416,-0.034237,120.486111,32.534150,宁海南路201号,917902
康桥丽都(别墅),1,27622,0.226413,120.634586,31.375154,嘉元路663号,888925
丽景佳苑,9,8000,0.023541,120.450692,30.450845,景华路220号,952804
金域蓝湾,11,13970,0.318173,120.526538,31.297522,金山路，近湘江路,887782
中楠都汇广场,5,12086,-0.000412,120.986664,31.409264,萧林东路,884377
南德大院,5,15846,,120.808252,30.756262,南溪路，近庆丰路,927354
城南印象,139,8529,0.045477,120.967388,31.365931,衡山路,884540
南山雅居,107,10980,-0.008667,119.876074,31.099139,长水线,1025093
亭桥公寓,2,10241,-0.146583,120.925671,30.847044,顾家埭路,890419
德华香缇湾,1,7368,-0.173898,120.268380,30.523763,镇西路86号,939331
清华苑,1,7750,-0.048963,120.755978,30.784740,三元路718号,889954
世纪新城,1,9542,-0.220448,120.546318,31.887964,恒河路，近大包巷弄,889484
友谊公寓,1,10500,0.190611,120.734054,30.767014,凯旋路312号,890306
长江一品,1,14782,0.286174,120.845519,32.064898,长泰路,917844
菁英汇,1,14864,,120.972942,31.354978,创业路588号,883728
清华园,3,8571,0.025362,120.571521,30.653344,逾桥东路425号,892496
中山新村,3,11666,-0.297652,120.956975,31.384319,中山北路,884379
开心公寓,1,6666,-0.125885,120.954895,31.354361,熊庄路,883751
荣盛观湖景园(别墅),3,9534,-0.295656,120.833774,30.822853,兴民路,991786
优山美地花园,2,18000,0.011122,120.922271,31.945773,星湖大道1888号,917661
锦绣家园,2,10389,,119.709934,30.633693,昌硕东路734号,939659
鑫隆花园,1,6923,0.036843,120.672850,31.162641,绣湖西路618号,887033
奥体新城,1,6666,,120.607834,32.379582,惠政路,918271
中港城世家一期,1,9213,,120.853199,32.047048,濠西路,917856
新城吾悦广场,14,16250,-0.016582,120.595896,30.634163,振兴东路439号,993033
万豪佳园(别墅),6,8596,-0.000465,120.973989,31.612781,支塘集贤路,885303
东方新村,12,11530,0.002958,120.968231,31.378809,朝阳西路,883411
望湖公馆,15,8421,0.023269,120.746050,30.737358,由拳路,890014
盛丰苑,1,14117,-0.160402,120.635795,31.258085,东吴南路173号,887559
协孚锦园,1,9444,-0.152168,120.978076,31.368079,庆丰路,884177
佳兆业君汇上品花园,7,10938,0.000244,120.590238,31.388877,兴业路,888969
东方雅苑,1,7709,0.100657,119.709350,30.637788,祥溪路294号,939629
文苑小区,23,7439,-0.081718,120.779076,30.743105,纺工路,890031
罗马都市(二期),3,9888,-0.079330,120.799700,30.756176,望湖路906号,889917
越运里小区,2,10666,0.013782,120.739018,30.761587,越秀南路828号,890110
太阳湖大花园,96,18846,0.304673,120.875842,31.086002,张园东路88号,13044
鑫控吴越学府,68,10645,-0.020339,120.825326,30.735292,由拳路,989586
佳源都市,220,9737,-0.026931,120.080131,30.850406,佳园路,939033
农房斯坦福德小镇,6,9193,0.147261,120.716047,31.926953,乐富路99号,889451
紫桂花园,3,7777,-0.112822,120.903396,30.890058,叶新路61号,890447
小城春秋,82,10274,-0.039634,120.881798,30.766100,嘉善大道113号,890047
珠江新村,2,21538,0.007531,120.977244,31.385977,珠江北路,884391
合兴西路169号大院,1,14828,-0.101303,120.956839,31.377028,合兴西路169号,883529
昆山国际模具城,1,9600,,120.952842,31.462115,北门路，近玉杨路,946552
东郊新村,1,10206,0.267511,120.713662,30.553140,碧云北路,890532
金玉满唐,4,16666,0.037669,120.856845,31.552025,中环路,884939
花溪新村,1,9824,-0.049168,120.763560,31.632555,荡蹲路,884876
中洲花溪地,95,11476,-0.042588,120.829028,30.736753,由拳路,952158
苏州丽都国际,2,14444,,120.639957,31.259622,石湖东路100-12号,887586
淀山湖壹号,261,14811,0.094877,121.019264,31.150120,环湖大道,883396
摩玛自由城,7,5714,-0.005915,121.012541,31.347360,金阳西路,883896
恒大名都,157,9397,0.025426,121.016252,30.684385,梅园路,892324
云湖92墅,126,19502,0.047677,121.004590,31.183058,万园路188号,884339
颐景园,16,28571,0.016545,121.000797,31.413438,金浦路,884268
秦峰公寓,3,9444,,121.016288,31.278317,圣祥中路,883944
碧桂园海湾一号,365,9266,0.015897,121.006138,30.595579,姚家路，近西场路,1030695
锦华园,4,11348,0.056021,121.006669,31.386090,震川东路1018号,883709
天籁花园,4,9565,-0.192418,121.004788,31.391717,咸子泾路,884100
丽景花园,1,7303,-0.334275,121.010645,31.936687,平通中路,918621
昆山小上海公馆,12,9883,-0.007631,121.017126,31.263965,炎中路，近景唐北路,884695
淀湖鹿鸣九里,56,16145,0.051002,121.002524,31.163435,万园路66号,883391
建枫新村,3,19555,0.035752,121.019582,30.891651,南大街149号,819379
金山嘉园,8,10670,-0.088579,121.002675,31.461911,青阳北路99号,883704
大唐华庄,2,7386,-0.038156,121.013474,31.275422,泰峰路14号,883381
千灯老街,11,11272,,121.009351,31.271734,尚书路,884529
清波公寓,8,11200,0.211204,121.002859,30.710565,城西路451号,892367
大自然花园,5,18826,-0.173138,121.000285,31.188894,新乐路999号,883387
淀湖鹿鸣九里(商住楼),2,10079,-0.000412,121.002255,31.162937,万园路66号,926378
平湖中荟城,4,8695,-0.222481,121.013236,30.700754,育才路705号,892416
宜家花园,85,8125,0.073665,121.010310,31.347368,金阳路,884266
沙葛新村,1,8611,0.009259,121.001955,31.347770,丰安路46号,883994
南通金科廊桥水岸,13,8541,,121.016670,31.845688,乐成路，近苏通路,952777
千灯尚景苑,35,10500,-0.027508,121.018052,31.268934,尚书路，近恒升路,946525
善景园,1,10000,-0.046529,121.019591,31.251551,景塘路,883998
忆江南花园,2,12500,,121.000635,31.270106,故居路,884271
康悦小区,1,6307,-0.292382,121.011250,31.377504,康悦路5号,883763
时代名苑,2,9506,-0.056851,121.000941,31.412242,青阳北路,884036
景江花园,3,9813,-0.000153,121.001420,31.385792,青阳中路18号,883733
碧桂园世纪城,109,12087,-0.037966,121.018275,31.249228,黄浦江路，近淞南西路,884430
滨海花苑,33,10960,-0.000365,121.002422,30.604963,东海大道，近西场路,940421
东海花苑(南区),6,7500,-0.015360,121.008660,30.599475,海港大道,890470
新浦花园,1,14851,0.055883,121.003654,31.405581,春辉路,884198
东海花苑(北区),4,10231,0.068341,121.005242,30.601619,东海大道,890469
吉祥小区,12,10114,0.027792,121.010801,30.687507,梅兰路297号,892333
平湖赞城,20,9495,0.013718,121.010603,30.704478,城南西路166号,892404
中乐新村,1,9230,0.052692,121.007569,31.413162,金浦路,884375
龙邑小区,4,6774,-0.110673,121.008649,31.345165,春阳路,883827
锦城春天,5,8984,0.021025,121.015698,30.701882,环城西路51号,892343
东淀湖庄园,38,14720,0.058496,121.006131,31.150372,湖滨路99号,883403
